#Header,Sender ID,Target ID,MSG Counter,Time, Object X,Object Y,Object Z,Object Roll,Object Pitch,Object Yaw,Smoke,Object Model,spare,CheckSum
AA55,1,2,11,0.0000,-2.33E-11,4.00E+01,3.75E-11,0.00E+00,1.00E+01,-1.59E-15,1,0,0,FF
AA55,1,2,15,0.0100,4.37E-03,4.00E+01,7.71E-04,-9.69E-06,1.00E+01,3.89E-06,1,1,0,FF
AA55,1,2,19,0.0200,2.62E-02,4.00E+01,4.63E-03,-9.69E-06,1.00E+01,3.89E-06,1,0,0,FF
AA55,1,2,27,0.0400,1.22E-01,4.00E+01,2.16E-02,-9.69E-06,1.00E+01,3.89E-06,1,0,0,FF
AA55,1,2,31,0.0500,1.97E-01,4.00E+01,3.47E-02,-9.69E-06,1.00E+01,3.89E-06,1,0,0,FF
AA55,1,2,39,0.0700,3.97E-01,4.00E+01,7.00E-02,-9.69E-06,1.00E+01,3.89E-06,1,0,0,FF
AA55,1,2,43,0.0800,5.24E-01,4.00E+01,9.23E-02,-9.69E-06,1.00E+01,3.89E-06,1,0,0,FF
AA55,1,2,51,0.1000,8.29E-01,4.00E+01,1.46E-01,-9.69E-06,1.00E+01,3.89E-06,1,0,0,FF
AA55,1,2,63,0.1300,1.42E+00,4.00E+01,2.50E-01,-9.69E-06,1.00E+01,3.89E-06,1,0,0,FF
AA55,1,2,67,0.1400,1.65E+00,4.00E+01,2.90E-01,-9.69E-06,1.00E+01,3.89E-06,1,1,0,FF
AA55,1,2,75,0.1600,2.16E+00,4.00E+01,3.79E-01,-9.69E-06,1.00E+01,3.89E-06,1,0,0,FF
AA55,1,2,79,0.1700,2.44E+00,4.00E+01,4.27E-01,-1.88E-05,1.00E+01,7.32E-06,1,1,0,FF
AA55,1,2,91,0.2000,3.39E+00,4.00E+01,5.82E-01,-3.09E-04,1.00E+01,7.91E-05,1,1,0,FF
AA55,1,2,103,0.2300,4.50E+00,4.00E+01,7.56E-01,-1.77E-03,9.99E+00,3.49E-04,1,1,0,FF
AA55,1,2,115,0.2600,5.76E+00,4.00E+01,9.49E-01,-5.31E-03,9.97E+00,8.91E-04,1,1,0,FF
AA55,1,2,119,0.2700,6.22E+00,4.00E+01,1.02E+00,-7.51E-03,9.96E+00,1.20E-03,1,0,0,FF
AA55,1,2,123,0.2800,6.69E+00,4.00E+01,1.09E+00,-1.02E-02,9.95E+00,1.57E-03,1,1,0,FF
AA55,1,2,139,0.3200,8.75E+00,4.00E+01,1.39E+00,-4.30E-02,9.86E+00,3.97E-03,1,0,0,FF
AA55,1,2,143,0.3300,9.31E+00,4.00E+01,1.47E+00,-1.17E-01,9.82E+00,4.98E-03,1,0,0,FF
AA55,1,2,147,0.3400,9.89E+00,4.00E+01,1.56E+00,-2.89E-01,9.79E+00,6.26E-03,1,1,0,FF
AA55,1,2,167,0.3900,1.30E+01,4.00E+01,2.00E+00,-3.93E+00,9.42E+00,1.77E-02,1,1,0,FF
AA55,1,2,171,0.4000,1.37E+01,4.00E+01,2.10E+00,-5.31E+00,9.31E+00,2.16E-02,1,1,0,FF
AA55,1,2,191,0.4500,1.73E+01,4.00E+01,2.60E+00,-1.56E+01,8.44E+00,7.08E-02,1,1,0,FF
AA55,1,2,195,0.4600,1.81E+01,4.00E+01,2.71E+00,-1.83E+01,8.22E+00,9.27E-02,1,0,0,FF
AA55,1,2,219,0.5200,2.31E+01,4.00E+01,3.37E+00,-3.46E+01,6.55E+00,3.95E-01,1,0,0,FF
AA55,1,2,223,0.5300,2.40E+01,4.00E+01,3.48E+00,-3.69E+01,6.23E+00,4.90E-01,1,1,0,FF
AA55,1,2,227,0.5400,2.49E+01,4.00E+01,3.60E+00,-3.89E+01,5.90E+00,6.05E-01,1,0,0,FF
AA55,1,2,231,0.5500,2.59E+01,4.00E+01,3.71E+00,-4.08E+01,5.56E+00,7.40E-01,1,0,0,FF
AA55,1,2,235,0.5600,2.68E+01,4.00E+01,3.83E+00,-4.25E+01,5.22E+00,8.96E-01,1,1,0,FF
AA55,1,2,267,0.6400,3.50E+01,4.00E+01,4.75E+00,-5.11E+01,2.67E+00,2.74E+00,1,1,0,FF
AA55,1,2,271,0.6500,3.61E+01,3.99E+01,4.87E+00,-5.17E+01,2.41E+00,3.00E+00,1,0,0,FF
AA55,1,2,275,0.6600,3.72E+01,3.99E+01,4.98E+00,-5.23E+01,2.18E+00,3.27E+00,1,0,0,FF
AA55,1,2,279,0.6700,3.83E+01,3.99E+01,5.09E+00,-5.28E+01,1.96E+00,3.53E+00,1,1,0,FF
AA55,1,2,283,0.6800,3.95E+01,3.99E+01,5.20E+00,-5.33E+01,1.76E+00,3.79E+00,1,0,0,FF
AA55,1,2,319,0.7700,5.05E+01,3.97E+01,6.11E+00,-5.87E+01,8.00E-01,5.66E+00,1,0,0,FF
AA55,1,2,323,0.7800,5.18E+01,3.96E+01,6.21E+00,-5.93E+01,7.61E-01,5.82E+00,1,1,0,FF
AA55,1,2,327,0.7900,5.31E+01,3.96E+01,6.30E+00,-5.99E+01,7.31E-01,5.98E+00,1,0,0,FF
AA55,1,2,331,0.8000,5.45E+01,3.95E+01,6.39E+00,-6.05E+01,7.06E-01,6.13E+00,1,0,0,FF
AA55,1,2,335,0.8100,5.58E+01,3.95E+01,6.48E+00,-6.11E+01,6.87E-01,6.28E+00,1,1,0,FF
AA55,1,2,371,0.9000,6.87E+01,3.88E+01,7.18E+00,-6.62E+01,5.23E-01,7.65E+00,1,0,0,FF
AA55,1,2,375,0.9100,7.02E+01,3.87E+01,7.25E+00,-6.67E+01,4.91E-01,7.81E+00,1,1,0,FF
AA55,1,2,379,0.9200,7.18E+01,3.87E+01,7.32E+00,-6.72E+01,4.55E-01,7.98E+00,1,1,0,FF
AA55,1,2,383,0.9300,7.33E+01,3.86E+01,7.39E+00,-6.76E+01,4.15E-01,8.15E+00,1,0,0,FF
AA55,1,2,422,1.0300,8.91E+01,3.73E+01,7.94E+00,-6.99E+01,-1.11E-01,9.79E+00,1,1,0,FF
AA55,1,2,423,1.0300,8.95E+01,3.73E+01,7.95E+00,-6.99E+01,-1.28E-01,9.83E+00,1,1,0,FF
AA55,1,2,424,1.0300,9.00E+01,3.73E+01,7.96E+00,-6.99E+01,-1.46E-01,9.87E+00,1,1,0,FF
AA55,1,2,425,1.0300,9.04E+01,3.72E+01,7.97E+00,-6.99E+01,-1.63E-01,9.91E+00,1,1,0,FF
AA55,1,2,426,1.0400,9.08E+01,3.72E+01,7.98E+00,-6.99E+01,-1.81E-01,9.95E+00,1,0,0,FF
AA55,1,2,427,1.0400,9.12E+01,3.72E+01,7.99E+00,-7.00E+01,-2.00E-01,9.99E+00,1,0,0,FF
AA55,1,2,428,1.0400,9.17E+01,3.71E+01,8.00E+00,-7.00E+01,-2.18E-01,1.00E+01,1,0,0,FF
AA55,1,2,429,1.0400,9.21E+01,3.71E+01,8.01E+00,-7.00E+01,-2.37E-01,1.01E+01,1,0,0,FF
AA55,1,2,430,1.0500,9.25E+01,3.70E+01,8.02E+00,-7.00E+01,-2.56E-01,1.01E+01,1,0,0,FF
AA55,1,2,431,1.0500,9.30E+01,3.70E+01,8.04E+00,-7.00E+01,-2.75E-01,1.01E+01,1,1,0,FF
AA55,1,2,432,1.0500,9.34E+01,3.70E+01,8.05E+00,-6.99E+01,-2.95E-01,1.02E+01,1,1,0,FF
AA55,1,2,433,1.0500,9.38E+01,3.69E+01,8.06E+00,-6.99E+01,-3.15E-01,1.02E+01,1,1,0,FF
AA55,1,2,434,1.0600,9.43E+01,3.69E+01,8.07E+00,-6.99E+01,-3.35E-01,1.02E+01,1,1,0,FF
AA55,1,2,435,1.0600,9.47E+01,3.68E+01,8.08E+00,-6.99E+01,-3.56E-01,1.03E+01,1,1,0,FF
AA55,1,2,436,1.0600,9.51E+01,3.68E+01,8.09E+00,-6.99E+01,-3.77E-01,1.03E+01,1,0,0,FF
AA55,1,2,437,1.0600,9.56E+01,3.67E+01,8.10E+00,-6.99E+01,-3.98E-01,1.04E+01,1,0,0,FF
AA55,1,2,438,1.0700,9.60E+01,3.67E+01,8.11E+00,-6.99E+01,-4.19E-01,1.04E+01,1,0,0,FF
AA55,1,2,439,1.0700,9.64E+01,3.67E+01,8.12E+00,-6.99E+01,-4.41E-01,1.04E+01,1,0,0,FF
AA55,1,2,440,1.0700,9.69E+01,3.66E+01,8.12E+00,-6.98E+01,-4.63E-01,1.05E+01,1,0,0,FF
AA55,1,2,441,1.0800,9.73E+01,3.66E+01,8.13E+00,-6.98E+01,-4.85E-01,1.05E+01,1,1,0,FF
AA55,1,2,442,1.0800,9.78E+01,3.65E+01,8.14E+00,-6.98E+01,-5.07E-01,1.05E+01,1,1,0,FF
AA55,1,2,443,1.0800,9.82E+01,3.65E+01,8.15E+00,-6.98E+01,-5.29E-01,1.06E+01,1,1,0,FF
AA55,1,2,444,1.0800,9.86E+01,3.64E+01,8.16E+00,-6.97E+01,-5.52E-01,1.06E+01,1,1,0,FF
AA55,1,2,445,1.0900,9.91E+01,3.64E+01,8.17E+00,-6.97E+01,-5.75E-01,1.06E+01,1,1,0,FF
AA55,1,2,446,1.0900,9.95E+01,3.64E+01,8.18E+00,-6.97E+01,-5.98E-01,1.07E+01,1,0,0,FF
AA55,1,2,447,1.0900,1.00E+02,3.63E+01,8.19E+00,-6.96E+01,-6.21E-01,1.07E+01,1,0,0,FF
AA55,1,2,448,1.0900,1.00E+02,3.63E+01,8.20E+00,-6.96E+01,-6.44E-01,1.08E+01,1,0,0,FF
AA55,1,2,449,1.1000,1.01E+02,3.62E+01,8.20E+00,-6.95E+01,-6.68E-01,1.08E+01,1,0,0,FF
AA55,1,2,450,1.1000,1.01E+02,3.62E+01,8.21E+00,-6.95E+01,-6.92E-01,1.08E+01,1,0,0,FF
AA55,1,2,451,1.1000,1.02E+02,3.61E+01,8.22E+00,-6.94E+01,-7.16E-01,1.09E+01,1,0,0,FF
AA55,1,2,452,1.1000,1.02E+02,3.61E+01,8.23E+00,-6.94E+01,-7.40E-01,1.09E+01,1,0,0,FF
AA55,1,2,453,1.1100,1.03E+02,3.60E+01,8.23E+00,-6.93E+01,-7.64E-01,1.09E+01,1,0,0,FF
AA55,1,2,454,1.1100,1.03E+02,3.60E+01,8.24E+00,-6.93E+01,-7.89E-01,1.10E+01,1,1,0,FF
AA55,1,2,455,1.1100,1.04E+02,3.59E+01,8.25E+00,-6.92E+01,-8.14E-01,1.10E+01,1,1,0,FF
AA55,1,2,456,1.1100,1.04E+02,3.59E+01,8.26E+00,-6.92E+01,-8.40E-01,1.10E+01,1,1,0,FF
AA55,1,2,457,1.1200,1.04E+02,3.58E+01,8.26E+00,-6.91E+01,-8.66E-01,1.11E+01,1,1,0,FF
AA55,1,2,458,1.1200,1.05E+02,3.58E+01,8.27E+00,-6.90E+01,-8.92E-01,1.11E+01,1,1,0,FF
AA55,1,2,459,1.1200,1.05E+02,3.57E+01,8.28E+00,-6.90E+01,-9.18E-01,1.11E+01,1,0,0,FF
AA55,1,2,460,1.1200,1.06E+02,3.57E+01,8.28E+00,-6.89E+01,-9.45E-01,1.12E+01,1,0,0,FF
AA55,1,2,522,1.2800,1.36E+02,3.17E+01,8.33E+00,-5.89E+01,-3.02E+00,1.30E+01,1,1,0,FF
AA55,1,2,523,1.2800,1.36E+02,3.16E+01,8.33E+00,-5.86E+01,-3.05E+00,1.30E+01,1,1,0,FF
AA55,1,2,524,1.2800,1.37E+02,3.16E+01,8.32E+00,-5.82E+01,-3.08E+00,1.30E+01,1,1,0,FF
AA55,1,2,525,1.2800,1.37E+02,3.15E+01,8.31E+00,-5.79E+01,-3.12E+00,1.30E+01,1,0,0,FF
AA55,1,2,526,1.2900,1.38E+02,3.14E+01,8.31E+00,-5.75E+01,-3.15E+00,1.30E+01,1,0,0,FF
AA55,1,2,527,1.2900,1.38E+02,3.13E+01,8.30E+00,-5.71E+01,-3.18E+00,1.30E+01,1,0,0,FF
AA55,1,2,528,1.2900,1.39E+02,3.12E+01,8.29E+00,-5.67E+01,-3.21E+00,1.30E+01,1,0,0,FF
AA55,1,2,529,1.2900,1.39E+02,3.12E+01,8.28E+00,-5.63E+01,-3.24E+00,1.30E+01,1,0,0,FF
AA55,1,2,530,1.3000,1.40E+02,3.11E+01,8.28E+00,-5.58E+01,-3.26E+00,1.30E+01,1,1,0,FF
AA55,1,2,531,1.3000,1.40E+02,3.10E+01,8.27E+00,-5.53E+01,-3.29E+00,1.30E+01,1,1,0,FF
AA55,1,2,532,1.3000,1.41E+02,3.09E+01,8.26E+00,-5.48E+01,-3.32E+00,1.29E+01,1,1,0,FF
AA55,1,2,533,1.3000,1.42E+02,3.08E+01,8.25E+00,-5.42E+01,-3.34E+00,1.29E+01,1,1,0,FF
AA55,1,2,534,1.3100,1.42E+02,3.07E+01,8.24E+00,-5.36E+01,-3.36E+00,1.29E+01,1,1,0,FF
AA55,1,2,535,1.3100,1.43E+02,3.07E+01,8.23E+00,-5.30E+01,-3.38E+00,1.29E+01,1,0,0,FF
AA55,1,2,536,1.3100,1.43E+02,3.06E+01,8.23E+00,-5.24E+01,-3.40E+00,1.28E+01,1,0,0,FF
AA55,1,2,537,1.3100,1.44E+02,3.05E+01,8.22E+00,-5.17E+01,-3.42E+00,1.28E+01,1,0,0,FF
AA55,1,2,538,1.3200,1.44E+02,3.04E+01,8.21E+00,-5.10E+01,-3.44E+00,1.28E+01,1,0,0,FF
AA55,1,2,539,1.3200,1.45E+02,3.03E+01,8.20E+00,-5.02E+01,-3.46E+00,1.27E+01,1,0,0,FF
AA55,1,2,540,1.3200,1.45E+02,3.02E+01,8.19E+00,-4.94E+01,-3.48E+00,1.27E+01,1,0,0,FF
AA55,1,2,541,1.3300,1.46E+02,3.02E+01,8.17E+00,-4.86E+01,-3.49E+00,1.26E+01,1,0,0,FF
AA55,1,2,542,1.3300,1.46E+02,3.01E+01,8.16E+00,-4.77E+01,-3.51E+00,1.26E+01,1,0,0,FF
AA55,1,2,543,1.3300,1.47E+02,3.00E+01,8.15E+00,-4.68E+01,-3.53E+00,1.25E+01,1,1,0,FF
AA55,1,2,544,1.3300,1.47E+02,2.99E+01,8.14E+00,-4.59E+01,-3.54E+00,1.25E+01,1,1,0,FF
AA55,1,2,545,1.3400,1.48E+02,2.98E+01,8.13E+00,-4.50E+01,-3.56E+00,1.24E+01,1,1,0,FF
AA55,1,2,546,1.3400,1.48E+02,2.97E+01,8.12E+00,-4.40E+01,-3.58E+00,1.23E+01,1,1,0,FF
AA55,1,2,547,1.3400,1.49E+02,2.96E+01,8.10E+00,-4.31E+01,-3.60E+00,1.23E+01,1,1,0,FF
AA55,1,2,548,1.3400,1.49E+02,2.95E+01,8.09E+00,-4.22E+01,-3.62E+00,1.22E+01,1,0,0,FF
AA55,1,2,549,1.3500,1.50E+02,2.95E+01,8.08E+00,-4.13E+01,-3.64E+00,1.22E+01,1,0,0,FF
AA55,1,2,550,1.3500,1.50E+02,2.94E+01,8.07E+00,-4.04E+01,-3.67E+00,1.21E+01,1,0,0,FF
AA55,1,2,551,1.3500,1.51E+02,2.93E+01,8.05E+00,-3.96E+01,-3.70E+00,1.20E+01,1,0,0,FF
AA55,1,2,552,1.3500,1.52E+02,2.92E+01,8.04E+00,-3.88E+01,-3.73E+00,1.20E+01,1,0,0,FF
AA55,1,2,553,1.3600,1.52E+02,2.91E+01,8.02E+00,-3.81E+01,-3.76E+00,1.19E+01,1,1,0,FF
AA55,1,2,554,1.3600,1.53E+02,2.90E+01,8.01E+00,-3.75E+01,-3.80E+00,1.18E+01,1,1,0,FF
AA55,1,2,555,1.3600,1.53E+02,2.89E+01,8.00E+00,-3.69E+01,-3.84E+00,1.18E+01,1,1,0,FF
AA55,1,2,556,1.3600,1.54E+02,2.88E+01,7.98E+00,-3.64E+01,-3.88E+00,1.17E+01,1,1,0,FF
AA55,1,2,557,1.3700,1.54E+02,2.87E+01,7.97E+00,-3.60E+01,-3.92E+00,1.17E+01,1,1,0,FF
AA55,1,2,558,1.3700,1.55E+02,2.87E+01,7.95E+00,-3.57E+01,-3.96E+00,1.16E+01,1,0,0,FF
AA55,1,2,559,1.3700,1.55E+02,2.86E+01,7.93E+00,-3.54E+01,-4.00E+00,1.15E+01,1,0,0,FF
AA55,1,2,560,1.3700,1.56E+02,2.85E+01,7.92E+00,-3.52E+01,-4.04E+00,1.15E+01,1,0,0,FF
AA55,1,2,626,1.5400,1.93E+02,2.21E+01,6.51E+00,-6.92E+01,1.51E-01,5.94E+00,1,0,0,FF
AA55,1,2,627,1.5400,1.94E+02,2.20E+01,6.49E+00,-6.92E+01,1.34E-01,5.86E+00,1,0,0,FF
AA55,1,2,628,1.5400,1.94E+02,2.19E+01,6.47E+00,-6.92E+01,1.15E-01,5.78E+00,1,0,0,FF
AA55,1,2,629,1.5400,1.95E+02,2.18E+01,6.45E+00,-6.92E+01,9.47E-02,5.70E+00,1,1,0,FF
AA55,1,2,630,1.5500,1.96E+02,2.17E+01,6.43E+00,-6.92E+01,7.27E-02,5.62E+00,1,1,0,FF
AA55,1,2,631,1.5500,1.96E+02,2.16E+01,6.40E+00,-6.92E+01,4.96E-02,5.54E+00,1,1,0,FF
AA55,1,2,632,1.5500,1.97E+02,2.15E+01,6.38E+00,-6.92E+01,2.57E-02,5.46E+00,1,1,0,FF
AA55,1,2,633,1.5500,1.97E+02,2.14E+01,6.36E+00,-6.92E+01,1.05E-03,5.38E+00,1,1,0,FF
AA55,1,2,634,1.5600,1.98E+02,2.14E+01,6.34E+00,-6.92E+01,-2.41E-02,5.31E+00,1,0,0,FF
AA55,1,2,635,1.5600,1.98E+02,2.13E+01,6.32E+00,-6.92E+01,-4.94E-02,5.23E+00,1,0,0,FF
AA55,1,2,636,1.5600,1.99E+02,2.12E+01,6.30E+00,-6.93E+01,-7.48E-02,5.15E+00,1,0,0,FF
AA55,1,2,637,1.5600,2.00E+02,2.11E+01,6.28E+00,-6.93E+01,-1.00E-01,5.07E+00,1,0,0,FF
AA55,1,2,638,1.5700,2.00E+02,2.10E+01,6.26E+00,-6.94E+01,-1.25E-01,5.00E+00,1,0,0,FF
AA55,1,2,639,1.5700,2.01E+02,2.09E+01,6.24E+00,-6.95E+01,-1.50E-01,4.92E+00,1,0,0,FF
AA55,1,2,640,1.5700,2.01E+02,2.08E+01,6.22E+00,-6.96E+01,-1.74E-01,4.84E+00,1,0,0,FF
AA55,1,2,641,1.5800,2.02E+02,2.07E+01,6.20E+00,-6.98E+01,-1.98E-01,4.77E+00,1,0,0,FF
AA55,1,2,642,1.5800,2.03E+02,2.06E+01,6.18E+00,-6.99E+01,-2.22E-01,4.69E+00,1,1,0,FF
AA55,1,2,643,1.5800,2.03E+02,2.05E+01,6.16E+00,-7.01E+01,-2.45E-01,4.62E+00,1,1,0,FF
AA55,1,2,644,1.5800,2.04E+02,2.05E+01,6.13E+00,-7.03E+01,-2.68E-01,4.55E+00,1,1,0,FF
AA55,1,2,645,1.5900,2.04E+02,2.04E+01,6.11E+00,-7.05E+01,-2.90E-01,4.47E+00,1,1,0,FF
AA55,1,2,646,1.5900,2.05E+02,2.03E+01,6.09E+00,-7.07E+01,-3.12E-01,4.40E+00,1,1,0,FF
AA55,1,2,647,1.5900,2.05E+02,2.02E+01,6.07E+00,-7.10E+01,-3.34E-01,4.32E+00,1,0,0,FF
AA55,1,2,648,1.5900,2.06E+02,2.01E+01,6.05E+00,-7.12E+01,-3.54E-01,4.25E+00,1,0,0,FF
AA55,1,2,649,1.6000,2.07E+02,2.00E+01,6.03E+00,-7.15E+01,-3.74E-01,4.18E+00,1,0,0,FF
AA55,1,2,650,1.6000,2.07E+02,1.99E+01,6.01E+00,-7.17E+01,-3.94E-01,4.11E+00,1,0,0,FF
AA55,1,2,651,1.6000,2.08E+02,1.98E+01,5.99E+00,-7.20E+01,-4.13E-01,4.03E+00,1,0,0,FF
AA55,1,2,652,1.6000,2.08E+02,1.98E+01,5.97E+00,-7.23E+01,-4.33E-01,3.96E+00,1,1,0,FF
AA55,1,2,653,1.6100,2.09E+02,1.97E+01,5.95E+00,-7.26E+01,-4.52E-01,3.89E+00,1,1,0,FF
AA55,1,2,654,1.6100,2.09E+02,1.96E+01,5.93E+00,-7.29E+01,-4.70E-01,3.82E+00,1,1,0,FF
AA55,1,2,655,1.6100,2.10E+02,1.95E+01,5.91E+00,-7.32E+01,-4.89E-01,3.75E+00,1,1,0,FF
AA55,1,2,656,1.6100,2.11E+02,1.94E+01,5.89E+00,-7.35E+01,-5.08E-01,3.68E+00,1,1,0,FF
AA55,1,2,657,1.6200,2.11E+02,1.93E+01,5.87E+00,-7.38E+01,-5.27E-01,3.61E+00,1,0,0,FF
AA55,1,2,658,1.6200,2.12E+02,1.93E+01,5.86E+00,-7.41E+01,-5.46E-01,3.54E+00,1,0,0,FF
AA55,1,2,659,1.6200,2.12E+02,1.92E+01,5.84E+00,-7.44E+01,-5.65E-01,3.47E+00,1,0,0,FF
AA55,1,2,660,1.6200,2.13E+02,1.91E+01,5.82E+00,-7.47E+01,-5.85E-01,3.40E+00,1,0,0,FF
AA55,1,2,730,1.8000,2.53E+02,1.43E+01,4.49E+00,-7.78E+01,-1.53E+00,1.17E+00,1,0,0,FF
AA55,1,2,731,1.8000,2.54E+02,1.42E+01,4.47E+00,-7.76E+01,-1.53E+00,1.18E+00,1,1,0,FF
AA55,1,2,732,1.8000,2.55E+02,1.42E+01,4.45E+00,-7.73E+01,-1.53E+00,1.20E+00,1,1,0,FF
AA55,1,2,733,1.8000,2.55E+02,1.41E+01,4.43E+00,-7.71E+01,-1.53E+00,1.22E+00,1,1,0,FF
AA55,1,2,734,1.8100,2.56E+02,1.41E+01,4.41E+00,-7.68E+01,-1.53E+00,1.24E+00,1,1,0,FF
AA55,1,2,735,1.8100,2.56E+02,1.40E+01,4.39E+00,-7.65E+01,-1.52E+00,1.26E+00,1,1,0,FF
AA55,1,2,736,1.8100,2.57E+02,1.40E+01,4.37E+00,-7.63E+01,-1.52E+00,1.28E+00,1,0,0,FF
AA55,1,2,737,1.8100,2.57E+02,1.39E+01,4.36E+00,-7.60E+01,-1.51E+00,1.30E+00,1,0,0,FF
AA55,1,2,738,1.8200,2.58E+02,1.39E+01,4.34E+00,-7.57E+01,-1.51E+00,1.32E+00,1,0,0,FF
AA55,1,2,739,1.8200,2.59E+02,1.38E+01,4.32E+00,-7.53E+01,-1.50E+00,1.34E+00,1,0,0,FF
AA55,1,2,740,1.8200,2.59E+02,1.38E+01,4.30E+00,-7.50E+01,-1.49E+00,1.37E+00,1,0,0,FF
AA55,1,2,741,1.8300,2.60E+02,1.37E+01,4.28E+00,-7.47E+01,-1.49E+00,1.39E+00,1,1,0,FF
AA55,1,2,742,1.8300,2.60E+02,1.37E+01,4.26E+00,-7.43E+01,-1.48E+00,1.41E+00,1,1,0,FF
AA55,1,2,743,1.8300,2.61E+02,1.36E+01,4.24E+00,-7.40E+01,-1.47E+00,1.43E+00,1,1,0,FF
AA55,1,2,744,1.8300,2.61E+02,1.35E+01,4.22E+00,-7.36E+01,-1.46E+00,1.45E+00,1,1,0,FF
AA55,1,2,745,1.8400,2.62E+02,1.35E+01,4.20E+00,-7.32E+01,-1.45E+00,1.47E+00,1,1,0,FF
AA55,1,2,746,1.8400,2.63E+02,1.34E+01,4.18E+00,-7.28E+01,-1.44E+00,1.50E+00,1,0,0,FF
AA55,1,2,747,1.8400,2.63E+02,1.34E+01,4.17E+00,-7.24E+01,-1.43E+00,1.52E+00,1,0,0,FF
AA55,1,2,748,1.8400,2.64E+02,1.33E+01,4.15E+00,-7.19E+01,-1.41E+00,1.54E+00,1,0,0,FF
AA55,1,2,749,1.8500,2.64E+02,1.33E+01,4.13E+00,-7.15E+01,-1.40E+00,1.56E+00,1,0,0,FF
AA55,1,2,750,1.8500,2.65E+02,1.32E+01,4.11E+00,-7.10E+01,-1.39E+00,1.58E+00,1,0,0,FF
AA55,1,2,751,1.8500,2.65E+02,1.32E+01,4.09E+00,-7.06E+01,-1.37E+00,1.61E+00,1,1,0,FF
AA55,1,2,752,1.8500,2.66E+02,1.31E+01,4.07E+00,-7.01E+01,-1.35E+00,1.63E+00,1,1,0,FF
AA55,1,2,753,1.8600,2.67E+02,1.31E+01,4.05E+00,-6.96E+01,-1.34E+00,1.65E+00,1,1,0,FF
AA55,1,2,754,1.8600,2.67E+02,1.31E+01,4.03E+00,-6.91E+01,-1.32E+00,1.67E+00,1,1,0,FF
AA55,1,2,755,1.8600,2.68E+02,1.30E+01,4.01E+00,-6.85E+01,-1.30E+00,1.69E+00,1,1,0,FF
AA55,1,2,756,1.8600,2.68E+02,1.30E+01,4.00E+00,-6.80E+01,-1.28E+00,1.71E+00,1,0,0,FF
AA55,1,2,757,1.8700,2.69E+02,1.29E+01,3.98E+00,-6.75E+01,-1.26E+00,1.73E+00,1,0,0,FF
AA55,1,2,758,1.8700,2.70E+02,1.29E+01,3.96E+00,-6.69E+01,-1.24E+00,1.75E+00,1,0,0,FF
AA55,1,2,759,1.8700,2.70E+02,1.28E+01,3.94E+00,-6.63E+01,-1.22E+00,1.76E+00,1,0,0,FF
AA55,1,2,760,1.8700,2.71E+02,1.28E+01,3.92E+00,-6.57E+01,-1.19E+00,1.78E+00,1,0,0,FF
AA55,1,2,833,2.0600,3.12E+02,9.68E+00,2.68E+00,-1.89E+01,5.15E-01,3.52E+00,1,1,0,FF
AA55,1,2,834,2.0600,3.13E+02,9.65E+00,2.66E+00,-1.86E+01,5.19E-01,3.54E+00,1,1,0,FF
AA55,1,2,835,2.0600,3.13E+02,9.61E+00,2.65E+00,-1.84E+01,5.23E-01,3.55E+00,1,0,0,FF
AA55,1,2,836,2.0600,3.14E+02,9.57E+00,2.63E+00,-1.81E+01,5.28E-01,3.56E+00,1,0,0,FF
AA55,1,2,837,2.0600,3.15E+02,9.53E+00,2.62E+00,-1.79E+01,5.32E-01,3.57E+00,1,0,0,FF
AA55,1,2,841,2.0800,3.17E+02,9.37E+00,2.56E+00,-1.73E+01,5.49E-01,3.60E+00,1,1,0,FF
AA55,1,2,842,2.0800,3.17E+02,9.34E+00,2.55E+00,-1.71E+01,5.53E-01,3.61E+00,1,1,0,FF
AA55,1,2,843,2.0800,3.18E+02,9.30E+00,2.53E+00,-1.69E+01,5.57E-01,3.61E+00,1,1,0,FF
AA55,1,2,844,2.0800,3.19E+02,9.26E+00,2.52E+00,-1.67E+01,5.60E-01,3.61E+00,1,1,0,FF
AA55,1,2,849,2.1000,3.21E+02,9.07E+00,2.45E+00,-1.56E+01,5.67E-01,3.61E+00,1,0,0,FF
AA55,1,2,850,2.1000,3.22E+02,9.03E+00,2.44E+00,-1.54E+01,5.68E-01,3.61E+00,1,0,0,FF
AA55,1,2,851,2.1000,3.22E+02,8.99E+00,2.43E+00,-1.51E+01,5.68E-01,3.61E+00,1,0,0,FF
AA55,1,2,852,2.1000,3.23E+02,8.95E+00,2.41E+00,-1.49E+01,5.68E-01,3.61E+00,1,0,0,FF
AA55,1,2,857,2.1200,3.26E+02,8.76E+00,2.35E+00,-1.39E+01,5.67E-01,3.58E+00,1,1,0,FF
AA55,1,2,858,2.1200,3.26E+02,8.72E+00,2.34E+00,-1.37E+01,5.66E-01,3.58E+00,1,0,0,FF
AA55,1,2,859,2.1200,3.27E+02,8.69E+00,2.32E+00,-1.35E+01,5.65E-01,3.57E+00,1,0,0,FF
AA55,1,2,860,2.1200,3.28E+02,8.65E+00,2.31E+00,-1.34E+01,5.64E-01,3.57E+00,1,0,0,FF
AA55,1,2,866,2.1400,3.31E+02,8.42E+00,2.24E+00,-1.29E+01,5.52E-01,3.54E+00,1,1,0,FF
AA55,1,2,867,2.1400,3.32E+02,8.38E+00,2.23E+00,-1.29E+01,5.49E-01,3.53E+00,1,1,0,FF
AA55,1,2,868,2.1400,3.32E+02,8.35E+00,2.21E+00,-1.29E+01,5.46E-01,3.53E+00,1,0,0,FF
AA55,1,2,874,2.1600,3.35E+02,8.12E+00,2.14E+00,-1.33E+01,5.27E-01,3.49E+00,1,1,0,FF
AA55,1,2,875,2.1600,3.36E+02,8.08E+00,2.13E+00,-1.34E+01,5.23E-01,3.49E+00,1,1,0,FF
AA55,1,2,876,2.1600,3.37E+02,8.05E+00,2.12E+00,-1.36E+01,5.21E-01,3.48E+00,1,1,0,FF
AA55,1,2,882,2.1800,3.40E+02,7.82E+00,2.05E+00,-1.45E+01,5.14E-01,3.44E+00,1,0,0,FF
AA55,1,2,883,2.1800,3.41E+02,7.78E+00,2.04E+00,-1.47E+01,5.14E-01,3.43E+00,1,0,0,FF
AA55,1,2,884,2.1800,3.41E+02,7.75E+00,2.03E+00,-1.49E+01,5.14E-01,3.42E+00,1,0,0,FF
AA55,1,2,890,2.2000,3.45E+02,7.52E+00,1.96E+00,-1.63E+01,5.25E-01,3.37E+00,1,1,0,FF
AA55,1,2,891,2.2000,3.45E+02,7.49E+00,1.95E+00,-1.66E+01,5.28E-01,3.36E+00,1,0,0,FF
AA55,1,2,892,2.2000,3.46E+02,7.45E+00,1.94E+00,-1.68E+01,5.31E-01,3.35E+00,1,0,0,FF
AA55,1,2,898,2.2200,3.49E+02,7.23E+00,1.87E+00,-1.85E+01,5.56E-01,3.29E+00,1,1,0,FF
AA55,1,2,899,2.2200,3.50E+02,7.19E+00,1.86E+00,-1.89E+01,5.61E-01,3.28E+00,1,1,0,FF
AA55,1,2,900,2.2200,3.50E+02,7.16E+00,1.85E+00,-1.92E+01,5.67E-01,3.26E+00,1,1,0,FF
AA55,1,2,906,2.2400,3.54E+02,6.94E+00,1.79E+00,-2.12E+01,6.07E-01,3.19E+00,1,1,0,FF
AA55,1,2,907,2.2400,3.54E+02,6.90E+00,1.78E+00,-2.16E+01,6.14E-01,3.17E+00,1,1,0,FF
AA55,1,2,908,2.2400,3.55E+02,6.86E+00,1.77E+00,-2.20E+01,6.20E-01,3.16E+00,1,1,0,FF
AA55,1,2,933,2.3100,3.69E+02,5.97E+00,1.52E+00,-3.10E+01,7.11E-01,2.73E+00,1,1,0,FF
AA55,1,2,934,2.3100,3.69E+02,5.94E+00,1.51E+00,-3.13E+01,7.11E-01,2.71E+00,1,0,0,FF
AA55,1,2,935,2.3100,3.70E+02,5.90E+00,1.51E+00,-3.17E+01,7.10E-01,2.70E+00,1,0,0,FF
AA55,1,2,936,2.3100,3.70E+02,5.87E+00,1.50E+00,-3.20E+01,7.09E-01,2.68E+00,1,0,0,FF
AA55,1,2,937,2.3100,3.71E+02,5.83E+00,1.49E+00,-3.23E+01,7.07E-01,2.66E+00,1,0,0,FF
AA55,1,2,941,2.3300,3.73E+02,5.70E+00,1.45E+00,-3.36E+01,7.03E-01,2.58E+00,1,1,0,FF
AA55,1,2,942,2.3300,3.74E+02,5.66E+00,1.44E+00,-3.40E+01,7.02E-01,2.56E+00,1,1,0,FF
AA55,1,2,943,2.3300,3.74E+02,5.63E+00,1.43E+00,-3.43E+01,7.01E-01,2.54E+00,1,1,0,FF
AA55,1,2,944,2.3300,3.75E+02,5.59E+00,1.43E+00,-3.47E+01,7.00E-01,2.52E+00,1,0,0,FF
AA55,1,2,949,2.3500,3.78E+02,5.42E+00,1.38E+00,-3.64E+01,6.96E-01,2.42E+00,1,0,0,FF
AA55,1,2,950,2.3500,3.78E+02,5.39E+00,1.37E+00,-3.67E+01,6.96E-01,2.40E+00,1,0,0,FF
AA55,1,2,951,2.3500,3.79E+02,5.35E+00,1.37E+00,-3.70E+01,6.95E-01,2.37E+00,1,0,0,FF
AA55,1,2,952,2.3500,3.79E+02,5.32E+00,1.36E+00,-3.74E+01,6.94E-01,2.35E+00,1,1,0,FF
AA55,1,2,957,2.3700,3.82E+02,5.15E+00,1.32E+00,-3.90E+01,6.94E-01,2.25E+00,1,0,0,FF
AA55,1,2,958,2.3700,3.83E+02,5.12E+00,1.31E+00,-3.94E+01,6.94E-01,2.22E+00,1,0,0,FF
AA55,1,2,959,2.3700,3.83E+02,5.09E+00,1.30E+00,-3.97E+01,6.94E-01,2.20E+00,1,0,0,FF
AA55,1,2,960,2.3700,3.84E+02,5.06E+00,1.29E+00,-4.00E+01,6.94E-01,2.18E+00,1,0,0,FF
AA55,1,2,966,2.3900,3.87E+02,4.86E+00,1.24E+00,-4.19E+01,6.97E-01,2.05E+00,1,1,0,FF
AA55,1,2,967,2.3900,3.88E+02,4.83E+00,1.24E+00,-4.22E+01,6.98E-01,2.02E+00,1,0,0,FF
AA55,1,2,968,2.3900,3.88E+02,4.80E+00,1.23E+00,-4.25E+01,7.00E-01,2.00E+00,1,0,0,FF
AA55,1,2,974,2.4100,3.92E+02,4.60E+00,1.18E+00,-4.42E+01,7.08E-01,1.87E+00,1,1,0,FF
AA55,1,2,975,2.4100,3.92E+02,4.57E+00,1.18E+00,-4.45E+01,7.10E-01,1.84E+00,1,1,0,FF
AA55,1,2,976,2.4100,3.93E+02,4.54E+00,1.17E+00,-4.47E+01,7.11E-01,1.82E+00,1,1,0,FF
AA55,1,2,982,2.4300,3.96E+02,4.35E+00,1.12E+00,-4.63E+01,7.20E-01,1.69E+00,1,0,0,FF
AA55,1,2,983,2.4300,3.97E+02,4.32E+00,1.12E+00,-4.66E+01,7.22E-01,1.67E+00,1,0,0,FF
AA55,1,2,984,2.4300,3.97E+02,4.29E+00,1.11E+00,-4.68E+01,7.24E-01,1.65E+00,1,0,0,FF
AA55,1,2,990,2.4500,4.00E+02,4.11E+00,1.07E+00,-4.83E+01,7.32E-01,1.53E+00,1,0,0,FF
AA55,1,2,991,2.4500,4.01E+02,4.08E+00,1.06E+00,-4.85E+01,7.33E-01,1.50E+00,1,0,0,FF
AA55,1,2,992,2.4500,4.02E+02,4.05E+00,1.05E+00,-4.87E+01,7.34E-01,1.48E+00,1,0,0,FF
AA55,1,2,998,2.4700,4.05E+02,3.88E+00,1.01E+00,-5.00E+01,7.36E-01,1.37E+00,1,1,0,FF
AA55,1,2,999,2.4700,4.05E+02,3.85E+00,1.01E+00,-5.01E+01,7.35E-01,1.35E+00,1,1,0,FF
AA55,1,2,1000,2.4700,4.06E+02,3.82E+00,1.00E+00,-5.03E+01,7.33E-01,1.33E+00,1,0,0,FF
AA55,1,2,1006,2.4900,4.09E+02,3.65E+00,9.61E-01,-5.14E+01,7.17E-01,1.22E+00,1,1,0,FF
AA55,1,2,1007,2.4900,4.10E+02,3.62E+00,9.55E-01,-5.15E+01,7.14E-01,1.21E+00,1,1,0,FF
AA55,1,2,1008,2.4900,4.10E+02,3.59E+00,9.49E-01,-5.17E+01,7.10E-01,1.19E+00,1,1,0,FF
AA55,1,2,1033,2.5600,4.24E+02,2.94E+00,8.01E-01,-5.51E+01,6.95E-01,7.28E-01,1,0,0,FF
AA55,1,2,1034,2.5600,4.25E+02,2.91E+00,7.95E-01,-5.52E+01,6.98E-01,7.09E-01,1,0,0,FF
AA55,1,2,1035,2.5600,4.25E+02,2.89E+00,7.90E-01,-5.53E+01,7.00E-01,6.91E-01,1,0,0,FF
AA55,1,2,1036,2.5600,4.26E+02,2.86E+00,7.84E-01,-5.54E+01,7.03E-01,6.72E-01,1,0,0,FF
AA55,1,2,1037,2.5600,4.26E+02,2.84E+00,7.79E-01,-5.55E+01,7.05E-01,6.54E-01,1,0,0,FF
AA55,1,2,1041,2.5800,4.29E+02,2.74E+00,7.57E-01,-5.59E+01,7.16E-01,5.84E-01,1,1,0,FF
AA55,1,2,1042,2.5800,4.29E+02,2.72E+00,7.52E-01,-5.60E+01,7.19E-01,5.66E-01,1,1,0,FF
AA55,1,2,1043,2.5800,4.30E+02,2.70E+00,7.46E-01,-5.61E+01,7.21E-01,5.49E-01,1,1,0,FF
AA55,1,2,1044,2.5800,4.30E+02,2.67E+00,7.41E-01,-5.62E+01,7.24E-01,5.33E-01,1,1,0,FF
AA55,1,2,1049,2.6000,4.33E+02,2.56E+00,7.15E-01,-5.65E+01,7.36E-01,4.51E-01,1,0,0,FF
AA55,1,2,1050,2.6000,4.34E+02,2.54E+00,7.10E-01,-5.66E+01,7.38E-01,4.35E-01,1,0,0,FF
AA55,1,2,1051,2.6000,4.34E+02,2.51E+00,7.05E-01,-5.66E+01,7.41E-01,4.19E-01,1,1,0,FF
AA55,1,2,1052,2.6000,4.35E+02,2.49E+00,7.00E-01,-5.67E+01,7.43E-01,4.04E-01,1,1,0,FF
AA55,1,2,1057,2.6200,4.37E+02,2.38E+00,6.75E-01,-5.69E+01,7.47E-01,3.31E-01,1,0,0,FF
AA55,1,2,1058,2.6200,4.38E+02,2.36E+00,6.70E-01,-5.69E+01,7.47E-01,3.17E-01,1,0,0,FF
AA55,1,2,1059,2.6200,4.39E+02,2.34E+00,6.65E-01,-5.69E+01,7.47E-01,3.03E-01,1,0,0,FF
AA55,1,2,1060,2.6200,4.39E+02,2.32E+00,6.60E-01,-5.69E+01,7.47E-01,2.90E-01,1,0,0,FF
AA55,1,2,1066,2.6400,4.42E+02,2.19E+00,6.31E-01,-5.70E+01,7.44E-01,2.11E-01,1,0,0,FF
AA55,1,2,1067,2.6400,4.43E+02,2.17E+00,6.26E-01,-5.70E+01,7.43E-01,1.98E-01,1,0,0,FF
AA55,1,2,1068,2.6400,4.43E+02,2.15E+00,6.21E-01,-5.70E+01,7.43E-01,1.85E-01,1,0,0,FF
AA55,1,2,1074,2.6600,4.47E+02,2.04E+00,5.94E-01,-5.69E+01,7.45E-01,1.09E-01,1,1,0,FF
AA55,1,2,1075,2.6600,4.47E+02,2.02E+00,5.89E-01,-5.69E+01,7.45E-01,9.64E-02,1,1,0,FF
AA55,1,2,1076,2.6600,4.48E+02,2.00E+00,5.85E-01,-5.69E+01,7.46E-01,8.40E-02,1,1,0,FF
AA55,1,2,1082,2.6800,4.51E+02,1.89E+00,5.58E-01,-5.68E+01,7.55E-01,1.02E-02,1,0,0,FF
AA55,1,2,1083,2.6800,4.52E+02,1.87E+00,5.54E-01,-5.68E+01,7.57E-01,-1.79E-03,1,0,0,FF
AA55,1,2,1084,2.6800,4.52E+02,1.85E+00,5.49E-01,-5.68E+01,7.59E-01,-1.37E-02,1,1,0,FF
AA55,1,2,1090,2.7000,4.56E+02,1.74E+00,5.23E-01,-5.66E+01,7.71E-01,-8.00E-02,1,0,0,FF
AA55,1,2,1091,2.7000,4.56E+02,1.73E+00,5.19E-01,-5.66E+01,7.73E-01,-9.00E-02,1,0,0,FF
AA55,1,2,1092,2.7000,4.57E+02,1.71E+00,5.15E-01,-5.66E+01,7.75E-01,-9.97E-02,1,0,0,FF
AA55,1,2,1098,2.7200,4.60E+02,1.61E+00,4.90E-01,-5.63E+01,7.83E-01,-1.52E-01,1,1,0,FF
AA55,1,2,1099,2.7200,4.60E+02,1.60E+00,4.86E-01,-5.63E+01,7.85E-01,-1.59E-01,1,0,0,FF
AA55,1,2,1100,2.7200,4.61E+02,1.58E+00,4.82E-01,-5.62E+01,7.86E-01,-1.67E-01,1,0,0,FF
AA55,1,2,1106,2.7400,4.64E+02,1.49E+00,4.59E-01,-5.58E+01,7.95E-01,-2.08E-01,1,0,0,FF
AA55,1,2,1107,2.7400,4.65E+02,1.47E+00,4.55E-01,-5.57E+01,7.96E-01,-2.14E-01,1,1,0,FF
AA55,1,2,1108,2.7400,4.65E+02,1.46E+00,4.51E-01,-5.56E+01,7.97E-01,-2.20E-01,1,1,0,FF
AA55,1,2,1141,2.8300,4.83E+02,1.03E+00,3.34E-01,-5.24E+01,8.95E-01,-4.01E-01,1,1,0,FF
AA55,1,2,1142,2.8300,4.84E+02,1.02E+00,3.31E-01,-5.23E+01,8.98E-01,-4.06E-01,1,1,0,FF
AA55,1,2,1143,2.8300,4.84E+02,1.00E+00,3.28E-01,-5.21E+01,9.02E-01,-4.10E-01,1,1,0,FF
AA55,1,2,1144,2.8300,4.85E+02,9.93E-01,3.24E-01,-5.20E+01,9.06E-01,-4.14E-01,1,1,0,FF
AA55,1,2,1149,2.8500,4.88E+02,9.40E-01,3.09E-01,-5.14E+01,9.25E-01,-4.34E-01,1,0,0,FF
AA55,1,2,1150,2.8500,4.88E+02,9.30E-01,3.06E-01,-5.12E+01,9.28E-01,-4.38E-01,1,1,0,FF
AA55,1,2,1151,2.8500,4.89E+02,9.19E-01,3.03E-01,-5.11E+01,9.31E-01,-4.41E-01,1,1,0,FF
AA55,1,2,1152,2.8500,4.89E+02,9.09E-01,2.99E-01,-5.10E+01,9.34E-01,-4.45E-01,1,1,0,FF
AA55,1,2,1157,2.8700,4.92E+02,8.60E-01,2.84E-01,-5.02E+01,9.47E-01,-4.62E-01,1,0,0,FF
AA55,1,2,1158,2.8700,4.93E+02,8.50E-01,2.82E-01,-5.00E+01,9.49E-01,-4.65E-01,1,0,0,FF
AA55,1,2,1159,2.8700,4.93E+02,8.41E-01,2.79E-01,-4.99E+01,9.51E-01,-4.68E-01,1,0,0,FF
AA55,1,2,1160,2.8700,4.94E+02,8.31E-01,2.76E-01,-4.97E+01,9.53E-01,-4.70E-01,1,1,0,FF
AA55,1,2,1166,2.8900,4.97E+02,7.77E-01,2.59E-01,-4.85E+01,9.65E-01,-4.85E-01,1,0,0,FF
AA55,1,2,1167,2.8900,4.97E+02,7.68E-01,2.56E-01,-4.83E+01,9.67E-01,-4.87E-01,1,0,0,FF
AA55,1,2,1168,2.8900,4.98E+02,7.60E-01,2.53E-01,-4.81E+01,9.68E-01,-4.88E-01,1,0,0,FF
AA55,1,2,1174,2.9100,5.01E+02,7.10E-01,2.37E-01,-4.67E+01,9.77E-01,-4.94E-01,1,1,0,FF
AA55,1,2,1175,2.9100,5.02E+02,7.02E-01,2.34E-01,-4.65E+01,9.78E-01,-4.94E-01,1,1,0,FF
AA55,1,2,1176,2.9100,5.02E+02,6.94E-01,2.32E-01,-4.63E+01,9.79E-01,-4.94E-01,1,1,0,FF
AA55,1,2,1182,2.9300,5.06E+02,6.48E-01,2.16E-01,-4.49E+01,9.88E-01,-4.90E-01,1,0,0,FF
AA55,1,2,1183,2.9300,5.06E+02,6.40E-01,2.14E-01,-4.47E+01,9.90E-01,-4.90E-01,1,1,0,FF
AA55,1,2,1184,2.9300,5.07E+02,6.33E-01,2.11E-01,-4.45E+01,9.92E-01,-4.89E-01,1,1,0,FF
AA55,1,2,1190,2.9500,5.10E+02,5.91E-01,1.97E-01,-4.33E+01,1.02E+00,-4.88E-01,1,0,0,FF
AA55,1,2,1191,2.9500,5.10E+02,5.84E-01,1.94E-01,-4.31E+01,1.02E+00,-4.88E-01,1,0,0,FF
AA55,1,2,1192,2.9500,5.11E+02,5.77E-01,1.92E-01,-4.28E+01,1.03E+00,-4.89E-01,1,0,0,FF
AA55,1,2,1198,2.9700,5.14E+02,5.39E-01,1.78E-01,-4.16E+01,1.06E+00,-4.89E-01,1,0,0,FF
AA55,1,2,1199,2.9700,5.15E+02,5.32E-01,1.76E-01,-4.14E+01,1.06E+00,-4.89E-01,1,0,0,FF
AA55,1,2,1200,2.9700,5.15E+02,5.26E-01,1.73E-01,-4.12E+01,1.07E+00,-4.88E-01,1,0,0,FF
AA55,1,2,1206,2.9900,5.19E+02,4.91E-01,1.60E-01,-4.00E+01,1.10E+00,-4.85E-01,1,1,0,FF
AA55,1,2,1207,2.9900,5.19E+02,4.85E-01,1.58E-01,-3.98E+01,1.11E+00,-4.84E-01,1,1,0,FF
AA55,1,2,1208,2.9900,5.20E+02,4.80E-01,1.56E-01,-3.96E+01,1.11E+00,-4.83E-01,1,1,0,FF
AA55,1,2,1241,3.0800,5.37E+02,3.30E-01,9.77E-02,-3.20E+01,1.16E+00,-4.08E-01,1,1,0,FF
AA55,1,2,1242,3.0800,5.38E+02,3.26E-01,9.63E-02,-3.17E+01,1.16E+00,-4.06E-01,1,1,0,FF
AA55,1,2,1243,3.0800,5.38E+02,3.23E-01,9.49E-02,-3.15E+01,1.16E+00,-4.05E-01,1,1,0,FF
AA55,1,2,1244,3.0800,5.39E+02,3.19E-01,9.34E-02,-3.13E+01,1.17E+00,-4.04E-01,1,0,0,FF
AA55,1,2,1249,3.1000,5.42E+02,3.03E-01,8.65E-02,-3.02E+01,1.18E+00,-4.00E-01,1,1,0,FF
AA55,1,2,1250,3.1000,5.42E+02,2.99E-01,8.52E-02,-3.00E+01,1.18E+00,-4.00E-01,1,1,0,FF
AA55,1,2,1251,3.1000,5.43E+02,2.96E-01,8.39E-02,-2.98E+01,1.19E+00,-3.99E-01,1,1,0,FF
AA55,1,2,1252,3.1000,5.43E+02,2.93E-01,8.26E-02,-2.96E+01,1.19E+00,-3.99E-01,1,1,0,FF
AA55,1,2,1257,3.1200,5.46E+02,2.78E-01,7.64E-02,-2.85E+01,1.21E+00,-3.95E-01,1,0,0,FF
AA55,1,2,1258,3.1200,5.46E+02,2.75E-01,7.52E-02,-2.83E+01,1.21E+00,-3.94E-01,1,0,0,FF
AA55,1,2,1259,3.1200,5.47E+02,2.72E-01,7.40E-02,-2.81E+01,1.21E+00,-3.93E-01,1,0,0,FF
AA55,1,2,1260,3.1200,5.47E+02,2.69E-01,7.28E-02,-2.78E+01,1.21E+00,-3.91E-01,1,0,0,FF
AA55,1,2,1266,3.1400,5.51E+02,2.53E-01,6.62E-02,-2.62E+01,1.21E+00,-3.78E-01,1,1,0,FF
AA55,1,2,1267,3.1400,5.51E+02,2.51E-01,6.51E-02,-2.59E+01,1.21E+00,-3.75E-01,1,0,0,FF
AA55,1,2,1268,3.1400,5.52E+02,2.48E-01,6.41E-02,-2.56E+01,1.21E+00,-3.72E-01,1,0,0,FF
AA55,1,2,1274,3.1600,5.55E+02,2.34E-01,5.82E-02,-2.37E+01,1.20E+00,-3.49E-01,1,1,0,FF
AA55,1,2,1275,3.1600,5.55E+02,2.32E-01,5.73E-02,-2.33E+01,1.20E+00,-3.45E-01,1,1,0,FF
AA55,1,2,1276,3.1600,5.56E+02,2.30E-01,5.64E-02,-2.30E+01,1.20E+00,-3.41E-01,1,1,0,FF
AA55,1,2,1282,3.1800,5.59E+02,2.17E-01,5.12E-02,-2.12E+01,1.19E+00,-3.14E-01,1,1,0,FF
AA55,1,2,1283,3.1800,5.60E+02,2.15E-01,5.04E-02,-2.09E+01,1.19E+00,-3.10E-01,1,1,0,FF
AA55,1,2,1284,3.1800,5.60E+02,2.13E-01,4.96E-02,-2.07E+01,1.19E+00,-3.05E-01,1,1,0,FF
AA55,1,2,1290,3.2000,5.63E+02,2.02E-01,4.52E-02,-1.91E+01,1.19E+00,-2.77E-01,1,0,0,FF
AA55,1,2,1291,3.2000,5.64E+02,2.00E-01,4.45E-02,-1.88E+01,1.19E+00,-2.73E-01,1,0,0,FF
AA55,1,2,1292,3.2000,5.65E+02,1.99E-01,4.39E-02,-1.86E+01,1.19E+00,-2.68E-01,1,0,0,FF
AA55,1,2,1298,3.2200,5.68E+02,1.89E-01,4.01E-02,-1.71E+01,1.19E+00,-2.39E-01,1,1,0,FF
AA55,1,2,1299,3.2200,5.68E+02,1.87E-01,3.95E-02,-1.69E+01,1.19E+00,-2.35E-01,1,1,0,FF
AA55,1,2,1300,3.2200,5.69E+02,1.86E-01,3.90E-02,-1.66E+01,1.19E+00,-2.30E-01,1,0,0,FF
AA55,1,2,1306,3.2400,5.72E+02,1.77E-01,3.57E-02,-1.51E+01,1.18E+00,-2.00E-01,1,1,0,FF
AA55,1,2,1307,3.2400,5.73E+02,1.76E-01,3.52E-02,-1.49E+01,1.18E+00,-1.95E-01,1,1,0,FF
AA55,1,2,1308,3.2400,5.73E+02,1.74E-01,3.47E-02,-1.46E+01,1.18E+00,-1.90E-01,1,1,0,FF
AA55,1,2,1341,3.3300,5.91E+02,1.37E-01,2.39E-02,-6.12E+00,1.06E+00,-2.56E-02,1,1,0,FF
AA55,1,2,1342,3.3300,5.91E+02,1.36E-01,2.38E-02,-5.90E+00,1.06E+00,-2.13E-02,1,1,0,FF
AA55,1,2,1343,3.3300,5.92E+02,1.35E-01,2.36E-02,-5.70E+00,1.05E+00,-1.72E-02,1,0,0,FF
AA55,1,2,1344,3.3300,5.92E+02,1.34E-01,2.34E-02,-5.49E+00,1.05E+00,-1.31E-02,1,0,0,FF
AA55,1,2,1349,3.3500,5.95E+02,1.29E-01,2.27E-02,-4.57E+00,1.03E+00,5.48E-03,1,1,0,FF
AA55,1,2,1350,3.3500,5.95E+02,1.28E-01,2.26E-02,-4.40E+00,1.03E+00,8.83E-03,1,1,0,FF
AA55,1,2,1351,3.3500,5.96E+02,1.27E-01,2.25E-02,-4.24E+00,1.03E+00,1.21E-02,1,1,0,FF
AA55,1,2,1352,3.3500,5.96E+02,1.26E-01,2.23E-02,-4.08E+00,1.02E+00,1.51E-02,1,1,0,FF
AA55,1,2,1357,3.3700,5.99E+02,1.22E-01,2.17E-02,-3.36E+00,1.02E+00,2.88E-02,1,0,0,FF
AA55,1,2,1358,3.3700,5.99E+02,1.21E-01,2.16E-02,-3.24E+00,1.02E+00,3.11E-02,1,0,0,FF
AA55,1,2,1359,3.3700,6.00E+02,1.20E-01,2.14E-02,-3.13E+00,1.02E+00,3.34E-02,1,0,0,FF
AA55,1,2,1360,3.3700,6.01E+02,1.19E-01,2.13E-02,-3.03E+00,1.02E+00,3.56E-02,1,0,0,FF
AA55,1,2,1366,3.3900,6.04E+02,1.14E-01,2.05E-02,-2.58E+00,1.03E+00,4.67E-02,1,0,0,FF
AA55,1,2,1367,3.3900,6.04E+02,1.13E-01,2.04E-02,-2.53E+00,1.03E+00,4.81E-02,1,0,0,FF
AA55,1,2,1368,3.3900,6.05E+02,1.12E-01,2.03E-02,-2.48E+00,1.03E+00,4.94E-02,1,0,0,FF
AA55,1,2,1374,3.4100,6.08E+02,1.07E-01,1.96E-02,-2.31E+00,1.04E+00,5.40E-02,1,1,0,FF
AA55,1,2,1375,3.4100,6.08E+02,1.06E-01,1.95E-02,-2.30E+00,1.04E+00,5.42E-02,1,1,0,FF
AA55,1,2,1376,3.4100,6.09E+02,1.06E-01,1.94E-02,-2.28E+00,1.04E+00,5.43E-02,1,0,0,FF
AA55,1,2,1382,3.4300,6.12E+02,1.00E-01,1.87E-02,-2.27E+00,1.04E+00,5.24E-02,1,1,0,FF
AA55,1,2,1383,3.4300,6.13E+02,9.96E-02,1.86E-02,-2.28E+00,1.04E+00,5.17E-02,1,1,0,FF
AA55,1,2,1384,3.4300,6.13E+02,9.88E-02,1.85E-02,-2.29E+00,1.04E+00,5.09E-02,1,1,0,FF
AA55,1,2,1390,3.4500,6.16E+02,9.38E-02,1.80E-02,-2.39E+00,1.04E+00,4.53E-02,1,0,0,FF
AA55,1,2,1391,3.4500,6.17E+02,9.30E-02,1.79E-02,-2.41E+00,1.04E+00,4.42E-02,1,0,0,FF
AA55,1,2,1392,3.4500,6.17E+02,9.22E-02,1.79E-02,-2.43E+00,1.04E+00,4.32E-02,1,0,0,FF
AA55,1,2,1398,3.4700,6.21E+02,8.73E-02,1.76E-02,-2.63E+00,1.03E+00,3.56E-02,1,1,0,FF
AA55,1,2,1399,3.4700,6.21E+02,8.65E-02,1.76E-02,-2.68E+00,1.03E+00,3.41E-02,1,0,0,FF
AA55,1,2,1400,3.4700,6.22E+02,8.57E-02,1.75E-02,-2.74E+00,1.03E+00,3.26E-02,1,0,0,FF
AA55,1,2,1406,3.4900,6.25E+02,8.09E-02,1.73E-02,-3.22E+00,1.02E+00,2.25E-02,1,1,0,FF
AA55,1,2,1407,3.4900,6.25E+02,8.01E-02,1.73E-02,-3.31E+00,1.01E+00,2.05E-02,1,1,0,FF
AA55,1,2,1408,3.4900,6.26E+02,7.94E-02,1.73E-02,-3.41E+00,1.01E+00,1.85E-02,1,1,0,FF
AA55,1,2,1449,3.6000,6.47E+02,5.13E-02,1.68E-02,-6.63E+00,1.01E+00,-1.07E-01,1,0,0,FF
AA55,1,2,1450,3.6000,6.48E+02,5.08E-02,1.68E-02,-6.60E+00,1.01E+00,-1.10E-01,1,1,0,FF
AA55,1,2,1451,3.6000,6.48E+02,5.03E-02,1.69E-02,-6.56E+00,1.00E+00,-1.12E-01,1,1,0,FF
AA55,1,2,1452,3.6000,6.49E+02,4.97E-02,1.69E-02,-6.52E+00,9.99E-01,-1.15E-01,1,1,0,FF
AA55,1,2,1457,3.6200,6.51E+02,4.72E-02,1.72E-02,-6.29E+00,9.78E-01,-1.25E-01,1,0,0,FF
AA55,1,2,1458,3.6200,6.52E+02,4.67E-02,1.72E-02,-6.24E+00,9.74E-01,-1.26E-01,1,0,0,FF
AA55,1,2,1459,3.6200,6.52E+02,4.62E-02,1.73E-02,-6.20E+00,9.71E-01,-1.28E-01,1,0,0,FF
AA55,1,2,1460,3.6200,6.53E+02,4.57E-02,1.73E-02,-6.15E+00,9.68E-01,-1.29E-01,1,1,0,FF
AA55,1,2,1466,3.6400,6.56E+02,4.30E-02,1.77E-02,-5.94E+00,9.54E-01,-1.34E-01,1,0,0,FF
AA55,1,2,1467,3.6400,6.57E+02,4.26E-02,1.77E-02,-5.91E+00,9.53E-01,-1.34E-01,1,0,0,FF
AA55,1,2,1468,3.6400,6.57E+02,4.22E-02,1.78E-02,-5.88E+00,9.52E-01,-1.34E-01,1,0,0,FF
AA55,1,2,1474,3.6600,6.60E+02,3.99E-02,1.82E-02,-5.73E+00,9.49E-01,-1.34E-01,1,1,0,FF
AA55,1,2,1475,3.6600,6.61E+02,3.95E-02,1.82E-02,-5.70E+00,9.49E-01,-1.33E-01,1,0,0,FF
AA55,1,2,1476,3.6600,6.61E+02,3.91E-02,1.83E-02,-5.66E+00,9.48E-01,-1.33E-01,1,0,0,FF
AA55,1,2,1482,3.6800,6.64E+02,3.71E-02,1.87E-02,-5.31E+00,9.44E-01,-1.26E-01,1,0,0,FF
AA55,1,2,1483,3.6800,6.65E+02,3.68E-02,1.87E-02,-5.23E+00,9.44E-01,-1.25E-01,1,1,0,FF
AA55,1,2,1484,3.6800,6.65E+02,3.65E-02,1.88E-02,-5.14E+00,9.43E-01,-1.23E-01,1,1,0,FF
AA55,1,2,1490,3.7000,6.68E+02,3.47E-02,1.91E-02,-4.47E+00,9.35E-01,-1.12E-01,1,0,0,FF
AA55,1,2,1491,3.7000,6.69E+02,3.45E-02,1.92E-02,-4.35E+00,9.33E-01,-1.10E-01,1,0,0,FF
AA55,1,2,1492,3.7000,6.69E+02,3.42E-02,1.93E-02,-4.22E+00,9.31E-01,-1.07E-01,1,0,0,FF
AA55,1,2,1498,3.7200,6.73E+02,3.27E-02,1.98E-02,-3.47E+00,9.17E-01,-9.16E-02,1,0,0,FF
AA55,1,2,1499,3.7200,6.73E+02,3.25E-02,1.98E-02,-3.36E+00,9.14E-01,-8.88E-02,1,0,0,FF
AA55,1,2,1500,3.7200,6.74E+02,3.23E-02,1.99E-02,-3.26E+00,9.11E-01,-8.60E-02,1,0,0,FF
AA55,1,2,1506,3.7400,6.77E+02,3.10E-02,2.05E-02,-2.84E+00,9.01E-01,-6.88E-02,1,1,0,FF
AA55,1,2,1507,3.7400,6.77E+02,3.08E-02,2.06E-02,-2.79E+00,9.01E-01,-6.59E-02,1,1,0,FF
AA55,1,2,1508,3.7400,6.78E+02,3.06E-02,2.07E-02,-2.75E+00,9.01E-01,-6.31E-02,1,0,0,FF
AA55,1,2,1549,3.8500,6.99E+02,2.39E-02,2.08E-02,-1.60E-01,1.12E+00,-9.20E-03,1,1,0,FF
AA55,1,2,1550,3.8500,6.99E+02,2.38E-02,2.08E-02,-4.80E-03,1.12E+00,-8.46E-03,1,1,0,FF
AA55,1,2,1551,3.8500,7.00E+02,2.36E-02,2.07E-02,1.53E-01,1.13E+00,-7.67E-03,1,1,0,FF
AA55,1,2,1552,3.8500,7.00E+02,2.35E-02,2.07E-02,3.13E-01,1.13E+00,-6.81E-03,1,1,0,FF
AA55,1,2,1557,3.8700,7.03E+02,2.28E-02,2.07E-02,1.10E+00,1.15E+00,-1.25E-03,1,0,0,FF
AA55,1,2,1558,3.8700,7.04E+02,2.26E-02,2.07E-02,1.24E+00,1.15E+00,1.31E-04,1,0,0,FF
AA55,1,2,1559,3.8700,7.04E+02,2.25E-02,2.07E-02,1.38E+00,1.16E+00,1.62E-03,1,1,0,FF
AA55,1,2,1560,3.8700,7.05E+02,2.23E-02,2.07E-02,1.50E+00,1.16E+00,3.23E-03,1,1,0,FF
AA55,1,2,1566,3.8900,7.08E+02,2.14E-02,2.08E-02,2.11E+00,1.19E+00,1.52E-02,1,0,0,FF
AA55,1,2,1567,3.8900,7.08E+02,2.13E-02,2.08E-02,2.18E+00,1.19E+00,1.76E-02,1,0,0,FF
AA55,1,2,1568,3.8900,7.09E+02,2.11E-02,2.08E-02,2.25E+00,1.20E+00,2.00E-02,1,0,0,FF
AA55,1,2,1574,3.9100,7.12E+02,2.01E-02,2.09E-02,2.58E+00,1.23E+00,3.58E-02,1,0,0,FF
AA55,1,2,1575,3.9100,7.12E+02,1.99E-02,2.10E-02,2.62E+00,1.23E+00,3.85E-02,1,0,0,FF
AA55,1,2,1576,3.9100,7.13E+02,1.98E-02,2.10E-02,2.67E+00,1.24E+00,4.13E-02,1,0,0,FF
AA55,1,2,1582,3.9300,7.16E+02,1.86E-02,2.13E-02,2.98E+00,1.27E+00,5.85E-02,1,1,0,FF
AA55,1,2,1583,3.9300,7.16E+02,1.84E-02,2.13E-02,3.04E+00,1.27E+00,6.14E-02,1,1,0,FF
AA55,1,2,1584,3.9300,7.17E+02,1.82E-02,2.14E-02,3.11E+00,1.27E+00,6.44E-02,1,1,0,FF
AA55,1,2,1590,3.9500,7.20E+02,1.69E-02,2.18E-02,3.53E+00,1.30E+00,8.23E-02,1,0,0,FF
AA55,1,2,1591,3.9500,7.20E+02,1.67E-02,2.18E-02,3.61E+00,1.30E+00,8.54E-02,1,0,0,FF
AA55,1,2,1592,3.9500,7.21E+02,1.65E-02,2.19E-02,3.68E+00,1.31E+00,8.84E-02,1,1,0,FF
AA55,1,2,1598,3.9700,7.24E+02,1.50E-02,2.25E-02,4.10E+00,1.32E+00,1.06E-01,1,0,0,FF
AA55,1,2,1599,3.9700,7.24E+02,1.47E-02,2.26E-02,4.16E+00,1.32E+00,1.09E-01,1,0,0,FF
AA55,1,2,1600,3.9700,7.25E+02,1.44E-02,2.27E-02,4.21E+00,1.33E+00,1.12E-01,1,0,0,FF
AA55,1,2,1606,3.9900,7.28E+02,1.27E-02,2.36E-02,4.40E+00,1.33E+00,1.29E-01,1,1,0,FF
AA55,1,2,1607,3.9900,7.29E+02,1.24E-02,2.37E-02,4.42E+00,1.33E+00,1.32E-01,1,1,0,FF
AA55,1,2,1608,3.9900,7.29E+02,1.21E-02,2.39E-02,4.43E+00,1.33E+00,1.34E-01,1,1,0,FF
AA55,1,2,1621,4.0300,7.36E+02,7.53E-03,2.61E-02,4.26E+00,1.33E+00,1.59E-01,1,0,0,FF
AA55,1,2,1622,4.0300,7.36E+02,7.14E-03,2.63E-02,4.20E+00,1.33E+00,1.60E-01,1,0,0,FF
AA55,1,2,1623,4.0300,7.37E+02,6.75E-03,2.65E-02,4.14E+00,1.33E+00,1.60E-01,1,0,0,FF
AA55,1,2,1624,4.0300,7.37E+02,6.35E-03,2.66E-02,4.07E+00,1.33E+00,1.61E-01,1,0,0,FF
AA55,1,2,1637,4.0700,7.44E+02,6.79E-04,2.89E-02,2.76E+00,1.32E+00,1.58E-01,1,0,0,FF
AA55,1,2,1638,4.0700,7.44E+02,2.12E-04,2.90E-02,2.64E+00,1.32E+00,1.57E-01,1,1,0,FF
AA55,1,2,1639,4.0700,7.45E+02,-2.60E-04,2.92E-02,2.52E+00,1.32E+00,1.56E-01,1,1,0,FF
AA55,1,2,1640,4.0700,7.45E+02,-7.35E-04,2.94E-02,2.40E+00,1.32E+00,1.54E-01,1,1,0,FF
AA55,1,2,1653,4.1100,7.52E+02,-7.20E-03,3.17E-02,7.68E-01,1.31E+00,1.20E-01,1,0,0,FF
AA55,1,2,1654,4.1100,7.52E+02,-7.72E-03,3.18E-02,6.41E-01,1.31E+00,1.17E-01,1,0,0,FF
AA55,1,2,1655,4.1100,7.53E+02,-8.23E-03,3.20E-02,5.12E-01,1.31E+00,1.14E-01,1,0,0,FF
AA55,1,2,1656,4.1100,7.53E+02,-8.75E-03,3.22E-02,3.80E-01,1.31E+00,1.10E-01,1,0,0,FF
AA55,1,2,1657,4.1200,7.54E+02,-9.27E-03,3.23E-02,2.45E-01,1.31E+00,1.06E-01,1,0,0,FF
AA55,1,2,1658,4.1200,7.54E+02,-9.79E-03,3.25E-02,1.06E-01,1.31E+00,1.02E-01,1,1,0,FF
AA55,1,2,1659,4.1200,7.55E+02,-1.03E-02,3.27E-02,-3.68E-02,1.31E+00,9.86E-02,1,1,0,FF
AA55,1,2,1660,4.1200,7.56E+02,-1.08E-02,3.28E-02,-1.84E-01,1.31E+00,9.47E-02,1,1,0,FF
AA55,1,2,1670,4.1500,7.61E+02,-1.61E-02,3.45E-02,-1.83E+00,1.30E+00,5.18E-02,1,0,0,FF
AA55,1,2,1671,4.1500,7.61E+02,-1.66E-02,3.46E-02,-2.00E+00,1.29E+00,4.72E-02,1,1,0,FF
AA55,1,2,1672,4.1500,7.62E+02,-1.71E-02,3.48E-02,-2.18E+00,1.29E+00,4.25E-02,1,1,0,FF
AA55,1,2,1673,4.1600,7.62E+02,-1.76E-02,3.50E-02,-2.35E+00,1.29E+00,3.78E-02,1,1,0,FF
AA55,1,2,1674,4.1600,7.63E+02,-1.81E-02,3.52E-02,-2.53E+00,1.29E+00,3.30E-02,1,1,0,FF
AA55,1,2,1675,4.1600,7.63E+02,-1.87E-02,3.54E-02,-2.70E+00,1.28E+00,2.82E-02,1,1,0,FF
AA55,1,2,1676,4.1600,7.64E+02,-1.92E-02,3.55E-02,-2.87E+00,1.28E+00,2.34E-02,1,0,0,FF
AA55,1,2,1686,4.1900,7.69E+02,-2.41E-02,3.74E-02,-4.53E+00,1.26E+00,-2.68E-02,1,0,0,FF
AA55,1,2,1687,4.1900,7.69E+02,-2.46E-02,3.76E-02,-4.69E+00,1.25E+00,-3.18E-02,1,0,0,FF
AA55,1,2,1688,4.1900,7.70E+02,-2.50E-02,3.78E-02,-4.84E+00,1.25E+00,-3.69E-02,1,0,0,FF
AA55,1,2,1689,4.2000,7.70E+02,-2.55E-02,3.80E-02,-4.99E+00,1.25E+00,-4.21E-02,1,0,0,FF
AA55,1,2,1690,4.2000,7.71E+02,-2.60E-02,3.82E-02,-5.15E+00,1.25E+00,-4.72E-02,1,0,0,FF
AA55,1,2,1691,4.2000,7.71E+02,-2.64E-02,3.84E-02,-5.29E+00,1.25E+00,-5.22E-02,1,1,0,FF
AA55,1,2,1692,4.2000,7.72E+02,-2.69E-02,3.86E-02,-5.44E+00,1.25E+00,-5.72E-02,1,1,0,FF
AA55,1,2,1702,4.2300,7.77E+02,-3.10E-02,4.07E-02,-6.86E+00,1.23E+00,-1.05E-01,1,0,0,FF
AA55,1,2,1703,4.2300,7.77E+02,-3.13E-02,4.09E-02,-7.00E+00,1.23E+00,-1.09E-01,1,0,0,FF
AA55,1,2,1704,4.2300,7.78E+02,-3.17E-02,4.11E-02,-7.14E+00,1.22E+00,-1.14E-01,1,1,0,FF
AA55,1,2,1705,4.2400,7.78E+02,-3.21E-02,4.13E-02,-7.29E+00,1.22E+00,-1.18E-01,1,1,0,FF
AA55,1,2,1706,4.2400,7.79E+02,-3.24E-02,4.15E-02,-7.43E+00,1.22E+00,-1.23E-01,1,1,0,FF
AA55,1,2,1707,4.2400,7.79E+02,-3.28E-02,4.18E-02,-7.57E+00,1.22E+00,-1.27E-01,1,1,0,FF
AA55,1,2,1708,4.2400,7.80E+02,-3.31E-02,4.20E-02,-7.71E+00,1.22E+00,-1.31E-01,1,1,0,FF
AA55,1,2,1721,4.2800,7.86E+02,-3.66E-02,4.46E-02,-9.16E+00,1.20E+00,-1.77E-01,1,0,0,FF
AA55,1,2,1722,4.2800,7.87E+02,-3.68E-02,4.48E-02,-9.20E+00,1.20E+00,-1.80E-01,1,0,0,FF
AA55,1,2,1723,4.2800,7.87E+02,-3.70E-02,4.50E-02,-9.24E+00,1.20E+00,-1.83E-01,1,0,0,FF
AA55,1,2,1724,4.2800,7.88E+02,-3.72E-02,4.52E-02,-9.26E+00,1.19E+00,-1.85E-01,1,1,0,FF
AA55,1,2,1737,4.3200,7.94E+02,-3.87E-02,4.70E-02,-8.86E+00,1.18E+00,-2.09E-01,1,1,0,FF
AA55,1,2,1738,4.3200,7.95E+02,-3.88E-02,4.71E-02,-8.78E+00,1.18E+00,-2.10E-01,1,1,0,FF
AA55,1,2,1739,4.3200,7.95E+02,-3.88E-02,4.72E-02,-8.69E+00,1.18E+00,-2.11E-01,1,1,0,FF
AA55,1,2,1740,4.3200,7.96E+02,-3.89E-02,4.73E-02,-8.59E+00,1.18E+00,-2.11E-01,1,1,0,FF
AA55,1,2,1753,4.3600,8.02E+02,-3.86E-02,4.80E-02,-6.70E+00,1.19E+00,-2.07E-01,1,0,0,FF
AA55,1,2,1754,4.3600,8.03E+02,-3.85E-02,4.80E-02,-6.53E+00,1.19E+00,-2.06E-01,1,0,0,FF
AA55,1,2,1755,4.3600,8.03E+02,-3.84E-02,4.80E-02,-6.35E+00,1.20E+00,-2.04E-01,1,0,0,FF
AA55,1,2,1756,4.3600,8.04E+02,-3.83E-02,4.80E-02,-6.18E+00,1.20E+00,-2.03E-01,1,0,0,FF
AA55,1,2,1757,4.3700,8.04E+02,-3.82E-02,4.80E-02,-6.00E+00,1.20E+00,-2.01E-01,1,1,0,FF
AA55,1,2,1758,4.3700,8.05E+02,-3.81E-02,4.80E-02,-5.83E+00,1.20E+00,-1.99E-01,1,1,0,FF
AA55,1,2,1759,4.3700,8.05E+02,-3.80E-02,4.80E-02,-5.65E+00,1.21E+00,-1.97E-01,1,1,0,FF
AA55,1,2,1760,4.3700,8.06E+02,-3.79E-02,4.79E-02,-5.48E+00,1.21E+00,-1.95E-01,1,1,0,FF
AA55,1,2,1770,4.4000,8.11E+02,-3.64E-02,4.75E-02,-3.77E+00,1.26E+00,-1.68E-01,1,1,0,FF
AA55,1,2,1771,4.4000,8.11E+02,-3.62E-02,4.74E-02,-3.60E+00,1.26E+00,-1.64E-01,1,1,0,FF
AA55,1,2,1772,4.4000,8.12E+02,-3.60E-02,4.73E-02,-3.44E+00,1.26E+00,-1.60E-01,1,1,0,FF
AA55,1,2,1773,4.4100,8.12E+02,-3.59E-02,4.73E-02,-3.28E+00,1.27E+00,-1.57E-01,1,1,0,FF
AA55,1,2,1774,4.4100,8.13E+02,-3.57E-02,4.72E-02,-3.11E+00,1.27E+00,-1.53E-01,1,1,0,FF
AA55,1,2,1775,4.4100,8.13E+02,-3.55E-02,4.71E-02,-2.95E+00,1.27E+00,-1.49E-01,1,0,0,FF
AA55,1,2,1776,4.4100,8.14E+02,-3.53E-02,4.71E-02,-2.79E+00,1.28E+00,-1.44E-01,1,0,0,FF
AA55,1,2,1786,4.4400,8.19E+02,-3.31E-02,4.64E-02,-1.28E+00,1.30E+00,-9.91E-02,1,0,0,FF
AA55,1,2,1787,4.4400,8.19E+02,-3.29E-02,4.63E-02,-1.14E+00,1.30E+00,-9.44E-02,1,0,0,FF
AA55,1,2,1788,4.4400,8.20E+02,-3.27E-02,4.63E-02,-9.99E-01,1.30E+00,-8.96E-02,1,0,0,FF
AA55,1,2,1789,4.4500,8.20E+02,-3.25E-02,4.62E-02,-8.60E-01,1.30E+00,-8.47E-02,1,0,0,FF
AA55,1,2,1790,4.4500,8.21E+02,-3.22E-02,4.61E-02,-7.23E-01,1.30E+00,-7.99E-02,1,0,0,FF
AA55,1,2,1791,4.4500,8.21E+02,-3.20E-02,4.61E-02,-5.87E-01,1.30E+00,-7.50E-02,1,0,0,FF
AA55,1,2,1792,4.4500,8.22E+02,-3.18E-02,4.60E-02,-4.53E-01,1.30E+00,-7.01E-02,1,0,0,FF
AA55,1,2,1802,4.4800,8.27E+02,-2.95E-02,4.54E-02,8.88E-01,1.32E+00,-2.17E-02,1,0,0,FF
AA55,1,2,1803,4.4800,8.27E+02,-2.92E-02,4.53E-02,1.03E+00,1.32E+00,-1.69E-02,1,1,0,FF
AA55,1,2,1804,4.4800,8.28E+02,-2.90E-02,4.53E-02,1.17E+00,1.32E+00,-1.22E-02,1,1,0,FF
AA55,1,2,1805,4.4900,8.28E+02,-2.88E-02,4.52E-02,1.31E+00,1.32E+00,-7.49E-03,1,1,0,FF
AA55,1,2,1806,4.4900,8.29E+02,-2.86E-02,4.52E-02,1.45E+00,1.31E+00,-2.86E-03,1,1,0,FF
AA55,1,2,1807,4.4900,8.29E+02,-2.83E-02,4.52E-02,1.60E+00,1.31E+00,1.72E-03,1,1,0,FF
AA55,1,2,1808,4.4900,8.30E+02,-2.81E-02,4.51E-02,1.74E+00,1.31E+00,6.24E-03,1,0,0,FF
AA55,1,2,1821,4.5300,8.36E+02,-2.55E-02,4.48E-02,3.39E+00,1.29E+00,5.92E-02,1,0,0,FF
AA55,1,2,1822,4.5300,8.37E+02,-2.54E-02,4.48E-02,3.48E+00,1.29E+00,6.29E-02,1,0,0,FF
AA55,1,2,1823,4.5300,8.37E+02,-2.52E-02,4.48E-02,3.55E+00,1.29E+00,6.64E-02,1,0,0,FF
AA55,1,2,1824,4.5300,8.38E+02,-2.50E-02,4.48E-02,3.62E+00,1.28E+00,6.98E-02,1,0,0,FF
AA55,1,2,1837,4.5700,8.44E+02,-2.33E-02,4.50E-02,4.01E+00,1.22E+00,1.06E-01,1,1,0,FF
AA55,1,2,1838,4.5700,8.45E+02,-2.32E-02,4.50E-02,4.02E+00,1.21E+00,1.08E-01,1,1,0,FF
AA55,1,2,1839,4.5700,8.45E+02,-2.32E-02,4.50E-02,4.02E+00,1.21E+00,1.10E-01,1,1,0,FF
AA55,1,2,1840,4.5700,8.46E+02,-2.31E-02,4.50E-02,4.02E+00,1.20E+00,1.12E-01,1,1,0,FF
AA55,1,2,1853,4.6100,8.52E+02,-2.23E-02,4.45E-02,3.97E+00,1.18E+00,1.33E-01,1,0,0,FF
AA55,1,2,1854,4.6100,8.52E+02,-2.23E-02,4.45E-02,3.96E+00,1.18E+00,1.35E-01,1,0,0,FF
AA55,1,2,1855,4.6100,8.53E+02,-2.23E-02,4.44E-02,3.95E+00,1.18E+00,1.36E-01,1,0,0,FF
AA55,1,2,1856,4.6100,8.53E+02,-2.22E-02,4.43E-02,3.94E+00,1.18E+00,1.37E-01,1,0,0,FF
AA55,1,2,1857,4.6200,8.54E+02,-2.22E-02,4.42E-02,3.92E+00,1.19E+00,1.39E-01,1,0,0,FF
AA55,1,2,1858,4.6200,8.54E+02,-2.22E-02,4.41E-02,3.89E+00,1.19E+00,1.40E-01,1,0,0,FF
AA55,1,2,1859,4.6200,8.55E+02,-2.22E-02,4.40E-02,3.87E+00,1.19E+00,1.41E-01,1,1,0,FF
AA55,1,2,1860,4.6200,8.55E+02,-2.22E-02,4.39E-02,3.84E+00,1.19E+00,1.42E-01,1,1,0,FF
AA55,1,2,1870,4.6500,8.60E+02,-2.24E-02,4.25E-02,3.32E+00,1.21E+00,1.49E-01,1,0,0,FF
AA55,1,2,1871,4.6500,8.61E+02,-2.25E-02,4.24E-02,3.26E+00,1.21E+00,1.49E-01,1,1,0,FF
AA55,1,2,1872,4.6500,8.61E+02,-2.25E-02,4.23E-02,3.19E+00,1.21E+00,1.49E-01,1,1,0,FF
AA55,1,2,1873,4.6600,8.62E+02,-2.26E-02,4.21E-02,3.12E+00,1.21E+00,1.49E-01,1,1,0,FF
AA55,1,2,1874,4.6600,8.62E+02,-2.26E-02,4.20E-02,3.05E+00,1.22E+00,1.49E-01,1,1,0,FF
AA55,1,2,1875,4.6600,8.63E+02,-2.27E-02,4.19E-02,2.99E+00,1.22E+00,1.49E-01,1,1,0,FF
AA55,1,2,1876,4.6600,8.63E+02,-2.28E-02,4.17E-02,2.92E+00,1.22E+00,1.48E-01,1,0,0,FF
AA55,1,2,1886,4.6900,8.68E+02,-2.36E-02,4.06E-02,2.52E+00,1.21E+00,1.36E-01,1,0,0,FF
AA55,1,2,1887,4.6900,8.69E+02,-2.37E-02,4.05E-02,2.50E+00,1.21E+00,1.34E-01,1,0,0,FF
AA55,1,2,1888,4.6900,8.69E+02,-2.39E-02,4.04E-02,2.49E+00,1.21E+00,1.32E-01,1,0,0,FF
AA55,1,2,1889,4.7000,8.70E+02,-2.40E-02,4.03E-02,2.48E+00,1.21E+00,1.30E-01,1,0,0,FF
AA55,1,2,1890,4.7000,8.70E+02,-2.41E-02,4.01E-02,2.47E+00,1.20E+00,1.28E-01,1,0,0,FF
AA55,1,2,1891,4.7000,8.71E+02,-2.42E-02,4.00E-02,2.46E+00,1.20E+00,1.26E-01,1,1,0,FF
AA55,1,2,1892,4.7000,8.71E+02,-2.43E-02,3.99E-02,2.45E+00,1.20E+00,1.24E-01,1,1,0,FF
AA55,1,2,1902,4.7300,8.76E+02,-2.57E-02,3.88E-02,2.61E+00,1.19E+00,1.04E-01,1,0,0,FF
AA55,1,2,1903,4.7300,8.77E+02,-2.59E-02,3.87E-02,2.66E+00,1.19E+00,1.02E-01,1,0,0,FF
AA55,1,2,1904,4.7300,8.77E+02,-2.61E-02,3.85E-02,2.72E+00,1.19E+00,1.00E-01,1,1,0,FF
AA55,1,2,1905,4.7400,8.78E+02,-2.62E-02,3.84E-02,2.78E+00,1.19E+00,9.86E-02,1,1,0,FF
AA55,1,2,1906,4.7400,8.78E+02,-2.64E-02,3.83E-02,2.85E+00,1.19E+00,9.70E-02,1,1,0,FF
AA55,1,2,1907,4.7400,8.79E+02,-2.65E-02,3.82E-02,2.93E+00,1.18E+00,9.55E-02,1,1,0,FF
AA55,1,2,1908,4.7400,8.79E+02,-2.67E-02,3.80E-02,3.00E+00,1.18E+00,9.41E-02,1,1,0,FF
AA55,1,2,1921,4.7800,8.85E+02,-2.93E-02,3.64E-02,3.85E+00,1.14E+00,8.55E-02,1,0,0,FF
AA55,1,2,1922,4.7800,8.86E+02,-2.95E-02,3.63E-02,3.84E+00,1.13E+00,8.57E-02,1,0,0,FF
AA55,1,2,1923,4.7800,8.86E+02,-2.97E-02,3.62E-02,3.82E+00,1.13E+00,8.61E-02,1,0,0,FF
AA55,1,2,1924,4.7800,8.87E+02,-2.99E-02,3.60E-02,3.78E+00,1.12E+00,8.66E-02,1,1,0,FF
AA55,1,2,1937,4.8200,8.93E+02,-3.32E-02,3.39E-02,2.57E+00,1.05E+00,9.84E-02,1,1,0,FF
AA55,1,2,1938,4.8200,8.94E+02,-3.35E-02,3.37E-02,2.46E+00,1.05E+00,9.91E-02,1,1,0,FF
AA55,1,2,1939,4.8200,8.94E+02,-3.38E-02,3.35E-02,2.35E+00,1.04E+00,9.97E-02,1,1,0,FF
AA55,1,2,1940,4.8200,8.95E+02,-3.40E-02,3.33E-02,2.24E+00,1.04E+00,1.00E-01,1,1,0,FF
AA55,1,2,1953,4.8600,9.01E+02,-3.79E-02,3.07E-02,1.20E+00,1.00E+00,9.79E-02,1,0,0,FF
AA55,1,2,1954,4.8600,9.02E+02,-3.82E-02,3.04E-02,1.14E+00,1.00E+00,9.70E-02,1,0,0,FF
AA55,1,2,1955,4.8600,9.02E+02,-3.85E-02,3.02E-02,1.07E+00,9.99E-01,9.61E-02,1,0,0,FF
AA55,1,2,1956,4.8600,9.03E+02,-3.89E-02,3.00E-02,9.94E-01,9.98E-01,9.50E-02,1,0,0,FF
AA55,1,2,1957,4.8700,9.03E+02,-3.92E-02,2.97E-02,9.08E-01,9.98E-01,9.40E-02,1,0,0,FF
AA55,1,2,1958,4.8700,9.04E+02,-3.95E-02,2.94E-02,8.09E-01,9.97E-01,9.28E-02,1,0,0,FF
AA55,1,2,1959,4.8700,9.04E+02,-3.98E-02,2.92E-02,6.97E-01,9.97E-01,9.16E-02,1,0,0,FF
AA55,1,2,1960,4.8700,9.04E+02,-4.01E-02,2.89E-02,5.70E-01,9.97E-01,9.04E-02,1,1,0,FF
AA55,1,2,1970,4.9000,9.09E+02,-4.34E-02,2.56E-02,-1.36E+00,9.95E-01,7.40E-02,1,1,0,FF
AA55,1,2,1971,4.9000,9.10E+02,-4.38E-02,2.52E-02,-1.60E+00,9.94E-01,7.18E-02,1,1,0,FF
AA55,1,2,1972,4.9000,9.10E+02,-4.41E-02,2.48E-02,-1.84E+00,9.94E-01,6.94E-02,1,1,0,FF
AA55,1,2,1973,4.9100,9.11E+02,-4.44E-02,2.45E-02,-2.08E+00,9.94E-01,6.68E-02,1,1,0,FF
AA55,1,2,1974,4.9100,9.11E+02,-4.48E-02,2.41E-02,-2.33E+00,9.94E-01,6.41E-02,1,1,0,FF
AA55,1,2,1975,4.9100,9.12E+02,-4.51E-02,2.37E-02,-2.56E+00,9.94E-01,6.12E-02,1,0,0,FF
AA55,1,2,1976,4.9100,9.12E+02,-4.54E-02,2.33E-02,-2.79E+00,9.95E-01,5.82E-02,1,0,0,FF
AA55,1,2,1986,4.9400,9.17E+02,-4.86E-02,1.89E-02,-4.03E+00,1.01E+00,1.77E-02,1,0,0,FF
AA55,1,2,1987,4.9400,9.18E+02,-4.89E-02,1.84E-02,-4.06E+00,1.01E+00,1.30E-02,1,0,0,FF
AA55,1,2,1988,4.9400,9.18E+02,-4.92E-02,1.80E-02,-4.07E+00,1.01E+00,8.31E-03,1,0,0,FF
AA55,1,2,1989,4.9500,9.19E+02,-4.95E-02,1.75E-02,-4.07E+00,1.02E+00,3.57E-03,1,0,0,FF
AA55,1,2,1990,4.9500,9.19E+02,-4.98E-02,1.70E-02,-4.06E+00,1.02E+00,-1.16E-03,1,0,0,FF
AA55,1,2,1991,4.9500,9.20E+02,-5.01E-02,1.65E-02,-4.04E+00,1.02E+00,-5.87E-03,1,0,0,FF
AA55,1,2,1992,4.9500,9.20E+02,-5.04E-02,1.60E-02,-4.01E+00,1.02E+00,-1.05E-02,1,0,0,FF
AA55,1,2,2002,4.9800,9.25E+02,-5.30E-02,1.08E-02,-3.62E+00,1.07E+00,-5.22E-02,1,0,0,FF
AA55,1,2,2003,4.9800,9.25E+02,-5.33E-02,1.02E-02,-3.59E+00,1.07E+00,-5.57E-02,1,1,0,FF
AA55,1,2,2004,4.9800,9.26E+02,-5.35E-02,9.69E-03,-3.57E+00,1.08E+00,-5.90E-02,1,1,0,FF
AA55,1,2,2005,4.9900,9.26E+02,-5.38E-02,9.16E-03,-3.56E+00,1.08E+00,-6.22E-02,1,1,0,FF
AA55,1,2,2006,4.9900,9.27E+02,-5.40E-02,8.62E-03,-3.55E+00,1.09E+00,-6.52E-02,1,1,0,FF
AA55,1,2,2007,4.9900,9.27E+02,-5.42E-02,8.09E-03,-3.54E+00,1.09E+00,-6.81E-02,1,1,0,FF
AA55,1,2,2008,4.9900,9.28E+02,-5.44E-02,7.55E-03,-3.53E+00,1.10E+00,-7.07E-02,1,0,0,FF
AA55,1,2,2021,5.0300,9.34E+02,-5.69E-02,8.82E-04,-3.54E+00,1.15E+00,-8.93E-02,1,0,0,FF
AA55,1,2,2022,5.0300,9.35E+02,-5.70E-02,4.20E-04,-3.53E+00,1.15E+00,-8.95E-02,1,0,0,FF
AA55,1,2,2023,5.0300,9.35E+02,-5.72E-02,-3.68E-05,-3.52E+00,1.15E+00,-8.96E-02,1,0,0,FF
AA55,1,2,2024,5.0300,9.36E+02,-5.73E-02,-4.89E-04,-3.50E+00,1.15E+00,-8.96E-02,1,0,0,FF
AA55,1,2,2037,5.0700,9.42E+02,-5.88E-02,-6.04E-03,-3.09E+00,1.14E+00,-7.88E-02,1,1,0,FF
AA55,1,2,2038,5.0700,9.42E+02,-5.89E-02,-6.44E-03,-3.04E+00,1.14E+00,-7.72E-02,1,1,0,FF
AA55,1,2,2039,5.0700,9.43E+02,-5.90E-02,-6.83E-03,-2.99E+00,1.14E+00,-7.55E-02,1,1,0,FF
AA55,1,2,2040,5.0700,9.43E+02,-5.90E-02,-7.23E-03,-2.93E+00,1.14E+00,-7.37E-02,1,1,0,FF
AA55,1,2,2053,5.1100,9.50E+02,-5.97E-02,-1.23E-02,-1.99E+00,1.16E+00,-4.41E-02,1,0,0,FF
AA55,1,2,2054,5.1100,9.50E+02,-5.97E-02,-1.27E-02,-1.91E+00,1.17E+00,-4.15E-02,1,0,0,FF
AA55,1,2,2055,5.1100,9.50E+02,-5.97E-02,-1.31E-02,-1.83E+00,1.17E+00,-3.88E-02,1,0,0,FF
AA55,1,2,2056,5.1100,9.51E+02,-5.98E-02,-1.35E-02,-1.75E+00,1.18E+00,-3.61E-02,1,0,0,FF
AA55,1,2,2057,5.1200,9.51E+02,-5.98E-02,-1.39E-02,-1.67E+00,1.19E+00,-3.34E-02,1,0,0,FF
AA55,1,2,2058,5.1200,9.52E+02,-5.98E-02,-1.43E-02,-1.59E+00,1.19E+00,-3.07E-02,1,0,0,FF
AA55,1,2,2059,5.1200,9.52E+02,-5.98E-02,-1.47E-02,-1.52E+00,1.20E+00,-2.79E-02,1,1,0,FF
AA55,1,2,2060,5.1200,9.53E+02,-5.98E-02,-1.51E-02,-1.45E+00,1.21E+00,-2.51E-02,1,1,0,FF
AA55,1,2,2070,5.1500,9.58E+02,-5.99E-02,-1.87E-02,-8.78E-01,1.29E+00,2.77E-03,1,1,0,FF
AA55,1,2,2071,5.1500,9.58E+02,-5.99E-02,-1.90E-02,-8.32E-01,1.30E+00,5.49E-03,1,1,0,FF
AA55,1,2,2072,5.1500,9.59E+02,-5.99E-02,-1.93E-02,-7.86E-01,1.30E+00,8.17E-03,1,1,0,FF
AA55,1,2,2072,5.1500,9.59E+02,-5.99E-02,-1.93E-02,-7.86E-01,1.30E+00,8.17E-03,1,1,0,FF
AA55,1,2,2073,5.1600,9.59E+02,-5.99E-02,-1.96E-02,-7.42E-01,1.31E+00,1.08E-02,1,1,0,FF
AA55,1,2,2074,5.1600,9.60E+02,-5.99E-02,-1.99E-02,-6.99E-01,1.32E+00,1.34E-02,1,0,0,FF
AA55,1,2,2075,5.1600,9.60E+02,-5.99E-02,-2.01E-02,-6.56E-01,1.32E+00,1.60E-02,1,0,0,FF
AA55,1,2,2076,5.1600,9.61E+02,-5.99E-02,-2.04E-02,-6.12E-01,1.33E+00,1.84E-02,1,0,0,FF
AA55,1,2,2086,5.1900,9.65E+02,-5.99E-02,-2.26E-02,-1.38E-01,1.36E+00,3.96E-02,1,0,0,FF
AA55,1,2,2087,5.1900,9.66E+02,-5.99E-02,-2.27E-02,-8.66E-02,1.36E+00,4.13E-02,1,0,0,FF
AA55,1,2,2088,5.1900,9.66E+02,-5.99E-02,-2.29E-02,-3.48E-02,1.36E+00,4.29E-02,1,0,0,FF
AA55,1,2,2089,5.2000,9.67E+02,-5.99E-02,-2.30E-02,1.74E-02,1.36E+00,4.45E-02,1,0,0,FF
AA55,1,2,2090,5.2000,9.67E+02,-5.98E-02,-2.31E-02,6.99E-02,1.37E+00,4.60E-02,1,0,0,FF
AA55,1,2,2091,5.2000,9.68E+02,-5.98E-02,-2.33E-02,1.22E-01,1.37E+00,4.74E-02,1,0,0,FF
AA55,1,2,2092,5.2000,9.68E+02,-5.98E-02,-2.34E-02,1.75E-01,1.36E+00,4.88E-02,1,1,0,FF
AA55,1,2,2102,5.2300,9.73E+02,-5.99E-02,-2.40E-02,7.38E-01,1.35E+00,6.00E-02,1,1,0,FF
AA55,1,2,2103,5.2300,9.74E+02,-5.99E-02,-2.41E-02,8.02E-01,1.35E+00,6.10E-02,1,1,0,FF
AA55,1,2,2104,5.2300,9.74E+02,-5.99E-02,-2.41E-02,8.66E-01,1.35E+00,6.20E-02,1,1,0,FF
AA55,1,2,2105,5.2400,9.74E+02,-5.99E-02,-2.41E-02,9.31E-01,1.35E+00,6.29E-02,1,1,0,FF
AA55,1,2,2106,5.2400,9.75E+02,-5.99E-02,-2.42E-02,9.97E-01,1.35E+00,6.39E-02,1,1,0,FF
AA55,1,2,2107,5.2400,9.75E+02,-5.99E-02,-2.42E-02,1.06E+00,1.35E+00,6.47E-02,1,0,0,FF
AA55,1,2,2108,5.2400,9.76E+02,-5.99E-02,-2.42E-02,1.13E+00,1.35E+00,6.56E-02,1,0,0,FF
AA55,1,2,2121,5.2800,9.82E+02,-6.03E-02,-2.41E-02,1.70E+00,1.35E+00,7.72E-02,1,0,0,FF
AA55,1,2,2122,5.2800,9.83E+02,-6.03E-02,-2.41E-02,1.68E+00,1.35E+00,7.81E-02,1,0,0,FF
AA55,1,2,2123,5.2800,9.83E+02,-6.04E-02,-2.41E-02,1.64E+00,1.36E+00,7.91E-02,1,0,0,FF
AA55,1,2,2124,5.2800,9.84E+02,-6.04E-02,-2.41E-02,1.59E+00,1.36E+00,7.99E-02,1,0,0,FF
AA55,1,2,2137,5.3200,9.90E+02,-6.12E-02,-2.39E-02,3.40E-01,1.36E+00,8.39E-02,1,1,0,FF
AA55,1,2,2138,5.3200,9.90E+02,-6.13E-02,-2.39E-02,2.27E-01,1.36E+00,8.33E-02,1,1,0,FF
AA55,1,2,2139,5.3200,9.91E+02,-6.14E-02,-2.38E-02,1.16E-01,1.36E+00,8.26E-02,1,1,0,FF
AA55,1,2,2140,5.3200,9.91E+02,-6.15E-02,-2.38E-02,7.04E-03,1.35E+00,8.17E-02,1,0,0,FF
AA55,1,2,2153,5.3600,9.97E+02,-6.25E-02,-2.28E-02,-1.17E+00,1.35E+00,5.63E-02,1,0,0,FF
AA55,1,2,2154,5.3600,9.98E+02,-6.26E-02,-2.27E-02,-1.25E+00,1.35E+00,5.36E-02,1,0,0,FF
AA55,1,2,2155,5.3600,9.98E+02,-6.26E-02,-2.25E-02,-1.33E+00,1.35E+00,5.08E-02,1,0,0,FF
AA55,1,2,2156,5.3600,9.99E+02,-6.27E-02,-2.24E-02,-1.40E+00,1.35E+00,4.79E-02,1,0,0,FF