#Header,Sender ID,Target ID,MSG Counter,Time, Object X,Object Y,Object Z,Object Roll,Object Pitch,Object Yaw,Smoke,Object Model,spare,CheckSum
AA55,1,2,0,-101,0,50,0,0,2,0,1,0,0,FF
AA55,1,2,1,-91,0,30.87579587,-7.5012668,0,-0.712280915,-0.947190999,1,0,0,FF
AA55,1,2,2,-81,0,32.96837027,-6.704925202,0,-0.634457442,-0.844167224,1,0,0,FF
AA55,1,2,3,-71,0,35.06468804,-5.898242736,0,-0.556477426,-0.740773169,1,0,0,FF
AA55,1,2,4,-61,0,37.16381715,-5.082654366,0,-0.478360108,-0.637054187,1,0,0,FF
AA55,1,2,5,-51,0,39.26482598,-4.25960815,0,-0.400124762,-0.533055771,1,1,0,FF
AA55,1,2,6,-41,0,41.36678374,-3.430562668,0,-0.321790691,-0.42882354,1,1,0,FF
AA55,1,2,7,-31,0,43.46876084,-2.596984441,0,-0.243377222,-0.324403213,1,1,0,FF
AA55,1,2,8,-21,0,45.56982936,-1.760345337,0,-0.164903705,-0.219840592,1,1,0,FF
AA55,1,2,9,-11,0,47.6690634,-0.92211997,0,-0.086389499,-0.115181541,1,1,0,FF
AA55,1,2,10,-1,0,49.76553954,-0.0837831,0,-0.007853978,-0.010471968,1,0,0,FF
AA55,1,2,11,9,0.010935,51.85833721,0.753192956,0,0.07068348,0.094242199,1,0,0,FF
AA55,1,2,12,19,0.048735,53.94653912,1.587340918,0,0.149203499,0.198915027,1,0,0,FF
AA55,1,2,13,29,0.113535,56.02923163,2.417201107,0,0.227686703,0.303500605,1,0,0,FF
AA55,1,2,14,39,0.205335,58.10550518,3.241324005,0,0.30611373,0.407953058,1,0,0,FF
AA55,1,2,15,49,0.324135,60.17445468,4.058272785,0,0.384465227,0.512226569,1,1,0,FF
AA55,1,2,16,59,0.469935,62.23517989,4.866625814,0,0.462721864,0.6162754,1,1,0,FF
AA55,1,2,17,69,0.642735,64.28678584,5.66497913,0,0.540864331,0.720053913,1,1,0,FF
AA55,1,2,18,79,0.842535,66.32838319,6.451948879,0,0.618873347,0.823516586,1,1,0,FF
AA55,1,2,19,89,1.069335,68.35908862,7.226173713,0,0.696729666,0.926618038,1,1,0,FF
AA55,1,2,20,99,1.323135,70.37802523,7.986317143,0,0.774414077,1.029313044,1,0,0,FF
AA55,1,2,21,109,1.603935,72.3843229,8.73106985,0,0.851907413,1.131556559,1,0,0,FF
AA55,1,2,22,119,1.911735,74.37711868,9.459151934,0,0.929190554,1.233303737,1,0,0,FF
AA55,1,2,23,129,2.246535,76.35555714,10.16931512,0,1.006244431,1.334509947,1,0,0,FF
AA55,1,2,24,139,2.608335,78.31879077,10.86034488,0,1.083050032,1.435130796,1,0,0,FF
AA55,1,2,25,149,2.997135,80.26598031,11.53106253,0,1.159588407,1.53512215,1,1,0,FF
AA55,1,2,26,159,3.412935,82.19629512,12.18032724,0,1.235840671,1.634440148,1,1,0,FF
AA55,1,2,27,169,3.855735,84.10891354,12.80703794,0,1.311788009,1.733041227,1,1,0,FF
AA55,1,2,28,179,4.325535,86.00302324,13.41013522,0,1.387411683,1.830882137,1,1,0,FF
AA55,1,2,29,189,4.822335,87.87782155,13.98860311,0,1.462693035,1.927919961,1,1,0,FF
AA55,1,2,30,199,5.346135,89.73251581,14.54147077,0,1.537613488,2.024112136,1,0,0,FF
AA55,1,2,31,209,5.896935,91.56632372,15.06781414,0,1.612154559,2.119416469,1,0,0,FF
AA55,1,2,32,219,6.474735,93.37847363,15.56675748,0,1.686297854,2.213791155,1,0,0,FF
AA55,1,2,33,229,7.079535,95.16820491,16.03747479,0,1.760025081,2.3071948,1,0,0,FF
AA55,1,2,34,239,7.711335,96.93476824,16.47919121,0,1.833318048,2.399586432,1,0,0,FF
AA55,1,2,35,249,8.370135,98.67742591,16.89118428,0,1.906158671,2.490925527,1,1,0,FF
AA55,1,2,36,259,9.055935,100.3954522,17.27278511,0,1.978528978,2.581172019,1,1,0,FF
AA55,1,2,37,269,9.768735,102.0881335,17.62337945,0,2.050411113,2.670286324,1,1,0,FF
AA55,1,2,38,279,10.508535,103.7547689,17.94240869,0,2.121787339,2.758229353,1,1,0,FF
AA55,1,2,39,289,11.275335,105.3946703,18.22937073,0,2.192640046,2.844962532,1,1,0,FF
AA55,1,2,40,299,12.069135,107.0071625,18.48382077,0,2.262951752,2.930447816,1,0,0,FF
AA55,1,2,41,309,12.889935,108.5915839,18.70537196,0,2.332705109,3.014647708,1,0,0,FF
AA55,1,2,42,319,13.737735,110.1472864,18.89369601,0,2.401882905,3.097525277,1,0,0,FF
AA55,1,2,43,329,14.612535,111.673636,19.04852364,0,2.470468073,3.179044169,1,0,0,FF
AA55,1,2,44,339,15.514335,113.1700128,19.16964496,0,2.538443689,3.259168627,1,0,0,FF
AA55,1,2,45,349,16.443135,114.6358112,19.25690969,0,2.605792983,3.337863505,1,1,0,FF
AA55,1,2,46,359,17.398935,116.0704403,19.31022737,0,2.672499336,3.415094287,1,1,0,FF
AA55,1,2,47,369,18.381735,117.4733243,19.32956737,0,2.73854629,3.490827095,1,1,0,FF
AA55,1,2,48,379,19.391535,118.8439024,19.31495884,0,2.803917549,3.565028711,1,1,0,FF
AA55,1,2,49,389,20.428335,120.181629,19.26649058,0,2.868596983,3.637666588,1,1,0,FF
AA55,1,2,50,399,21.492135,121.4859743,19.18431072,0,2.932568634,3.708708864,1,0,0,FF
AA55,1,2,51,409,22.582935,122.7564242,19.06862639,0,2.995816717,3.778124377,1,0,0,FF
AA55,1,2,52,419,23.700735,123.9924806,18.91970322,0,3.058325627,3.845882681,1,0,0,FF
AA55,1,2,53,429,24.845535,125.1936615,18.7378648,0,3.120079941,3.911954053,1,0,0,FF
AA55,1,2,54,439,26.017335,126.3595013,18.52349195,0,3.181064422,3.976309513,1,0,0,FF
AA55,1,2,55,449,27.216135,127.4895509,18.27702199,0,3.241264023,4.038920832,1,1,0,FF
AA55,1,2,56,459,28.441935,128.583378,17.99894785,0,3.300663891,4.099760547,1,1,0,FF
AA55,1,2,57,469,29.694735,129.6405671,17.6898171,0,3.359249369,4.158801971,1,1,0,FF
AA55,1,2,58,479,30.974535,130.6607196,17.35023087,0,3.417006003,4.216019207,1,1,0,FF
AA55,1,2,59,489,32.281335,131.6434542,16.98084272,0,3.473919542,4.271387158,1,1,0,FF
AA55,1,2,60,499,33.615135,132.5884069,16.58235735,0,3.529975943,4.324881538,1,0,0,FF
AA55,1,2,61,509,34.975935,133.4952312,16.15552933,0,3.585161375,4.376478881,1,0,0,FF
AA55,1,2,62,519,36.363735,134.3635979,15.7011616,0,3.639462222,4.426156557,1,0,0,FF
AA55,1,2,63,529,37.778535,135.1931957,15.22010403,0,3.692865087,4.473892773,1,0,0,FF
AA55,1,2,64,539,39.220335,135.983731,14.71325181,0,3.745356792,4.519666593,1,0,0,FF
AA55,1,2,65,549,40.689135,136.7349281,14.18154379,0,3.796924386,4.563457937,1,1,0,FF
AA55,1,2,66,559,42.184935,137.4465292,13.62596073,0,3.847555147,4.605247598,1,1,0,FF
AA55,1,2,67,569,43.707735,138.1182946,13.04752356,0,3.89723658,4.645017245,1,1,0,FF
AA55,1,2,68,579,45.257535,138.7500028,12.4472914,0,3.945956429,4.682749434,1,1,0,FF
AA55,1,2,69,589,46.834335,139.3414502,11.82635973,0,3.993702672,4.718427614,1,1,0,FF
AA55,1,2,70,599,48.438135,139.8924517,11.18585834,0,4.040463529,4.752036136,1,0,0,FF
AA55,1,2,71,609,50.068935,140.4028404,10.52694927,0,4.086227462,4.783560258,1,0,0,FF
AA55,1,2,72,619,51.726735,140.8724678,9.850824738,0,4.130983179,4.812986152,1,0,0,FF
AA55,1,2,73,629,53.411535,141.3012036,9.158704954,0,4.174719638,4.840300911,1,0,0,FF
AA55,1,2,74,639,55.123335,141.6889361,8.451835939,0,4.217426047,4.865492555,1,0,0,FF
AA55,1,2,75,649,56.862135,142.0355718,7.731487275,0,4.25909187,4.888550033,1,1,0,FF
AA55,1,2,76,659,58.627935,142.3410357,6.998949827,0,4.299706825,4.909463231,1,1,0,FF
AA55,1,2,77,669,60.420735,142.6052712,6.255533432,0,4.339260892,4.928222976,1,1,0,FF
AA55,1,2,78,679,62.240535,142.8282401,5.502564556,0,4.377744312,4.944821039,1,1,0,FF
AA55,1,2,79,689,64.087335,143.0099225,4.74138393,0,4.415147588,4.959250141,1,1,0,FF
AA55,1,2,80,699,65.961135,143.1503171,3.973344161,0,4.451461493,4.971503952,1,0,0,FF
AA55,1,2,81,709,67.861935,143.2494406,3.199807331,0,4.486677067,4.981577097,1,0,0,FF
AA55,1,2,82,719,69.789735,143.3073283,2.42214258,0,4.52078562,4.989465157,1,0,0,FF
AA55,1,2,83,729,71.744535,143.3240333,1.641723684,0,4.553778736,4.995164673,1,0,0,FF
AA55,1,2,84,739,73.726335,143.2996274,0.859926627,0,4.585648276,4.998673145,1,0,0,FF
AA55,1,2,85,749,75.735135,143.2342,0.078127175,0,4.616386376,4.999989034,1,1,0,FF
AA55,1,2,86,759,77.770935,143.1278589,-0.70230154,0,4.645985452,4.999111762,1,1,0,FF
AA55,1,2,87,769,79.833735,142.9807297,-1.479991442,0,4.6744382,4.996041714,1,1,0,FF
AA55,1,2,88,779,81.923535,142.7929559,-2.253581899,0,4.701737601,4.990780238,1,1,0,FF
AA55,1,2,89,789,84.040335,142.5646987,-3.021722108,0,4.727876918,4.98332964,1,1,0,FF
AA55,1,2,90,799,86.184135,142.296137,-3.783073455,0,4.752849702,4.973693189,1,0,0,FF
AA55,1,2,91,809,88.354935,141.9874672,-4.536311844,0,4.776649792,4.961875112,1,0,0,FF
AA55,1,2,92,819,90.552735,141.6389032,-5.280130004,0,4.799271315,4.947880593,1,0,0,FF
AA55,1,2,93,829,92.777535,141.2506762,-6.013239753,0,4.820708689,4.93171577,1,0,0,FF
AA55,1,2,94,839,95.029335,140.8230345,-6.734374231,0,4.840956626,4.913387733,1,0,0,FF
AA55,1,2,95,849,97.308135,140.3562434,-7.44229009,0,4.860010129,4.892904522,1,1,0,FF
AA55,1,2,96,859,99.613935,139.8505851,-8.135769633,0,4.877864497,4.870275121,1,1,0,FF
AA55,1,2,97,869,101.946735,139.3063585,-8.813622912,0,4.894515326,4.845509456,1,1,0,FF
AA55,1,2,98,879,104.306535,138.7238791,-9.474689766,0,4.909958506,4.818618391,1,1,0,FF
AA55,1,2,99,889,106.693335,138.1034787,-10.11784181,0,4.924190227,4.789613721,1,1,0,FF
AA55,1,2,100,899,109.107135,137.4455053,-10.74198435,0,4.937206978,4.758508168,1,0,0,FF
AA55,1,2,101,909,111.547935,136.7503229,-11.34605825,0,4.949005546,4.725315376,1,0,0,FF
AA55,1,2,102,919,114.015735,136.0183113,-11.92904173,0,4.959583022,4.690049904,1,0,0,FF
AA55,1,2,103,929,116.510535,135.2498661,-12.48995211,0,4.968936795,4.652727222,1,0,0,FF
AA55,1,2,104,939,119.032335,134.445398,-13.0278474,0,4.977064557,4.613363699,1,0,0,FF
AA55,1,2,105,949,121.581135,133.6053331,-13.54182796,0,4.983964303,4.571976603,1,1,0,FF
AA55,1,2,106,959,124.156935,132.7301125,-14.03103794,0,4.98963433,4.528584087,1,1,0,FF
AA55,1,2,107,969,126.759735,131.8201919,-14.49466674,0,4.99407324,4.483205184,1,1,0,FF
AA55,1,2,108,979,129.389535,130.8760415,-14.93195033,0,4.997279937,4.435859799,1,1,0,FF
AA55,1,2,109,989,132.046335,129.8981461,-15.3421725,0,4.99925363,4.386568699,1,1,0,FF
AA55,1,2,110,999,134.730135,128.8870041,-15.72466603,0,4.999993831,4.335353506,1,0,0,FF
AA55,1,2,111,1009,136.730135,127.8431281,-16.07881379,0,4.99950036,4.282236683,1,0,0,FF
AA55,1,2,112,1019,138.730135,126.7670439,-16.40404969,0,4.997773336,4.227241529,1,0,0,FF
AA55,1,2,113,1029,140.730135,125.6592908,-16.69985961,0,4.994813186,4.170392168,1,0,0,FF
AA55,1,2,114,1039,142.730135,124.5204209,-16.96578219,0,4.990620641,4.111713535,1,0,0,FF
AA55,1,2,115,1049,144.730135,123.3509993,-17.20140952,0,4.985196735,4.051231368,1,1,0,FF
AA55,1,2,116,1059,146.730135,122.1516034,-17.40638779,0,4.978542807,3.988972198,1,1,0,FF
AA55,1,2,117,1069,148.730135,120.9228227,-17.58041779,0,4.970660497,3.924963332,1,1,0,FF
AA55,1,2,118,1079,150.730135,119.6652587,-17.7232553,0,4.961551751,3.859232848,1,1,0,FF
AA55,1,2,119,1089,152.730135,118.3795246,-17.83471146,0,4.951218817,3.791809576,1,1,0,FF
AA55,1,2,120,1099,154.730135,117.0662448,-17.91465297,0,4.939664243,3.722723092,1,0,0,FF
AA55,1,2,121,1109,156.730135,115.7260545,-17.9630022,0,4.926890882,3.652003698,1,0,0,FF
AA55,1,2,122,1119,158.730135,114.3596,-17.97973724,0,4.912901883,3.579682415,1,0,0,FF
AA55,1,2,123,1129,160.730135,112.9675377,-17.96489182,0,4.8977007,3.505790965,1,0,0,FF
AA55,1,2,124,1139,162.730135,111.5505342,-17.91855514,0,4.881291082,3.430361759,1,0,0,FF
AA55,1,2,125,1149,164.730135,110.1092658,-17.8408716,0,4.863677079,3.353427883,1,1,0,FF
AA55,1,2,126,1159,166.730135,108.6444183,-17.73204043,0,4.844863036,3.275023082,1,1,0,FF
AA55,1,2,127,1169,168.730135,107.1566866,-17.59231525,0,4.824853596,3.195181749,1,1,0,FF
AA55,1,2,128,1179,170.730135,105.6467743,-17.4220035,0,4.803653695,3.113938902,1,1,0,FF
AA55,1,2,129,1189,172.730135,104.1153936,-17.2214658,0,4.781268565,3.03133018,1,1,0,FF
AA55,1,2,130,1199,174.730135,102.5632647,-16.99111519,0,4.757703728,2.947391816,1,0,0,FF
AA55,1,2,131,1209,176.730135,100.9911157,-16.73141631,0,4.732964999,2.862160628,1,0,0,FF
AA55,1,2,132,1219,178.730135,99.39968202,-16.4428845,0,4.707058481,2.775674002,1,0,0,FF
AA55,1,2,133,1229,180.730135,97.78970628,-16.12608476,0,4.679990568,2.687969874,1,0,0,FF
AA55,1,2,134,1239,182.730135,96.16193781,-15.78163066,0,4.651767936,2.599086713,1,0,0,FF
AA55,1,2,135,1249,184.730135,94.51713238,-15.41018317,0,4.622397551,2.509063507,1,1,0,FF
AA55,1,2,136,1259,186.730135,92.85605179,-15.01244942,0,4.591886658,2.417939743,1,1,0,FF
AA55,1,2,137,1269,188.730135,91.17946357,-14.58918131,0,4.560242786,2.32575539,1,1,0,FF
AA55,1,2,138,1279,190.730135,89.4881406,-14.14117416,0,4.527473742,2.232550885,1,1,0,FF
AA55,1,2,139,1289,192.730135,87.78286075,-13.66926516,0,4.493587612,2.138367108,1,1,0,FF
AA55,1,2,140,1299,194.730135,86.06440655,-13.17433187,0,4.458592756,2.043245374,1,0,0,FF
AA55,1,2,141,1309,196.730135,84.33356478,-12.65729054,0,4.42249781,1.947227404,1,0,0,FF
AA55,1,2,142,1319,198.730135,82.59112619,-12.11909446,0,4.385311678,1.850355316,1,0,0,FF
AA55,1,2,143,1329,200.730135,80.83788506,-11.56073218,0,4.347043536,1.752671601,1,0,0,FF
AA55,1,2,144,1339,202.730135,79.07463888,-10.98322572,0,4.307702826,1.654219106,1,0,0,FF
AA55,1,2,145,1349,204.730135,77.30218799,-10.38762868,0,4.267299255,1.555041016,1,1,0,FF
AA55,1,2,146,1359,206.730135,75.52133519,-9.775024324,0,4.225842791,1.455180834,1,1,0,FF
AA55,1,2,147,1369,208.730135,73.73288541,-9.146523637,0,4.183343665,1.354682361,1,1,0,FF
AA55,1,2,148,1379,210.730135,71.93764531,-8.503263283,0,4.13981236,1.25358968,1,1,0,FF
AA55,1,2,149,1389,212.730135,70.13642297,-7.846403565,0,4.095259619,1.151947133,1,1,0,FF
AA55,1,2,150,1399,214.730135,68.33002745,-7.177126333,0,4.049696434,1.049799304,1,0,0,FF
AA55,1,2,151,1409,216.730135,66.5192685,-6.496632854,0,4.003134047,0.947190999,1,0,0,FF
AA55,1,2,152,1419,218.730135,64.70495616,-5.806141662,0,3.955583947,0.844167224,1,0,0,FF
AA55,1,2,153,1429,220.730135,62.8879004,-5.106886376,0,3.907057865,0.740773169,1,0,0,FF
AA55,1,2,154,1439,222.730135,61.06891077,-4.400113494,0,3.857567775,0.637054187,1,0,0,FF
AA55,1,2,155,1449,224.730135,59.24879602,-3.687080173,0,3.807125888,0.533055771,1,1,0,FF
AA55,1,2,156,1459,226.730135,57.42836378,-2.969051995,0,3.75574465,0.42882354,1,1,0,FF
AA55,1,2,157,1469,228.730135,55.60842015,-2.247300719,0,3.703436738,0.324403213,1,1,0,FF
AA55,1,2,158,1479,230.730135,53.78976937,-1.52310203,0,3.650215059,0.219840592,1,1,0,FF
AA55,1,2,159,1489,232.730135,51.97321347,-0.797733283,0,3.596092743,0.115181541,1,1,0,FF
AA55,1,2,160,1499,234.730135,50.15955191,-0.072471251,0,3.541083146,0.010471968,1,0,0,FF
AA55,1,2,161,1509,236.730135,48.34958123,0.651410124,0,3.485199839,-0.094242199,1,0,0,FF
AA55,1,2,162,1519,238.730135,46.54409468,1.372641966,0,3.428456611,-0.198915027,1,0,0,FF
AA55,1,2,163,1529,240.730135,44.7438819,2.08996269,0,3.370867463,-0.303500605,1,0,0,FF
AA55,1,2,164,1539,242.730135,42.94972857,2.80212021,0,3.312446603,-0.407953058,1,0,0,FF
AA55,1,2,165,1549,244.730135,41.16241606,3.507874125,0,3.253208448,-0.512226569,1,1,0,FF
AA55,1,2,166,1559,246.730135,39.38272109,4.205997875,0,3.193167611,-0.6162754,1,1,0,FF
AA55,1,2,167,1569,248.730135,37.61141538,4.895280879,0,3.132338908,-0.720053913,1,1,0,FF
AA55,1,2,168,1579,250.730135,35.84926535,5.574530627,0,3.070737348,-0.823516586,1,1,0,FF
AA55,1,2,169,1589,252.730135,34.09703174,6.24257475,0,3.008378129,-0.926618038,1,1,0,FF
AA55,1,2,170,1599,254.730135,32.35546935,6.898263037,0,2.945276638,-1.029313044,1,0,0,FF
AA55,1,2,171,1609,256.730135,30.62532665,7.540469416,0,2.881448444,-1.131556559,1,0,0,FF
AA55,1,2,172,1619,258.730135,28.90734546,8.16809389,0,2.816909295,-1.233303737,1,0,0,FF
AA55,1,2,173,1629,260.730135,27.2022607,8.780064417,0,2.751675116,-1.334509947,1,0,0,FF
AA55,1,2,174,1639,262.730135,25.5108,9.37533874,0,2.685762003,-1.435130796,1,0,0,FF
AA55,1,2,175,1649,264.730135,23.83368343,9.952906162,0,2.619186218,-1.53512215,1,1,0,FF
AA55,1,2,176,1659,266.730135,22.17162319,10.51178926,0,2.551964188,-1.634440148,1,1,0,FF
AA55,1,2,177,1669,268.730135,20.52532328,11.05104553,0,2.484112499,-1.733041227,1,1,0,FF
AA55,1,2,178,1679,270.730135,18.89547925,11.56976899,0,2.415647893,-1.830882137,1,1,0,FF
AA55,1,2,179,1689,272.730135,17.28277786,12.06709169,0,2.346587261,-1.927919961,1,1,0,FF
AA55,1,2,180,1699,274.730135,15.68789683,12.54218514,0,2.276947644,-2.024112136,1,0,0,FF
AA55,1,2,181,1709,276.730135,14.11150453,12.99426174,0,2.206746225,-2.119416469,1,0,0,FF
AA55,1,2,182,1719,278.730135,12.5542597,13.42257601,0,2.136000324,-2.213791155,1,0,0,FF
AA55,1,2,183,1729,280.730135,11.0168112,13.82642587,0,2.064727396,-2.3071948,1,0,0,FF
AA55,1,2,184,1739,282.730135,9.499797698,14.20515379,0,1.992945028,-2.399586432,1,0,0,FF
AA55,1,2,185,1749,284.730135,8.003847457,14.55814778,0,1.920670931,-2.490925527,1,1,0,FF
AA55,1,2,186,1759,286.730135,6.52957804,14.88484247,0,1.847922937,-2.581172019,1,1,0,FF
AA55,1,2,187,1769,288.730135,5.077596064,15.18471993,0,1.774718996,-2.670286324,1,1,0,FF
AA55,1,2,188,1779,290.730135,3.648496958,15.45731053,0,1.701077169,-2.758229353,1,1,0,FF
AA55,1,2,189,1789,292.730135,2.242864712,15.70219364,0,1.627015627,-2.844962532,1,1,0,FF
AA55,1,2,190,1799,294.730135,0.861271646,15.91899827,0,1.552552643,-2.930447816,1,0,0,FF
AA55,1,2,191,1809,296.730135,-0.495721827,16.10740363,0,1.47770659,-3.014647708,1,0,0,FF
AA55,1,2,192,1819,298.730135,-1.827567421,16.26713957,0,1.402495935,-3.097525277,1,0,0,FF
AA55,1,2,193,1829,300.730135,-3.133729202,16.39798696,0,1.326939235,-3.179044169,1,0,0,FF
AA55,1,2,194,1839,302.730135,-4.413683802,16.49977797,0,1.251055133,-3.259168627,1,0,0,FF
AA55,1,2,195,1849,304.730135,-5.66692062,16.57239625,0,1.174862352,-3.337863505,1,1,0,FF
AA55,1,2,196,1859,306.730135,-6.892942033,16.61577704,0,1.098379691,-3.415094287,1,1,0,FF
AA55,1,2,197,1869,308.730135,-8.091263584,16.62990712,0,1.021626021,-3.490827095,1,1,0,FF
AA55,1,2,198,1879,310.730135,-9.261414175,16.6148248,0,0.94462028,-3.565028711,1,1,0,FF
AA55,1,2,199,1889,312.730135,-10.40293625,16.5706197,0,0.867381468,-3.637666588,1,1,0,FF
AA55,1,2,200,1899,314.730135,-11.51538597,16.49743247,0,0.789928643,-3.708708864,1,0,0,FF
AA55,1,2,201,1909,316.730135,-12.59833337,16.39545447,0,0.712280915,-3.778124377,1,0,0,FF
AA55,1,2,202,1919,318.730135,-13.65136256,16.26492728,0,0.634457442,-3.845882681,1,0,0,FF
AA55,1,2,203,1929,320.730135,-14.67407184,16.10614221,0,0.556477426,-3.911954053,1,0,0,FF
AA55,1,2,204,1939,322.730135,-15.66607387,15.91943966,0,0.478360108,-3.976309513,1,0,0,FF
AA55,1,2,205,1949,324.730135,-16.6269958,15.70520839,0,0.400124762,-4.038920832,1,1,0,FF
AA55,1,2,206,1959,326.730135,-17.55647943,15.46388477,0,0.321790691,-4.099760547,1,1,0,FF
AA55,1,2,207,1969,328.730135,-18.45418132,15.19595191,0,0.243377222,-4.158801971,1,1,0,FF
AA55,1,2,208,1979,330.730135,-19.31977291,14.90193865,0,0.164903705,-4.216019207,1,1,0,FF
AA55,1,2,209,1989,332.730135,-20.15294065,14.5824186,0,0.086389499,-4.271387158,1,1,0,FF
AA55,1,2,210,1999,334.730135,-20.9533861,14.238009,0,0.007853978,-4.324881538,1,0,0,FF
AA55,1,2,211,2009,336.730135,-21.72082604,13.86936952,0,-0.07068348,-4.376478881,1,0,0,FF
AA55,1,2,212,2019,338.730135,-22.45499253,13.47720103,0,-0.149203499,-4.426156557,1,0,0,FF
AA55,1,2,213,2029,340.730135,-23.15563306,13.06224429,0,-0.227686703,-4.473892773,1,0,0,FF
AA55,1,2,214,2039,342.730135,-23.82251057,12.62527852,0,-0.30611373,-4.519666593,1,0,0,FF
AA55,1,2,215,2049,344.730135,-24.45540356,12.16711995,0,-0.384465227,-4.563457937,1,1,0,FF
AA55,1,2,216,2059,346.730135,-25.05410615,11.68862035,0,-0.462721864,-4.605247598,1,1,0,FF
AA55,1,2,217,2069,348.730135,-25.61842811,11.19066536,0,-0.540864331,-4.645017245,1,1,0,FF
AA55,1,2,218,2079,350.730135,-26.14819495,10.67417297,0,-0.618873347,-4.682749434,1,1,0,FF
AA55,1,2,219,2089,352.730135,-26.64324796,10.14009171,0,-0.696729666,-4.718427614,1,1,0,FF
AA55,1,2,220,2099,354.730135,-27.10344421,9.589399015,0,-0.774414077,-4.752036136,1,0,0,FF
AA55,1,2,221,2109,356.730135,-27.52865662,9.023099376,0,-0.851907413,-4.783560258,1,0,0,FF
AA55,1,2,222,2119,358.730135,-27.91877398,8.442222535,0,-0.929190554,-4.812986152,1,0,0,FF
AA55,1,2,223,2129,360.730135,-28.27370094,7.847821612,0,-1.006244431,-4.840300911,1,0,0,FF
AA55,1,2,224,2139,362.730135,-28.59335803,7.240971192,0,-1.083050032,-4.865492555,1,0,0,FF
AA55,1,2,225,2149,364.730135,-28.87768168,6.622765391,0,-1.159588407,-4.888550033,1,1,0,FF
AA55,1,2,226,2159,366.730135,-29.1266242,5.994315881,0,-1.235840671,-4.909463231,1,1,0,FF
AA55,1,2,227,2169,368.730135,-29.34015375,5.356749893,0,-1.311788009,-4.928222976,1,1,0,FF
AA55,1,2,228,2179,370.730135,-29.51825436,4.711208196,0,-1.387411683,-4.944821039,1,1,0,FF
AA55,1,2,229,2189,372.730135,-29.66092584,4.058843057,0,-1.462693035,-4.959250141,1,1,0,FF
AA55,1,2,230,2199,374.730135,-29.76818384,3.400816184,0,-1.537613488,-4.971503952,1,0,0,FF
AA55,1,2,231,2209,376.730135,-29.8400597,2.738296658,0,-1.612154559,-4.981577097,1,0,0,FF
AA55,1,2,232,2219,378.730135,-29.8766005,2.072458858,0,-1.686297854,-4.989465157,1,0,0,FF
AA55,1,2,233,2229,380.730135,-29.87786893,1.404480377,0,-1.760025081,-4.995164673,1,0,0,FF
AA55,1,2,234,2239,382.730135,-29.84394329,0.73553994,0,-1.833318048,-4.998673145,1,0,0,FF
AA55,1,2,235,2249,384.730135,-29.77491734,0.066815326,0,-1.906158671,-4.999989034,1,1,0,FF
AA55,1,2,236,2259,386.730135,-29.67090034,-0.600518708,0,-1.978528978,-4.999111762,1,1,0,FF
AA55,1,2,237,2269,388.730135,-29.53201684,-1.26529249,0,-2.050411113,-4.996041714,1,1,0,FF
AA55,1,2,238,2279,390.730135,-29.3584067,-1.926343482,0,-2.121787339,-4.990780238,1,1,0,FF
AA55,1,2,239,2289,392.730135,-29.15022491,-2.582518313,0,-2.192640046,-4.98332964,1,1,0,FF
AA55,1,2,240,2299,394.730135,-28.90764155,-3.232674795,0,-2.262951752,-4.973693189,1,0,0,FF
AA55,1,2,241,2309,396.730135,-28.63084164,-3.875683906,0,-2.332705109,-4.961875112,1,0,0,FF
AA55,1,2,242,2319,398.730135,-28.32002505,-4.510431753,0,-2.401882905,-4.947880593,1,0,0,FF
AA55,1,2,243,2329,400.730135,-27.97540635,-5.135821501,0,-2.470468073,-4.93171577,1,0,0,FF
AA55,1,2,244,2339,402.730135,-27.59721472,-5.750775269,0,-2.538443689,-4.913387733,1,0,0,FF
AA55,1,2,245,2349,404.730135,-27.18569378,-6.354235983,0,-2.605792983,-4.892904522,1,1,0,FF
AA55,1,2,246,2359,406.730135,-26.74110146,-6.945169199,0,-2.672499336,-4.870275121,1,1,0,FF
AA55,1,2,247,2369,408.730135,-26.26370987,-7.522564868,0,-2.73854629,-4.845509456,1,1,0,FF
AA55,1,2,248,2379,410.730135,-25.75380513,-8.085439067,0,-2.803917549,-4.818618391,1,1,0,FF
AA55,1,2,249,2389,412.730135,-25.21168719,-8.632835672,0,-2.868596983,-4.789613721,1,1,0,FF
AA55,1,2,250,2399,414.730135,-24.63766972,-9.163827978,0,-2.932568634,-4.758508168,1,0,0,FF
AA55,1,2,251,2409,416.730135,-24.03207988,-9.67752027,0,-2.995816717,-4.725315376,1,0,0,FF
AA55,1,2,252,2419,418.730135,-23.3952582,-10.17304933,0,-3.058325627,-4.690049904,1,0,0,FF
AA55,1,2,253,2429,420.730135,-22.72755835,-10.64958588,0,-3.120079941,-4.652727222,1,0,0,FF
AA55,1,2,254,2439,422.730135,-22.02934697,-11.10633598,0,-3.181064422,-4.613363699,1,0,0,FF
AA55,1,2,255,2449,424.730135,-21.30100348,-11.54254233,0,-3.241264023,-4.571976603,1,1,0,FF
AA55,1,2,256,2459,426.730135,-20.54291989,-11.95748553,0,-3.300663891,-4.528584087,1,1,0,FF
AA55,1,2,257,2469,428.730135,-19.75550057,-12.35048527,0,-3.359249369,-4.483205184,1,1,0,FF
AA55,1,2,258,2479,430.730135,-18.93916206,-12.72090142,0,-3.417006003,-4.435859799,1,1,0,FF
AA55,1,2,259,2489,432.730135,-18.09433286,-13.06813507,0,-3.473919542,-4.386568699,1,1,0,FF
AA55,1,2,260,2499,434.730135,-17.22145321,-13.39162953,0,-3.529975943,-4.335353506,1,0,0,FF
AA55,1,2,261,2509,436.730135,-16.32097484,-13.69087115,0,-3.585161375,-4.282236683,1,0,0,FF
AA55,1,2,262,2519,438.730135,-15.39336077,-13.96539017,0,-3.639462222,-4.227241529,1,0,0,FF
AA55,1,2,263,2529,440.730135,-14.43908507,-14.21476146,0,-3.692865087,-4.170392168,1,0,0,FF
AA55,1,2,264,2539,442.730135,-13.45863263,-14.4386051,0,-3.745356792,-4.111713535,1,0,0,FF
AA55,1,2,265,2549,444.730135,-12.4524989,-14.63658703,0,-3.796924386,-4.051231368,1,1,0,FF
AA55,1,2,266,2559,446.730135,-11.42118965,-14.80841947,0,-3.847555147,-3.988972198,1,1,0,FF
AA55,1,2,267,2569,448.730135,-10.36522073,-14.95386135,0,-3.89723658,-3.924963332,1,1,0,FF
AA55,1,2,268,2579,450.730135,-9.285117817,-15.07271862,0,-3.945956429,-3.859232848,1,1,0,FF
AA55,1,2,269,2589,452.730135,-8.181416133,-15.16484448,0,-3.993702672,-3.791809576,1,1,0,FF
AA55,1,2,270,2599,454.730135,-7.05466021,-15.23013954,0,-4.040463529,-3.722723092,1,0,0,FF
AA55,1,2,271,2609,456.730135,-5.905403612,-15.26855187,0,-4.086227462,-3.652003698,1,0,0,FF
AA55,1,2,272,2619,458.730135,-4.734208667,-15.280077,0,-4.130983179,-3.579682415,1,0,0,FF
AA55,1,2,273,2629,460.730135,-3.5416462,-15.26475778,0,-4.174719638,-3.505790965,1,0,0,FF
AA55,1,2,274,2639,462.730135,-2.32829525,-15.22268426,0,-4.217426047,-3.430361759,1,0,0,FF
AA55,1,2,275,2649,464.730135,-1.094742799,-15.15399335,0,-4.25909187,-3.353427883,1,1,0,FF
AA55,1,2,276,2659,466.730135,0.158416518,-15.05886851,0,-4.299706825,-3.275023082,1,1,0,FF
AA55,1,2,277,2669,468.730135,1.430580687,-14.93753931,0,-4.339260892,-3.195181749,1,1,0,FF
AA55,1,2,278,2679,470.730135,2.721140611,-14.79028092,0,-4.377744312,-3.113938902,1,1,0,FF
AA55,1,2,279,2689,472.730135,4.029480396,-14.61741351,0,-4.415147588,-3.03133018,1,1,0,FF
AA55,1,2,280,2699,474.730135,5.354977641,-14.41930159,0,-4.451461493,-2.947391816,1,0,0,FF
AA55,1,2,281,2709,476.730135,6.697003736,-14.19635323,0,-4.486677067,-2.862160628,1,0,0,FF
AA55,1,2,282,2719,478.730135,8.054924156,-13.94901931,0,-4.52078562,-2.775674002,1,0,0,FF
AA55,1,2,283,2729,480.730135,9.428098762,-13.67779254,0,-4.553778736,-2.687969874,1,0,0,FF
AA55,1,2,284,2739,482.730135,10.8158821,-13.38320655,0,-4.585648276,-2.599086713,1,0,0,FF
AA55,1,2,285,2749,484.730135,12.21762369,-13.06583482,0,-4.616386376,-2.509063507,1,1,0,FF
AA55,1,2,286,2759,486.730135,13.63266837,-12.72628961,0,-4.645985452,-2.417939743,1,1,0,FF
AA55,1,2,287,2769,488.730135,15.06035655,-12.36522075,0,-4.6744382,-2.32575539,1,1,0,FF
AA55,1,2,288,2779,490.730135,16.50002454,-11.98331442,0,-4.701737601,-2.232550885,1,1,0,FF
AA55,1,2,289,2789,492.730135,17.95100487,-11.58129187,0,-4.727876918,-2.138367108,1,1,0,FF
AA55,1,2,290,2799,494.730135,19.4126266,-11.15990804,0,-4.752849702,-2.043245374,1,0,0,FF
AA55,1,2,291,2809,496.730135,20.88421559,-10.71995015,0,-4.776649792,-1.947227404,1,0,0,FF
AA55,1,2,292,2819,498.730135,22.36509484,-10.26223627,0,-4.799271315,-1.850355316,1,0,0,FF
AA55,1,2,293,2829,500.730135,23.85458483,-9.78761375,0,-4.820708689,-1.752671601,1,0,0,FF
AA55,1,2,294,2839,502.730135,25.35200376,-9.296957699,0,-4.840956626,-1.654219106,1,0,0,FF
AA55,1,2,295,2849,504.730135,26.85666794,-8.791169352,0,-4.860010129,-1.555041016,1,1,0,FF
AA55,1,2,296,2859,506.730135,28.36789201,-8.271174428,0,-4.877864497,-1.455180834,1,1,0,FF
AA55,1,2,297,2869,508.730135,29.88498936,-7.737921434,0,-4.894515326,-1.354682361,1,1,0,FF
AA55,1,2,298,2879,510.730135,31.40727236,-7.19237994,0,-4.909958506,-1.25358968,1,1,0,FF
AA55,1,2,299,2889,512.730135,32.93405268,-6.635538818,0,-4.924190227,-1.151947133,1,1,0,FF
AA55,1,2,300,2899,514.730135,34.46464166,-6.068404448,0,-4.937206978,-1.049799304,1,0,0,FF
AA55,1,2,301,2909,516.730135,35.99835055,-5.491998908,0,-4.949005546,-0.947190999,1,0,0,FF
AA55,1,2,302,2919,518.730135,37.53449084,-4.907358123,0,-4.959583022,-0.844167224,1,0,0,FF
AA55,1,2,303,2929,520.730135,39.07237461,-4.315530016,0,-4.968936795,-0.740773169,1,0,0,FF
AA55,1,2,304,2939,522.730135,40.61131478,-3.717572621,0,-4.977064557,-0.637054187,1,0,0,FF
AA55,1,2,305,2949,524.730135,42.15062545,-3.114552195,0,-4.983964303,-0.533055771,1,1,0,FF
AA55,1,2,306,2959,526.730135,43.68962219,-2.507541322,0,-4.98963433,-0.42882354,1,1,0,FF
AA55,1,2,307,2969,528.730135,45.22762237,-1.897616997,0,-4.99407324,-0.324403213,1,1,0,FF
AA55,1,2,308,2979,530.730135,46.76394543,-1.285858723,0,-4.997279937,-0.219840592,1,1,0,FF
AA55,1,2,309,2989,532.730135,48.2979132,-0.673346597,0,-4.99925363,-0.115181541,1,1,0,FF
AA55,1,2,310,2999,534.730135,49.82885019,-0.061159401,0,-4.999993831,-0.010471968,1,0,0,FF
AA55,1,2,311,3009,536.730135,51.35608391,0.549627293,0,-4.99950036,0.094242199,1,0,0,FF
AA55,1,2,312,3019,538.730135,52.87894513,1.157943014,0,-4.997773336,0.198915027,1,0,0,FF
AA55,1,2,313,3029,540.730135,54.39676819,1.762724273,0,-4.994813186,0.303500605,1,0,0,FF
AA55,1,2,314,3039,542.730135,55.90889131,2.362916416,0,-4.990620641,0.407953058,1,0,0,FF
AA55,1,2,315,3049,544.730135,57.41465684,2.957475465,0,-4.985196735,0.512226569,1,1,0,FF
AA55,1,2,316,3059,546.730135,58.9134116,3.545369937,0,-4.978542807,0.6162754,1,1,0,FF
AA55,1,2,317,3069,548.730135,60.40450708,4.125582627,0,-4.970660497,0.720053913,1,1,0,FF
AA55,1,2,318,3079,550.730135,61.88729982,4.697112375,0,-4.961551751,0.823516586,1,1,0,FF
AA55,1,2,319,3089,552.730135,63.36115161,5.258975787,0,-4.951218817,0.926618038,1,1,0,FF
AA55,1,2,320,3099,554.730135,64.8254298,5.81020893,0,-4.939664243,1.029313044,1,0,0,FF
AA55,1,2,321,3109,556.730135,66.27950756,6.349868982,0,-4.926890882,1.131556559,1,0,0,FF
AA55,1,2,322,3119,558.730135,67.72276417,6.877035846,0,-4.912901883,1.233303737,1,0,0,FF
AA55,1,2,323,3129,560.730135,69.15458524,7.390813718,0,-4.8977007,1.334509947,1,0,0,FF
AA55,1,2,324,3139,562.730135,70.57436303,7.890332604,0,-4.881291082,1.435130796,1,0,0,FF
AA55,1,2,325,3149,564.730135,71.98149665,8.374749794,0,-4.863677079,1.53512215,0,1,0,FF
AA55,1,2,326,3159,566.730135,73.37539235,8.843251281,0,-4.844863036,1.634440148,0,1,0,FF
AA55,1,2,327,3169,568.730135,74.75546376,9.295053127,0,-4.824853596,1.733041227,0,1,0,FF
AA55,1,2,328,3179,570.730135,76.12113214,9.72940277,0,-4.803653695,1.830882137,0,1,0,FF
AA55,1,2,329,3189,572.730135,77.47182662,10.14558027,0,-4.781268565,1.927919961,0,1,0,FF
AA55,1,2,330,3199,574.730135,78.80698442,10.54289952,0,-4.757703728,2.024112136,0,0,0,FF
AA55,1,2,331,3209,576.730135,80.12605114,10.92070933,0,-4.732964999,2.119416469,0,0,0,FF
AA55,1,2,332,3219,578.730135,81.4284809,11.27839454,0,-4.707058481,2.213791155,0,0,0,FF
AA55,1,2,333,3229,580.730135,82.71373665,11.61537696,0,-4.679990568,2.3071948,0,0,0,FF
AA55,1,2,334,3239,582.730135,83.98129034,11.93111636,0,-4.651767936,2.399586432,0,0,0,FF
AA55,1,2,335,3249,584.730135,85.23062317,12.22511128,0,-4.622397551,2.490925527,0,1,0,FF
AA55,1,2,336,3259,586.730135,86.46122576,12.49689983,0,-4.591886658,2.581172019,0,1,0,FF
AA55,1,2,337,3269,588.730135,87.6725984,12.74606041,0,-4.560242786,2.670286324,0,1,0,FF
AA55,1,2,338,3279,590.730135,88.86425121,12.97221238,0,-4.527473742,2.758229353,0,1,0,FF
AA55,1,2,339,3289,592.730135,90.03570438,13.17501655,0,-4.493587612,2.844962532,0,1,0,FF
AA55,1,2,340,3299,594.730135,91.18648833,13.35417578,0,-4.458592756,2.930447816,0,0,0,FF
AA55,1,2,341,3309,596.730135,92.31614389,13.5094353,0,-4.42249781,3.014647708,0,0,0,FF
AA55,1,2,342,3319,598.730135,93.42422254,13.64058312,0,-4.385311678,3.097525277,0,0,0,FF
AA55,1,2,343,3329,600.730135,94.51028649,13.74745027,0,-4.347043536,3.179044169,0,0,0,FF
AA55,1,2,344,3339,602.730135,95.57390895,13.82991098,0,-4.307702826,3.259168627,0,0,0,FF
AA55,1,2,345,3349,604.730135,96.61467423,13.88788282,0,-4.267299255,3.337863505,0,1,0,FF
AA55,1,2,346,3359,606.730135,97.63217791,13.92132671,0,-4.225842791,3.415094287,0,1,0,FF
AA55,1,2,347,3369,608.730135,98.62602703,13.93024687,0,-4.183343665,3.490827095,0,1,0,FF
AA55,1,2,348,3379,610.730135,99.5958402,13.91469076,0,-4.13981236,3.565028711,0,1,0,FF
AA55,1,2,349,3389,612.730135,100.5412477,13.87474882,0,-4.095259619,3.637666588,0,1,0,FF
AA55,1,2,350,3399,614.730135,101.4618919,13.81055422,0,-4.049696434,3.708708864,0,0,0,FF
AA55,1,2,351,3409,616.730135,102.3574268,13.72228254,0,-4.003134047,3.778124377,0,0,0,FF
AA55,1,2,352,3419,618.730135,103.2275188,13.61015134,0,-3.955583947,3.845882681,0,0,0,FF
AA55,1,2,353,3429,620.730135,104.0718465,13.47441963,0,-3.907057865,3.911954053,0,0,0,FF
AA55,1,2,354,3439,622.730135,104.8901008,13.31538737,0,-3.857567775,3.976309513,0,0,0,FF
AA55,1,2,355,3449,624.730135,105.681985,13.13339479,0,-3.807125888,4.038920832,0,1,0,FF
AA55,1,2,356,3459,626.730135,106.4472152,12.9288217,0,-3.75574465,4.099760547,0,1,0,FF
AA55,1,2,357,3469,628.730135,107.18552,12.70208671,0,-3.703436738,4.158801971,0,1,0,FF
AA55,1,2,358,3479,630.730135,107.8966407,12.45364643,0,-3.650215059,4.216019207,0,1,0,FF
AA55,1,2,359,3489,632.730135,108.5803315,12.18399449,0,-3.596092743,4.271387158,0,1,0,FF
AA55,1,2,360,3499,634.730135,109.2363597,11.89366064,0,-3.541083146,4.324881538,0,0,0,FF
AA55,1,2,361,3509,636.730135,109.8645054,11.5832097,0,-3.485199839,4.376478881,0,0,0,FF
AA55,1,2,362,3519,638.730135,110.4645616,11.25324046,0,-3.428456611,4.426156557,0,0,0,FF
AA55,1,2,363,3529,640.730135,111.0363349,10.90438455,0,-3.370867463,4.473892773,0,0,0,FF
AA55,1,2,364,3539,642.730135,111.5796446,10.53730522,0,-3.312446603,4.519666593,0,0,0,FF
AA55,1,2,365,3549,644.730135,112.0943235,10.15269612,0,-3.253208448,4.563457937,0,1,0,FF
AA55,1,2,366,3559,646.730135,112.5802176,9.751279957,0,-3.193167611,4.605247598,0,1,0,FF
AA55,1,2,367,3569,648.730135,113.0371861,9.333807174,0,-3.132338908,4.645017245,0,1,0,FF
AA55,1,2,368,3579,650.730135,113.4651017,8.901054534,0,-3.070737348,4.682749434,0,1,0,FF
AA55,1,2,369,3589,652.730135,113.8638503,8.453823688,0,-3.008378129,4.718427614,0,1,0,FF
AA55,1,2,370,3599,654.730135,114.2333313,7.99293969,0,-2.945276638,4.752036136,0,0,0,FF
AA55,1,2,371,3609,656.730135,114.5734574,7.51924948,0,-2.881448444,4.783560258,0,0,0,FF
AA55,1,2,372,3619,658.730135,114.8841548,7.033620333,0,-2.816909295,4.812986152,0,0,0,FF
AA55,1,2,373,3629,660.730135,115.1653629,6.536938269,0,-2.751675116,4.840300911,0,0,0,FF
AA55,1,2,374,3639,662.730135,115.4170346,6.030106444,0,-2.685762003,4.865492555,0,0,0,FF
AA55,1,2,375,3649,664.730135,115.6391363,5.514043506,0,-2.619186218,4.888550033,0,1,0,FF
AA55,1,2,376,3659,666.730135,115.8316474,4.989681934,0,-2.551964188,4.909463231,0,1,0,FF
AA55,1,2,377,3669,668.730135,115.9945611,4.457966354,0,-2.484112499,4.928222976,0,1,0,FF
AA55,1,2,378,3679,670.730135,116.1278834,3.919851836,0,-2.415647893,4.944821039,0,1,0,FF
AA55,1,2,379,3689,672.730135,116.2316339,3.376302184,0,-2.346587261,4.959250141,0,1,0,FF
AA55,1,2,380,3699,674.730135,116.3058453,2.828288207,0,-2.276947644,4.971503952,0,0,0,FF
AA55,1,2,381,3709,676.730135,116.3505635,2.276785986,0,-2.206746225,4.981577097,0,0,0,FF
AA55,1,2,382,3719,678.730135,116.3658475,1.722775136,0,-2.136000324,4.989465157,0,0,0,FF
AA55,1,2,383,3729,680.730135,116.3517694,1.16723707,0,-2.064727396,4.995164673,0,0,0,FF
AA55,1,2,384,3739,682.730135,116.308414,0.611153253,0,-1.992945028,4.998673145,0,0,0,FF
AA55,1,2,385,3749,684.730135,116.2358795,0.055503476,0,-1.920670931,4.999989034,0,1,0,FF
AA55,1,2,386,3759,686.730135,116.1342766,-0.498735877,0,-1.847922937,4.999111762,0,1,0,FF
AA55,1,2,387,3769,688.730135,116.0037288,-1.050593538,0,-1.774718996,4.996041714,0,1,0,FF
AA55,1,2,388,3779,690.730135,115.8443724,-1.599105065,0,-1.701077169,4.990780238,0,1,0,FF
AA55,1,2,389,3789,692.730135,115.656356,-2.143314518,0,-1.627015627,4.98332964,0,1,0,FF
AA55,1,2,390,3799,694.730135,115.4398411,-2.682276135,0,-1.552552643,4.973693189,0,0,0,FF
AA55,1,2,391,3809,696.730135,115.195001,-3.215055967,0,-1.47770659,4.961875112,0,0,0,FF
AA55,1,2,392,3819,698.730135,114.9220218,-3.740733501,0,-1.402495935,4.947880593,0,0,0,FF
AA55,1,2,393,3829,700.730135,114.6211015,-4.258403249,0,-1.326939235,4.93171577,0,0,0,FF
AA55,1,2,394,3839,702.730135,114.2924499,-4.767176306,0,-1.251055133,4.913387733,0,0,0,FF
AA55,1,2,395,3849,704.730135,113.9362892,-5.266181876,0,-1.174862352,4.892904522,0,1,0,FF
AA55,1,2,396,3859,706.730135,113.5528529,-5.754568765,0,-1.098379691,4.870275121,0,1,0,FF
AA55,1,2,397,3869,708.730135,113.1423863,-6.231506824,0,-1.021626021,4.845509456,0,1,0,FF
AA55,1,2,398,3879,710.730135,112.7051462,-6.696188368,0,-0.94462028,4.818618391,0,1,0,FF
AA55,1,2,399,3889,712.730135,112.2414008,-7.147829535,0,-0.867381468,4.789613721,0,1,0,FF
AA55,1,2,400,3899,714.730135,111.7514293,-7.585671609,0,-0.789928643,4.758508168,0,0,0,FF
AA55,1,2,401,3909,716.730135,111.235522,-8.008982292,0,-0.712280915,4.725315376,0,0,0,FF
AA55,1,2,402,3919,718.730135,110.6939802,-8.417056925,0,-0.634457442,4.690049904,0,0,0,FF
AA55,1,2,403,3929,720.730135,110.1271158,-8.809219658,0,-0.556477426,4.652727222,0,0,0,FF
AA55,1,2,404,3939,722.730135,109.5352511,-9.184824567,0,-0.478360108,4.613363699,0,0,0,FF
AA55,1,2,405,3949,724.730135,108.918719,-9.543256709,0,-0.400124762,4.571976603,0,1,0,FF
AA55,1,2,406,3959,726.730135,108.2778625,-9.88393313,0,-0.321790691,4.528584087,0,1,0,FF
AA55,1,2,407,3969,728.730135,107.6130345,-10.2063038,0,-0.243377222,4.483205184,0,1,0,FF
AA55,1,2,408,3979,730.730135,106.9245978,-10.5098525,0,-0.164903705,4.435859799,0,1,0,FF
AA55,1,2,409,3989,732.730135,106.2129249,-10.79409765,0,-0.086389499,4.386568699,0,1,0,FF
AA55,1,2,410,3999,734.730135,105.4783976,-11.05859303,0,-0.007853978,4.335353506,0,0,0,FF
AA55,1,2,411,4009,736.730135,104.7214069,-11.30292851,0,0.07068348,4.282236683,0,0,0,FF
AA55,1,2,412,4019,738.730135,103.9423529,-11.52673066,0,0.149203499,4.227241529,0,0,0,FF
AA55,1,2,413,4029,740.730135,103.1416447,-11.7296633,0,0.227686703,4.170392168,0,0,0,FF
AA55,1,2,414,4039,742.730135,102.3196997,-11.91142801,0,0.30611373,4.111713535,0,0,0,FF
AA55,1,2,415,4049,744.730135,101.4769438,-12.07176453,0,0.384465227,4.051231368,0,1,0,FF
AA55,1,2,416,4059,746.730135,100.6138113,-12.21045114,0,0.462721864,3.988972198,0,1,0,FF
AA55,1,2,417,4069,748.730135,99.73074419,-12.3273049,0,0.540864331,3.924963332,0,1,0,FF
AA55,1,2,418,4079,750.730135,98.82819231,-12.42218193,0,0.618873347,3.859232848,0,1,0,FF
AA55,1,2,419,4089,752.730135,97.90661306,-12.49497749,0,0.696729666,3.791809576,0,1,0,FF
AA55,1,2,420,4099,754.730135,96.96647111,-12.54562611,0,0.774414077,3.722723092,0,0,0,FF
AA55,1,2,421,4109,756.730135,96.00823816,-12.57410154,0,0.851907413,3.652003698,0,0,0,FF
AA55,1,2,422,4119,758.730135,95.0323928,-12.58041675,0,0.929190554,3.579682415,0,0,0,FF
AA55,1,2,423,4129,760.730135,94.03942017,-12.56462374,0,1.006244431,3.505790965,0,0,0,FF
AA55,1,2,424,4139,762.730135,93.02981179,-12.52681337,0,1.083050032,3.430361759,0,0,0,FF
AA55,1,2,425,4149,764.730135,92.00406529,-12.46711509,0,1.159588407,3.353427883,0,1,0,FF
AA55,1,2,426,4159,766.730135,90.96268417,-12.38569658,0,1.235840671,3.275023082,0,1,0,FF
AA55,1,2,427,4169,768.730135,89.90617758,-12.28276337,0,1.311788009,3.195181749,0,1,0,FF
AA55,1,2,428,4179,770.730135,88.83506003,-12.15855834,0,1.387411683,3.113938902,0,1,0,FF
AA55,1,2,429,4189,772.730135,87.74985119,-12.01336122,0,1.462693035,3.03133018,0,1,0,FF
AA55,1,2,430,4199,774.730135,86.65107561,-11.84748799,0,1.537613488,2.947391816,0,0,0,FF
AA55,1,2,431,4209,776.730135,85.53926246,-11.66129016,0,1.612154559,2.862160628,0,0,0,FF
AA55,1,2,432,4219,778.730135,84.41494531,-11.45515412,0,1.686297854,2.775674002,0,0,0,FF
AA55,1,2,433,4229,780.730135,83.27866186,-11.22950032,0,1.760025081,2.687969874,0,0,0,FF
AA55,1,2,434,4239,782.730135,82.13095368,-10.98478243,0,1.833318048,2.599086713,0,0,0,FF
AA55,1,2,435,4249,784.730135,80.97236593,-10.72148647,0,1.906158671,2.509063507,0,1,0,FF
AA55,1,2,436,4259,786.730135,79.80344718,-10.4401298,0,1.978528978,2.417939743,0,1,0,FF
AA55,1,2,437,4269,788.730135,78.62474907,-10.14126018,0,2.050411113,2.32575539,0,1,0,FF
AA55,1,2,438,4279,790.730135,77.43682607,-9.825454681,0,2.121787339,2.232550885,0,1,0,FF
AA55,1,2,439,4289,792.730135,76.24023527,-9.493318575,0,2.192640046,2.138367108,0,1,0,FF
AA55,1,2,440,4299,794.730135,75.03553604,-9.145484203,0,2.262951752,2.043245374,0,0,0,FF
AA55,1,2,441,4309,796.730135,73.82328985,-8.782609762,0,2.332705109,1.947227404,0,0,0,FF
AA55,1,2,442,4319,798.730135,72.60405994,-8.405378078,0,2.401882905,1.850355316,0,0,0,FF
AA55,1,2,443,4329,800.730135,71.37841112,-8.014495317,0,2.470468073,1.752671601,0,0,0,FF
AA55,1,2,444,4339,802.730135,70.14690944,-7.610689676,0,2.538443689,1.654219106,0,0,0,FF
AA55,1,2,445,4349,804.730135,68.91012201,-7.194710027,0,2.605792983,1.555041016,0,1,0,FF
AA55,1,2,446,4359,806.730135,67.66861667,-6.767324532,0,2.672499336,1.455180834,0,1,0,FF
AA55,1,2,447,4369,808.730135,66.42296177,-6.329319231,0,2.73854629,1.354682361,0,1,0,FF
AA55,1,2,448,4379,810.730135,65.1737259,-5.881496598,0,2.803917549,1.25358968,0,1,0,FF
AA55,1,2,449,4389,812.730135,63.92147761,-5.42467407,0,2.868596983,1.151947133,0,1,0,FF
AA55,1,2,450,4399,814.730135,62.66678519,-4.959682564,0,2.932568634,1.049799304,0,0,0,FF
AA55,1,2,451,4409,816.730135,61.41021638,-4.487364961,0,2.995816717,0.947190999,0,0,0,FF
AA55,1,2,452,4419,818.730135,60.15233815,-4.008574584,0,3.058325627,0.844167224,0,0,0,FF
AA55,1,2,453,4429,820.730135,58.89371639,-3.524173656,0,3.120079941,0.740773169,0,0,0,FF
AA55,1,2,454,4439,822.730135,57.6349157,-3.035031748,0,3.181064422,0.637054187,0,0,0,FF
AA55,1,2,455,4449,824.730135,56.37649912,-2.542024218,0,3.241264023,0.533055771,0,1,0,FF
AA55,1,2,456,4459,826.730135,55.11902789,-2.046030649,0,3.300663891,0.42882354,0,1,0,FF
AA55,1,2,457,4469,828.730135,53.86306118,-1.547933275,0,3.359249369,0.324403213,0,1,0,FF
AA55,1,2,458,4479,830.730135,52.60915586,-1.048615417,0,3.417006003,0.219840592,0,1,0,FF
AA55,1,2,459,4489,832.730135,51.35786624,-0.54895991,0,3.473919542,0.115181541,0,1,0,FF
AA55,1,2,460,4499,834.730135,50.10974382,-0.049847551,0,3.529975943,0.010471968,0,0,0,FF
AA55,1,2,461,4509,836.730135,48.86533709,0.447844461,0,3.585161375,-0.094242199,0,0,0,FF
AA55,1,2,462,4519,838.730135,47.62519123,0.943244062,0,3.639462222,-0.198915027,0,0,0,FF
AA55,1,2,463,4529,840.730135,46.3898479,1.435485856,0,3.692865087,-0.303500605,0,0,0,FF
AA55,1,2,464,4539,842.730135,45.15984501,1.923712621,0,3.745356792,-0.407953058,0,0,0,FF
AA55,1,2,465,4549,844.730135,43.93571646,2.407076805,0,3.796924386,-0.512226569,0,1,0,FF
AA55,1,2,466,4559,846.730135,42.71799195,2.884741998,0,3.847555147,-0.6162754,0,1,0,FF
AA55,1,2,467,4569,848.730135,41.50719671,3.355884376,0,3.89723658,-0.720053913,0,1,0,FF
AA55,1,2,468,4579,850.730135,40.30385128,3.819694123,0,3.945956429,-0.823516586,0,1,0,FF
AA55,1,2,469,4589,852.730135,39.10847132,4.275376825,0,3.993702672,-0.926618038,0,1,0,FF
AA55,1,2,470,4599,854.730135,37.92156735,4.722154823,0,4.040463529,-1.029313044,0,0,0,FF
AA55,1,2,471,4609,856.730135,36.74364455,5.159268548,0,4.086227462,-1.131556559,0,0,0,FF
AA55,1,2,472,4619,858.730135,35.57520253,5.585977802,0,4.130983179,-1.233303737,0,0,0,FF
AA55,1,2,473,4629,860.730135,34.41673516,6.001563019,0,4.174719638,-1.334509947,0,0,0,FF
AA55,1,2,474,4639,862.730135,33.26873031,6.405326467,0,4.217426047,-1.435130796,0,0,0,FF
AA55,1,2,475,4649,864.730135,32.13166966,6.796593425,0,4.25909187,-1.53512215,0,1,0,FF
AA55,1,2,476,4659,866.730135,31.00602852,7.174713304,0,4.299706825,-1.634440148,0,1,0,FF
AA55,1,2,477,4669,868.730135,29.89227563,7.539060723,0,4.339260892,-1.733041227,0,1,0,FF
AA55,1,2,478,4679,870.730135,28.79087291,7.889036546,0,4.377744312,-1.830882137,0,1,0,FF
AA55,1,2,479,4689,872.730135,27.70227536,8.224068859,0,4.415147588,-1.927919961,0,1,0,FF
AA55,1,2,480,4699,874.730135,26.62693079,8.543613897,0,4.451461493,-2.024112136,0,0,0,FF
AA55,1,2,481,4709,876.730135,25.56527968,8.847156928,0,4.486677067,-2.119416469,0,0,0,FF
AA55,1,2,482,4719,878.730135,24.51775501,9.134213066,0,4.52078562,-2.213791155,0,0,0,FF
AA55,1,2,483,4729,880.730135,23.48478203,9.404328047,0,4.553778736,-2.3071948,0,0,0,FF
AA55,1,2,484,4739,882.730135,22.46677816,9.657078935,0,4.585648276,-2.399586432,0,0,0,FF
AA55,1,2,485,4749,884.730135,21.46415276,9.892074774,0,4.616386376,-2.490925527,0,1,0,FF
AA55,1,2,486,4759,886.730135,20.47730701,10.10895718,0,4.645985452,-2.581172019,0,1,0,FF
AA55,1,2,487,4769,888.730135,19.50663373,10.3074009,0,4.6744382,-2.670286324,0,1,0,FF
AA55,1,2,488,4779,890.730135,18.55251723,10.48711422,0,4.701737601,-2.758229353,0,1,0,FF
AA55,1,2,489,4789,892.730135,17.61533315,10.64783947,0,4.727876918,-2.844962532,0,1,0,FF
AA55,1,2,490,4799,894.730135,16.69544834,10.78935329,0,4.752849702,-2.930447816,0,0,0,FF
AA55,1,2,491,4809,896.730135,15.7932207,10.91146697,0,4.776649792,-3.014647708,0,0,0,FF
AA55,1,2,492,4819,898.730135,14.90899902,11.01402668,0,4.799271315,-3.097525277,0,0,0,FF
AA55,1,2,493,4829,900.730135,14.04312291,11.09691359,0,4.820708689,-3.179044169,0,0,0,FF
AA55,1,2,494,4839,902.730135,13.19592261,11.160044,0,4.840956626,-3.259168627,0,0,0,FF
AA55,1,2,495,4849,904.730135,12.36771889,11.20336939,0,4.860010129,-3.337863505,0,1,0,FF
AA55,1,2,496,4859,906.730135,11.55882295,11.22687638,0,4.877864497,-3.415094287,0,1,0,FF
AA55,1,2,497,4869,908.730135,10.76953628,11.23058663,0,4.894515326,-3.490827095,0,1,0,FF
AA55,1,2,498,4879,910.730135,10.00015056,11.21455672,0,4.909958506,-3.565028711,0,1,0,FF
AA55,1,2,499,4889,912.730135,9.250947563,11.17887793,0,4.924190227,-3.637666588,0,1,0,FF
AA55,1,2,500,4899,914.730135,8.522199039,11.12367597,0,4.937206978,-3.708708864,0,0,0,FF
AA55,1,2,501,4909,916.730135,7.814166641,11.04911062,0,4.949005546,-3.778124377,0,0,0,FF
AA55,1,2,502,4919,918.730135,7.127101821,10.95537539,0,4.959583022,-3.845882681,0,0,0,FF
AA55,1,2,503,4929,920.730135,6.461245752,10.84269705,0,4.968936795,-3.911954053,0,0,0,FF
AA55,1,2,504,4939,922.730135,5.81682925,10.71133508,0,4.977064557,-3.976309513,0,0,0,FF
AA55,1,2,505,4949,924.730135,5.194072691,10.56158119,0,4.983964303,-4.038920832,0,1,0,FF
AA55,1,2,506,4959,926.730135,4.593185954,10.39375862,0,4.98963433,-4.099760547,0,1,0,FF
AA55,1,2,507,4969,928.730135,4.014368346,10.20822152,0,4.99407324,-4.158801971,0,1,0,FF
AA55,1,2,508,4979,930.730135,3.457808549,10.00535421,0,4.997279937,-4.216019207,0,1,0,FF
AA55,1,2,509,4989,932.730135,2.923684562,9.785570379,0,4.99925363,-4.271387158,0,1,0,FF
AA55,1,2,510,4999,934.730135,2.412163657,9.549312292,0,4.999993831,-4.324881538,0,0,0,FF
AA55,1,2,511,5009,936.730135,1.923402328,9.297049895,0,4.99950036,-4.376478881,0,0,0,FF
AA55,1,2,512,5019,938.730135,1.45754626,9.029279898,0,4.997773336,-4.426156557,0,0,0,FF
AA55,1,2,513,5029,940.730135,1.014730288,8.746524811,0,4.994813186,-4.473892773,0,0,0,FF
AA55,1,2,514,5039,942.730135,0.595078373,8.449331928,0,4.990620641,-4.519666593,0,0,0,FF
AA55,1,2,515,5049,944.730135,0.198703577,8.138272286,0,4.985196735,-4.563457937,0,1,0,FF
AA55,1,2,516,5059,946.730135,-0.174291956,7.813939568,0,4.978542807,-4.605247598,0,1,0,FF
AA55,1,2,517,5069,948.730135,-0.523817011,7.476948983,0,4.970660497,-4.645017245,0,1,0,FF
AA55,1,2,518,5079,950.730135,-0.849791314,7.127936101,0,4.961551751,-4.682749434,0,1,0,FF
AA55,1,2,519,5089,952.730135,-1.152145533,6.767555665,0,4.951218817,-4.718427614,0,1,0,FF
AA55,1,2,520,5099,954.730135,-1.430821275,6.396480364,0,4.939664243,-4.752036136,0,0,0,FF
AA55,1,2,521,5109,956.730135,-1.685771081,6.015399584,0,4.926890882,-4.783560258,0,0,0,FF
AA55,1,2,522,5119,958.730135,-1.916958413,5.62501813,0,4.912901883,-4.812986152,0,0,0,FF
AA55,1,2,523,5129,960.730135,-2.124357639,5.226054926,0,4.8977007,-4.840300911,0,0,0,FF
AA55,1,2,524,5139,962.730135,-2.307954006,4.819241696,0,4.881291082,-4.865492555,0,0,0,FF
AA55,1,2,525,5149,964.730135,-2.46774362,4.405321621,0,4.863677079,-4.888550033,0,1,0,FF
AA55,1,2,526,5159,966.730135,-2.603733409,3.985047988,0,4.844863036,-4.909463231,0,1,0,FF
AA55,1,2,527,5169,968.730135,-2.715941085,3.559182815,0,4.824853596,-4.928222976,0,1,0,FF
AA55,1,2,528,5179,970.730135,-2.80439511,3.128495476,0,4.803653695,-4.944821039,0,1,0,FF
AA55,1,2,529,5189,972.730135,-2.869134641,2.693761311,0,4.781268565,-4.959250141,0,1,0,FF
AA55,1,2,530,5199,974.730135,-2.910209481,2.25576023,0,4.757703728,-4.971503952,0,0,0,FF
AA55,1,2,531,5209,976.730135,-2.927680027,1.815275313,0,4.732964999,-4.981577097,0,0,0,FF
AA55,1,2,532,5219,978.730135,-2.921617204,1.373091415,0,4.707058481,-4.989465157,0,0,0,FF
AA55,1,2,533,5229,980.730135,-2.892102403,0.929993763,0,4.679990568,-4.995164673,0,0,0,FF
AA55,1,2,534,5239,982.730135,-2.839227405,0.486766567,0,4.651767936,-4.998673145,0,0,0,FF
AA55,1,2,535,5249,984.730135,-2.763094316,0.044191626,0,4.622397551,-4.999989034,0,1,0,FF
AA55,1,2,536,5259,986.730135,-2.663815478,-0.396953045,0,4.591886658,-4.999111762,0,1,0,FF
AA55,1,2,537,5269,988.730135,-2.541513389,-0.835894586,0,4.560242786,-4.996041714,0,1,0,FF
AA55,1,2,538,5279,990.730135,-2.396320617,-1.271866648,0,4.527473742,-4.990780238,0,1,0,FF
AA55,1,2,539,5289,992.730135,-2.228379703,-1.704110724,0,4.493587612,-4.98332964,0,1,0,FF
AA55,1,2,540,5299,994.730135,-2.037843065,-2.131877475,0,4.458592756,-4.973693189,0,0,0,FF
AA55,1,2,541,5309,996.730135,-1.824872899,-2.554428029,0,4.42249781,-4.961875112,0,0,0,FF
AA55,1,2,542,5319,998.730135,-1.589641072,-2.97103525,0,4.385311678,-4.947880593,0,0,0,FF
AA55,1,2,543,5329,1000.730135,-1.33232901,-3.380984997,0,4.347043536,-4.93171577,0,0,0,FF
AA55,1,2,544,5339,1002.730135,-1.053127587,-3.783577343,0,4.307702826,-4.913387733,0,0,0,FF
AA55,1,2,545,5349,1004.730135,-0.752237005,-4.17812777,0,4.267299255,-4.892904522,0,1,0,FF
AA55,1,2,546,5359,1006.730135,-0.429866676,-4.563968331,0,4.225842791,-4.870275121,0,1,0,FF
AA55,1,2,547,5369,1008.730135,-0.086235089,-4.940448781,0,4.183343665,-4.845509456,0,1,0,FF
AA55,1,2,548,5379,1010.730135,0.278430312,-5.30693767,0,4.13981236,-4.818618391,0,1,0,FF
AA55,1,2,549,5389,1012.730135,0.663893267,-5.662823399,0,4.095259619,-4.789613721,0,1,0,FF
AA55,1,2,550,5399,1014.730135,1.069908832,-6.007515241,0,4.049696434,-4.758508168,0,0,0,FF
AA55,1,2,551,5409,1016.730135,1.496223526,-6.340444315,0,4.003134047,-4.725315376,0,0,0,FF
AA55,1,2,552,5419,1018.730135,1.94257547,-6.661064521,0,3.955583947,-4.690049904,0,0,0,FF
AA55,1,2,553,5429,1020.730135,2.408694536,-6.968853434,0,3.907057865,-4.652727222,0,0,0,FF
AA55,1,2,554,5439,1022.730135,2.894302502,-7.263313151,0,3.857567775,-4.613363699,0,0,0,FF
AA55,1,2,555,5449,1024.730135,3.399113199,-7.543971086,0,3.807125888,-4.571976603,0,1,0,FF
AA55,1,2,556,5459,1026.730135,3.922832675,-7.810380725,0,3.75574465,-4.528584087,0,1,0,FF
AA55,1,2,557,5469,1028.730135,4.465159353,-8.06212233,0,3.703436738,-4.483205184,0,1,0,FF
AA55,1,2,558,5479,1030.730135,5.025784196,-8.29880359,0,3.650215059,-4.435859799,0,1,0,FF
AA55,1,2,559,5489,1032.730135,5.604390871,-8.520060222,0,3.596092743,-4.386568699,0,1,0,FF
AA55,1,2,560,5499,1034.730135,6.200655923,-8.725556523,0,3.541083146,-4.335353506,0,0,0,FF
AA55,1,2,561,5509,1036.730135,6.814248944,-8.914985864,0,3.485199839,-4.282236683,0,0,0,FF
AA55,1,2,562,5519,1038.730135,7.444832749,-9.088071137,0,3.428456611,-4.227241529,0,0,0,FF
AA55,1,2,563,5529,1040.730135,8.092063556,-9.244565142,0,3.370867463,-4.170392168,0,0,0,FF
AA55,1,2,564,5539,1042.730135,8.755591161,-9.384250922,0,3.312446603,-4.111713535,0,0,0,FF
AA55,1,2,565,5549,1044.730135,9.435059127,-9.50694204,0,3.253208448,-4.051231368,0,1,0,FF
AA55,1,2,566,5559,1046.730135,10.13010496,-9.612482811,0,3.193167611,-3.988972198,0,1,0,FF
AA55,1,2,567,5569,1048.730135,10.84036032,-9.70074846,0,3.132338908,-3.924963332,0,1,0,FF
AA55,1,2,568,5579,1050.730135,11.56545117,-9.771645245,0,3.070737348,-3.859232848,0,1,0,FF
AA55,1,2,569,5589,1052.730135,12.304998,-9.825110507,0,3.008378129,-3.791809576,0,1,0,FF
AA55,1,2,570,5599,1054.730135,13.05861601,-9.861112674,0,2.945276638,-3.722723092,0,0,0,FF
AA55,1,2,571,5609,1056.730135,13.82591531,-9.87965121,0,2.881448444,-3.652003698,0,0,0,FF
AA55,1,2,572,5619,1058.730135,14.60650111,-9.880756502,0,2.816909295,-3.579682415,0,0,0,FF
AA55,1,2,573,5629,1060.730135,15.39997392,-9.864489698,0,2.751675116,-3.505790965,0,0,0,FF
AA55,1,2,574,5639,1062.730135,16.20592975,-9.83094249,0,2.685762003,-3.430361759,0,0,0,FF
AA55,1,2,575,5649,1064.730135,17.02396032,-9.78023684,0,2.619186218,-3.353427883,0,1,0,FF
AA55,1,2,576,5659,1066.730135,17.85365326,-9.712524657,0,2.551964188,-3.275023082,0,1,0,FF
AA55,1,2,577,5669,1068.730135,18.69459229,-9.627987422,0,2.484112499,-3.195181749,0,1,0,FF
AA55,1,2,578,5679,1070.730135,19.54635748,-9.526835753,0,2.415647893,-3.113938902,0,1,0,FF
AA55,1,2,579,5689,1072.730135,20.40852539,-9.409308936,0,2.346587261,-3.03133018,0,1,0,FF
AA55,1,2,580,5699,1074.730135,21.28066933,-9.275674386,0,2.276947644,-2.947391816,0,0,0,FF
AA55,1,2,581,5709,1076.730135,22.16235954,-9.12622708,0,2.206746225,-2.862160628,0,0,0,FF
AA55,1,2,582,5719,1078.730135,23.05316343,-8.961288926,0,2.136000324,-2.775674002,0,0,0,FF
AA55,1,2,583,5729,1080.730135,23.95264574,-8.781208099,0,2.064727396,-2.687969874,0,0,0,FF
AA55,1,2,584,5739,1082.730135,24.8603688,-8.586358322,0,1.992945028,-2.599086713,0,0,0,FF
AA55,1,2,585,5749,1084.730135,25.7758927,-8.377138115,0,1.920670931,-2.509063507,0,1,0,FF
AA55,1,2,586,5759,1086.730135,26.69877554,-8.15396999,0,1.847922937,-2.417939743,0,1,0,FF
AA55,1,2,587,5769,1088.730135,27.62857362,-7.917299615,0,1.774718996,-2.32575539,0,1,0,FF
AA55,1,2,588,5779,1090.730135,28.56484163,-7.667594941,0,1.701077169,-2.232550885,0,1,0,FF
AA55,1,2,589,5789,1092.730135,29.50713292,-7.405345282,0,1.627015627,-2.138367108,0,1,0,FF
AA55,1,2,590,5799,1094.730135,30.45499967,-7.131060369,0,1.552552643,-2.043245374,0,0,0,FF
AA55,1,2,591,5809,1096.730135,31.40799308,-6.845269374,0,1.47770659,-1.947227404,0,0,0,FF
AA55,1,2,592,5819,1098.730135,32.36566366,-6.548519887,0,1.402495935,-1.850355316,0,0,0,FF
AA55,1,2,593,5829,1100.730135,33.32756134,-6.241376884,0,1.326939235,-1.752671601,0,0,0,FF
AA55,1,2,594,5839,1102.730135,34.29323577,-5.924421653,0,1.251055133,-1.654219106,0,0,0,FF
AA55,1,2,595,5849,1104.730135,35.26223648,-5.598250701,0,1.174862352,-1.555041016,0,1,0,FF
AA55,1,2,596,5859,1106.730135,36.2341131,-5.263474636,0,1.098379691,-1.455180834,0,1,0,FF
AA55,1,2,597,5869,1108.730135,37.20841557,-4.920717028,0,1.021626021,-1.354682361,0,1,0,FF
AA55,1,2,598,5879,1110.730135,38.18469434,-4.570613255,0,0.94462028,-1.25358968,0,1,0,FF
AA55,1,2,599,5889,1112.730135,39.16250061,-4.213809322,0,0.867381468,-1.151947133,0,1,0,FF
AA55,1,2,600,5899,1114.730135,40.14138649,-3.850960679,0,0.789928643,-1.049799304,0,0,0,FF
AA55,1,2,601,5909,1116.730135,41.12090523,-3.482731015,0,0.712280915,-0.947190999,0,0,0,FF
AA55,1,2,602,5919,1118.730135,42.10061141,-3.109791045,0,0.634457442,-0.844167224,0,0,0,FF
AA55,1,2,603,5929,1120.730135,43.08006118,-2.732817296,0,0.556477426,-0.740773169,0,0,0,FF
AA55,1,2,604,5939,1122.730135,44.05881241,-2.352490875,0,0.478360108,-0.637054187,0,0,0,FF
AA55,1,2,605,5949,1124.730135,45.03642492,-1.969496241,0,0.400124762,-0.533055771,0,1,0,FF
AA55,1,2,606,5959,1126.730135,46.01246065,-1.584519976,0,0.321790691,-0.42882354,0,1,0,FF
AA55,1,2,607,5969,1128.730135,46.98648391,-1.198249554,0,0.243377222,-0.324403213,0,1,0,FF
AA55,1,2,608,5979,1130.730135,47.95806151,-0.81137211,0,0.164903705,-0.219840592,0,1,0,FF
AA55,1,2,609,5989,1132.730135,48.926763,-0.424573224,0,0.086389499,-0.115181541,0,1,0,FF
AA55,1,2,610,5999,1134.730135,49.89216085,-0.038535701,0,0.007853978,-0.010471968,0,0,0,FF
AA55,1,2,611,6009,1136.730135,50.85383061,0.346061629,0,-0.07068348,0.094242199,0,0,0,FF
AA55,1,2,612,6019,1138.730135,51.81135114,0.72854511,0,-0.149203499,0.198915027,0,0,0,FF
AA55,1,2,613,6029,1140.730135,52.76430475,1.108247439,0,-0.227686703,0.303500605,0,0,0,FF
AA55,1,2,614,6039,1142.730135,53.71227744,1.484508826,0,-0.30611373,0.407953058,0,0,0,FF
AA55,1,2,615,6049,1144.730135,54.65485901,1.856678146,0,-0.384465227,0.512226569,0,1,0,FF
AA55,1,2,616,6059,1146.730135,55.5916433,2.22411406,0,-0.462721864,0.6162754,0,1,0,FF
AA55,1,2,617,6069,1148.730135,56.52222832,2.586186124,0,-0.540864331,0.720053913,0,1,0,FF
AA55,1,2,618,6079,1150.730135,57.44621645,2.942275871,0,-0.618873347,0.823516586,0,1,0,FF
AA55,1,2,619,6089,1152.730135,58.3632146,3.291777862,0,-0.696729666,0.926618038,0,1,0,FF
AA55,1,2,620,6099,1154.730135,59.27283437,3.634100716,0,-0.774414077,1.029313044,0,0,0,FF
AA55,1,2,621,6109,1156.730135,60.17469223,3.968668114,0,-0.851907413,1.131556559,0,0,0,FF
AA55,1,2,622,6119,1158.730135,61.06840966,4.294919759,0,-0.929190554,1.233303737,0,0,0,FF
AA55,1,2,623,6129,1160.730135,61.95361335,4.61231232,0,-1.006244431,1.334509947,0,0,0,FF
AA55,1,2,624,6139,1162.730135,62.82993529,4.920320331,0,-1.083050032,1.435130796,0,0,0,FF
AA55,1,2,625,6149,1164.730135,63.69701299,5.218437057,0,-1.159588407,1.53512215,0,1,0,FF
AA55,1,2,626,6159,1166.730135,64.55448957,5.506175326,0,-1.235840671,1.634440148,0,1,0,FF
AA55,1,2,627,6169,1168.730135,65.40201398,5.783068318,0,-1.311788009,1.733041227,0,1,0,FF
AA55,1,2,628,6179,1170.730135,66.23924104,6.048670322,0,-1.387411683,1.830882137,0,1,0,FF
AA55,1,2,629,6189,1172.730135,67.06583169,6.302557443,0,-1.462693035,1.927919961,0,1,0,FF
AA55,1,2,630,6199,1174.730135,67.88145304,6.544328274,0,-1.537613488,2.024112136,0,0,0,FF
AA55,1,2,631,6209,1176.730135,68.68577855,6.773604523,0,-1.612154559,2.119416469,0,0,0,FF
AA55,1,2,632,6219,1178.730135,69.47848816,6.990031595,0,-1.686297854,2.213791155,0,0,0,FF
AA55,1,2,633,6229,1180.730135,70.25926838,7.193279133,0,-1.760025081,2.3071948,0,0,0,FF
AA55,1,2,634,6239,1182.730135,71.02781245,7.383041509,0,-1.833318048,2.399586432,0,0,0,FF
AA55,1,2,635,6249,1184.730135,71.78382043,7.559038271,0,-1.906158671,2.490925527,0,1,0,FF
AA55,1,2,636,6259,1186.730135,72.52699936,7.721014543,0,-1.978528978,2.581172019,0,1,0,FF
AA55,1,2,637,6269,1188.730135,73.2570633,7.868741378,0,-2.050411113,2.670286324,0,1,0,FF
AA55,1,2,638,6279,1190.730135,73.97373351,8.002016064,0,-2.121787339,2.758229353,0,1,0,FF
AA55,1,2,639,6289,1192.730135,74.67673851,8.120662377,0,-2.192640046,2.844962532,0,1,0,FF
AA55,1,2,640,6299,1194.730135,75.36581419,8.224530794,0,-2.262951752,2.930447816,0,0,0,FF
AA55,1,2,641,6309,1196.730135,76.04070393,8.313498647,0,-2.332705109,3.014647708,0,0,0,FF
AA55,1,2,642,6319,1198.730135,76.70115866,8.387470239,0,-2.401882905,3.097525277,0,0,0,FF
AA55,1,2,643,6329,1200.730135,77.34693695,8.446376903,0,-2.470468073,3.179044169,0,0,0,FF
AA55,1,2,644,6339,1202.730135,77.97780511,8.490177014,0,-2.538443689,3.259168627,0,0,0,FF
AA55,1,2,645,6349,1204.730135,78.59353728,8.518855958,0,-2.605792983,3.337863505,0,0,0,FF
AA55,1,2,646,6359,1206.730135,79.1939155,8.532426045,0,-2.672499336,3.415094287,0,1,0,FF
AA55,1,2,647,6369,1208.730135,79.77872973,8.530926379,0,-2.73854629,3.490827095,0,1,0,FF
AA55,1,2,648,6379,1210.730135,80.34777802,8.514422678,0,-2.803917549,3.565028711,0,1,0,FF
AA55,1,2,649,6389,1212.730135,80.90086649,8.483007048,0,-2.868596983,3.637666588,0,1,0,FF
AA55,1,2,650,6399,1214.730135,81.43780943,8.436797714,0,-2.932568634,3.708708864,0,1,0,FF
AA55,1,2,651,6409,1216.730135,81.95842933,8.375938695,0,-2.995816717,3.778124377,0,0,0,FF
AA55,1,2,652,6419,1218.730135,82.46255698,8.30059945,0,-3.058325627,3.845882681,0,0,0,FF
AA55,1,2,653,6429,1220.730135,82.95003145,8.210974462,0,-3.120079941,3.911954053,0,0,0,FF
AA55,1,2,654,6439,1222.730135,83.4207002,8.107282791,0,-3.181064422,3.976309513,0,0,0,FF
AA55,1,2,655,6449,1224.730135,83.87441908,7.989767586,0,-3.241264023,4.038920832,0,0,0,FF
AA55,1,2,656,6459,1226.730135,84.31105238,7.858695541,0,-3.300663891,4.099760547,0,1,0,FF
AA55,1,2,657,6469,1228.730135,84.73047285,7.714356329,0,-3.359249369,4.158801971,0,1,0,FF
AA55,1,2,658,6479,1230.730135,85.13256176,7.557061988,0,-3.417006003,4.216019207,0,1,0,FF
AA55,1,2,659,6489,1232.730135,85.51720888,7.387146266,0,-3.473919542,4.271387158,0,1,0,FF
AA55,1,2,660,6499,1234.730135,85.88431252,7.204963938,0,-3.529975943,4.324881538,0,1,0,FF
AA55,1,2,661,6509,1236.730135,86.23377956,7.010890085,0,-3.585161375,4.376478881,0,0,0,FF
AA55,1,2,662,6519,1238.730135,86.56552542,6.805319332,0,-3.639462222,4.426156557,0,0,0,FF
AA55,1,2,663,6529,1240.730135,86.87947412,6.588665071,0,-3.692865087,4.473892773,0,0,0,FF
AA55,1,2,664,6539,1242.730135,87.17555825,6.361358635,0,-3.745356792,4.519666593,0,0,0,FF
AA55,1,2,665,6549,1244.730135,87.45371895,6.123848453,0,-3.796924386,4.563457937,0,0,0,FF
AA55,1,2,666,6559,1246.730135,87.71390597,5.876599179,0,-3.847555147,4.605247598,0,1,0,FF
AA55,1,2,667,6569,1248.730135,87.95607758,5.620090791,0,-3.89723658,4.645017245,0,1,0,FF
AA55,1,2,668,6579,1250.730135,88.18020062,5.354817668,0,-3.945956429,4.682749434,0,1,0,FF
AA55,1,2,669,6589,1252.730135,88.38625046,5.081287642,0,-3.993702672,4.718427614,0,1,0,FF
AA55,1,2,670,6599,1254.730135,88.57421095,4.800021039,0,-4.040463529,4.752036136,0,1,0,FF
AA55,1,2,671,6609,1256.730135,88.74407446,4.511549688,0,-4.086227462,4.783560258,0,0,0,FF
AA55,1,2,672,6619,1258.730135,88.89584179,4.216415927,0,-4.130983179,4.812986152,0,0,0,FF
AA55,1,2,673,6629,1260.730135,89.02952216,3.915171583,0,-4.174719638,4.840300911,0,0,0,FF
AA55,1,2,674,6639,1262.730135,89.14513317,3.608376948,0,-4.217426047,4.865492555,0,0,0,FF
