#Header,Sender ID,Target ID,MSG Counter,Time, Object X,Object Y,Object Z,Object Roll,Object Pitch,Object Yaw,Smoke,Object Model,spare,CheckSum
AA55,1,2,11,0,39.733729,5.922973,11.985687,0.909467,-57.40451,5.311613,1,0,0,FF
AA55,1,2,12,0.001,39.725045,5.947299,12.06498025,0.893086,-57.567407,5.357078,1,1,0,FF
AA55,1,2,13,0.005,39.716174,5.971514,12.1445235,0.877536,-57.729751,5.401987,1,1,0,FF
AA55,1,2,14,0.0075,39.707113,5.995617,12.224317,0.862772,-57.891566,5.446365,1,1,0,FF
AA55,1,2,15,0.01,39.697862,6.019607,12.30436025,0.848788,-58.052587,5.490212,1,1,0,FF
AA55,1,2,16,0.0125,39.688418,6.043486,12.3846535,0.835528,-58.213166,5.533555,1,1,0,FF
AA55,1,2,17,0.015,39.67878,6.067251,12.46519625,0.822988,-58.373155,5.576398,1,0,0,FF
AA55,1,2,18,0.0175,39.668948,6.090903,12.5459885,0.811174,-58.532203,5.618743,1,0,0,FF
AA55,1,2,19,0.02,39.658918,6.114441,12.62703,0.800022,-58.690519,5.660638,1,0,0,FF
AA55,1,2,20,0.0225,39.64869,6.137866,12.7083205,0.789499,-58.847938,5.702103,1,0,0,FF
AA55,1,2,21,0.025,39.638263,6.161177,12.78985975,0.779592,-59.004392,5.74314,1,0,0,FF
AA55,1,2,22,0.0275,39.627635,6.184374,12.871648,0.770258,-59.160201,5.783767,1,1,0,FF
AA55,1,2,23,0.03,39.616806,6.207457,12.95368475,0.761453,-59.315614,5.824014,1,1,0,FF
AA55,1,2,24,0.0325,39.605773,6.230426,13.03597,0.753151,-59.470503,5.863902,1,1,0,FF
AA55,1,2,25,0.035,39.594536,6.253282,13.1185035,0.745316,-59.624883,5.903452,1,1,0,FF
AA55,1,2,26,0.0375,39.583093,6.276023,13.201285,0.73791,-59.778857,5.942689,1,1,0,FF
AA55,1,2,27,0.04,39.571444,6.298651,13.2843145,0.730903,-59.932497,5.981623,1,0,0,FF
AA55,1,2,28,0.0425,39.559587,6.321165,13.36759175,0.724266,-60.085838,6.020281,1,0,0,FF
AA55,1,2,29,0.045,39.547521,6.343565,13.45111675,0.717967,-60.238883,6.058698,1,0,0,FF
AA55,1,2,30,0.0475,39.535245,6.365851,13.534889,0.712016,-60.391373,6.096858,1,0,0,FF
AA55,1,2,31,0.05,39.522756,6.388023,13.6189085,0.706395,-60.543193,6.134765,1,0,0,FF
AA55,1,2,32,0.0525,39.510054,6.41008,13.70317525,0.701059,-60.694715,6.172442,1,0,0,FF
AA55,1,2,33,0.055,39.497139,6.432024,13.787689,0.695985,-60.845951,6.209916,1,0,0,FF
AA55,1,2,34,0.0575,39.484009,6.453854,13.87244925,0.691138,-60.996946,6.247222,1,0,0,FF
AA55,1,2,35,0.06,39.470662,6.475571,13.9574565,0.686503,-61.14766,6.284372,1,1,0,FF
AA55,1,2,36,0.0625,39.457099,6.497173,14.04271,0.682072,-61.297857,6.321385,1,1,0,FF
AA55,1,2,37,0.065,39.443317,6.518663,14.12820975,0.677823,-61.447565,6.358288,1,1,0,FF
AA55,1,2,38,0.0675,39.429316,6.540039,14.21395575,0.673739,-61.596814,6.395084,1,1,0,FF
AA55,1,2,39,0.07,39.415095,6.561301,14.29994775,0.669794,-61.74568,6.431795,1,1,0,FF
AA55,1,2,40,0.0725,39.400652,6.582451,14.3861855,0.665969,-61.894093,6.468442,1,0,0,FF
AA55,1,2,41,0.075,39.385986,6.603487,14.472669,0.662279,-62.041643,6.50501,1,0,0,FF
AA55,1,2,42,0.0775,39.371095,6.624409,14.55939775,0.658694,-62.188374,6.541532,1,0,0,FF
AA55,1,2,43,0.08,39.35598,6.645219,14.646372,0.65516,-62.33457,6.578061,1,0,0,FF
AA55,1,2,44,0.0825,39.34064,6.665917,14.7335915,0.651656,-62.480432,6.61462,1,0,0,FF
AA55,1,2,45,0.085,39.325073,6.686501,14.82105575,0.648167,-62.625851,6.651213,1,1,0,FF
AA55,1,2,46,0.0875,39.309277,6.706974,14.908765,0.644681,-62.770597,6.687845,1,1,0,FF
AA55,1,2,47,0.09,39.293252,6.727334,14.996719,0.641186,-62.914591,6.724524,1,1,0,FF
AA55,1,2,48,0.0925,39.276997,6.747581,15.08491725,0.63765,-63.058153,6.76127,1,1,0,FF
AA55,1,2,49,0.095,39.260511,6.767717,15.17336,0.634053,-63.201335,6.798103,1,1,0,FF
AA55,1,2,50,0.0975,39.243792,6.787741,15.262047,0.630382,-63.344019,6.835042,1,0,0,FF
AA55,1,2,51,0.1,39.22684,6.807654,15.35097775,0.626628,-63.486258,6.872089,1,0,0,FF
AA55,1,2,52,0.1025,39.209653,6.827454,15.4401525,0.622798,-63.627839,6.909241,1,0,0,FF
AA55,1,2,53,0.105,39.192229,6.847143,15.52957075,0.618901,-63.76845,6.946497,1,0,0,FF
AA55,1,2,54,0.1075,39.174569,6.866719,15.61923275,0.614923,-63.908106,6.983867,1,0,0,FF
AA55,1,2,55,0.11,39.156671,6.886185,15.709138,0.610821,-64.047228,7.021388,1,1,0,FF
AA55,1,2,56,0.1125,39.138533,6.905539,15.79928625,0.606584,-64.185814,7.05906,1,1,0,FF
AA55,1,2,57,0.115,39.120156,6.924783,15.8896775,0.602215,-64.32365,7.096886,1,1,0,FF
AA55,1,2,58,0.1175,39.101537,6.943915,15.9803115,0.597698,-64.460562,7.134892,1,1,0,FF
AA55,1,2,59,0.12,39.082675,6.962935,16.07118825,0.593044,-64.596208,7.173066,1,1,0,FF
AA55,1,2,60,0.1225,39.063569,6.981845,16.1623075,0.588252,-64.730617,7.211397,1,0,0,FF
AA55,1,2,61,0.125,39.044218,7.000643,16.253669,0.583291,-64.864208,7.249898,1,0,0,FF
AA55,1,2,62,0.1275,39.02462,7.019331,16.3452725,0.578166,-64.996797,7.288577,1,0,0,FF
AA55,1,2,63,0.13,39.004776,7.037908,16.43711775,0.57289,-65.128008,7.327426,1,0,0,FF
AA55,1,2,64,0.1325,38.984682,7.056373,16.529205,0.567427,-65.258132,7.366464,1,0,0,FF
AA55,1,2,65,0.135,38.964339,7.074729,16.62153375,0.561764,-65.3874,7.4057,1,0,0,FF
AA55,1,2,66,0.1375,38.943745,7.092974,16.71410375,0.555883,-65.516094,7.44515,1,0,0,FF
AA55,1,2,67,0.14,38.9229,7.111109,16.80691525,0.549753,-65.6444,7.484839,1,0,0,FF
AA55,1,2,68,0.1425,38.901803,7.129134,16.8999675,0.543382,-65.772209,7.524756,1,1,0,FF
AA55,1,2,69,0.145,38.880451,7.14705,16.993261,0.536766,-65.899671,7.564903,1,1,0,FF
AA55,1,2,70,0.1475,38.858844,7.164856,17.08679475,0.52987,-66.027155,7.605292,1,1,0,FF
AA55,1,2,71,0.15,38.836981,7.182553,17.18056925,0.5227,-66.154455,7.645902,1,1,0,FF
AA55,1,2,72,0.1525,38.81486,7.20014,17.274584,0.515284,-66.280913,7.686719,1,1,0,FF
AA55,1,2,73,0.155,38.79248,7.217617,17.368839,0.507568,-66.40709,7.727813,1,0,0,FF
AA55,1,2,74,0.1575,38.76984,7.234985,17.46333375,0.499547,-66.53311,7.769174,1,0,0,FF
AA55,1,2,75,0.16,38.746938,7.252244,17.55806825,0.491254,-66.658421,7.810768,1,0,0,FF
AA55,1,2,76,0.1625,38.723773,7.269392,17.65304225,0.482697,-66.782822,7.852586,1,0,0,FF
AA55,1,2,77,0.165,38.700343,7.286431,17.74825575,0.473896,-66.906053,7.894594,1,0,0,FF
AA55,1,2,78,0.1675,38.676647,7.303359,17.84370825,0.464829,-67.028317,7.936784,1,1,0,FF
AA55,1,2,79,0.17,38.652684,7.320178,17.93939975,0.455455,-67.150078,7.979196,1,1,0,FF
AA55,1,2,80,0.1725,38.628453,7.336888,18.03533,0.445798,-67.270921,8.021816,1,1,0,FF
AA55,1,2,81,0.175,38.603951,7.353487,18.13149875,0.435912,-67.390164,8.064579,1,1,0,FF
AA55,1,2,82,0.1775,38.579178,7.369976,18.22790575,0.425785,-67.507789,8.107486,1,1,0,FF
AA55,1,2,83,0.18,38.554131,7.386354,18.324551,0.415425,-67.623502,8.15053,1,0,0,FF
AA55,1,2,84,0.1825,38.528809,7.402621,18.421434,0.404845,-67.737262,8.193692,1,0,0,FF
AA55,1,2,85,0.185,38.503211,7.418777,18.51855475,0.394055,-67.848859,8.236956,1,0,0,FF
AA55,1,2,86,0.1875,38.477335,7.434821,18.615913,0.38308,-67.95784,8.280289,1,0,0,FF
AA55,1,2,87,0.19,38.451178,7.450754,18.7135085,0.371949,-68.063724,8.323664,1,0,0,FF
AA55,1,2,88,0.1925,38.424739,7.466573,18.811341,0.360686,-68.166116,8.367067,1,0,0,FF
AA55,1,2,89,0.195,38.398017,7.48228,18.90941025,0.349289,-68.265138,8.4105,1,0,0,FF
AA55,1,2,90,0.1975,38.371009,7.497875,19.00771625,0.33775,-68.360993,8.45395,1,0,0,FF
AA55,1,2,91,0.2,38.343715,7.513356,19.1062585,0.326071,-68.453621,8.497406,1,1,0,FF
AA55,1,2,92,0.2025,38.316132,7.528723,19.20503675,0.314278,-68.542549,8.540856,1,1,0,FF
AA55,1,2,93,0.205,38.288259,7.543976,19.304051,0.302384,-68.627617,8.584278,1,1,0,FF
AA55,1,2,94,0.2075,38.260093,7.559114,19.40330075,0.290377,-68.70899,8.627676,1,1,0,FF
AA55,1,2,95,0.21,38.231634,7.574138,19.50278625,0.278262,-68.786616,8.671014,1,1,0,FF
AA55,1,2,96,0.2125,38.202879,7.589046,19.60250675,0.266046,-68.860593,8.714251,1,0,0,FF
AA55,1,2,97,0.215,38.173827,7.60384,19.70246225,0.253713,-68.931337,8.757402,1,0,0,FF
AA55,1,2,98,0.2175,38.144476,7.618517,19.8026525,0.241249,-68.999139,8.800459,1,0,0,FF
AA55,1,2,99,0.22,38.114825,7.63308,19.90307725,0.228647,-69.064084,8.843421,1,0,0,FF
AA55,1,2,100,0.2225,38.084872,7.647526,20.00373625,0.215921,-69.125988,8.886287,1,0,0,FF
AA55,1,2,101,0.225,38.054615,7.661856,20.1046295,0.203054,-69.185185,8.929072,1,1,0,FF
AA55,1,2,102,0.2275,38.024054,7.676069,20.2057565,0.190021,-69.241939,8.971785,1,1,0,FF
AA55,1,2,103,0.23,37.993186,7.690165,20.307117,0.17682,-69.296151,9.014396,1,1,0,FF
AA55,1,2,104,0.2325,37.962009,7.704144,20.408711,0.163447,-69.347918,9.056884,1,1,0,FF
AA55,1,2,105,0.235,37.930522,7.718004,20.51053825,0.149843,-69.397947,9.09923,1,1,0,FF
AA55,1,2,106,0.2375,37.898722,7.731747,20.61259825,0.136024,-69.445989,9.141427,1,0,0,FF
AA55,1,2,107,0.24,37.866608,7.745371,20.71489075,0.122038,-69.491468,9.183463,1,0,0,FF
AA55,1,2,108,0.2425,37.834179,7.758875,20.817416,0.107886,-69.534339,9.225344,1,0,0,FF
AA55,1,2,109,0.245,37.801433,7.772259,20.92017325,0.093577,-69.574651,9.267054,1,0,0,FF
AA55,1,2,110,0.2475,37.768367,7.785523,21.02316225,0.079105,-69.612631,9.308567,1,0,0,FF
AA55,1,2,111,0.25,37.734981,7.798666,21.12638325,0.064463,-69.648339,9.349889,1,1,0,FF
AA55,1,2,112,0.2525,37.701272,7.811688,21.2298355,0.04964,-69.68188,9.391014,1,1,0,FF
AA55,1,2,113,0.255,37.667239,7.824587,21.333519,0.03461,-69.713465,9.431943,1,1,0,FF
AA55,1,2,114,0.2575,37.63288,7.837365,21.4374335,0.01934,-69.74348,9.472678,1,1,0,FF
AA55,1,2,115,0.26,37.598194,7.850021,21.54157875,0.003846,-69.77176,9.513218,1,1,0,FF
AA55,1,2,116,0.2625,37.563179,7.862553,21.64595475,-0.011857,-69.798045,9.553579,1,0,0,FF
AA55,1,2,117,0.265,37.527833,7.874961,21.75056075,-0.02777,-69.822236,9.593777,1,0,0,FF
AA55,1,2,118,0.2675,37.492156,7.887246,21.85539675,-0.043921,-69.844589,9.633811,1,0,0,FF
AA55,1,2,119,0.27,37.456145,7.899405,21.9604625,-0.060299,-69.86488,9.673687,1,0,0,FF
AA55,1,2,120,0.2725,37.419799,7.91144,22.065758,-0.076904,-69.882982,9.713414,1,0,0,FF
AA55,1,2,121,0.275,37.383116,7.923348,22.17128275,-0.093727,-69.89891,9.752964,1,0,0,FF
AA55,1,2,122,0.2775,37.346095,7.93513,22.2770365,-0.110757,-69.912586,9.792324,1,0,0,FF
AA55,1,2,123,0.28,37.308734,7.946786,22.38301925,-0.128051,-69.924614,9.831494,1,0,0,FF
AA55,1,2,124,0.2825,37.271031,7.958313,22.4892305,-0.145603,-69.934868,9.870478,1,1,0,FF
AA55,1,2,125,0.285,37.232986,7.969713,22.59567,-0.163358,-69.942698,9.909265,1,1,0,FF
AA55,1,2,126,0.2875,37.194596,7.980984,22.70233775,-0.181356,-69.948622,9.947838,1,1,0,FF
AA55,1,2,127,0.29,37.15586,7.992126,22.80923325,-0.199618,-69.952847,9.986211,1,1,0,FF
AA55,1,2,128,0.2925,37.116777,8.003139,22.9163565,-0.218123,-69.955116,10.024388,1,1,0,FF
AA55,1,2,129,0.295,37.077345,8.014021,23.02370725,-0.236906,-69.955767,10.062347,1,0,0,FF
AA55,1,2,130,0.2975,37.037562,8.024772,23.131285,-0.256018,-69.955329,10.100103,1,0,0,FF
AA55,1,2,131,0.3,36.997427,8.035392,23.23908975,-0.275423,-69.953328,10.137675,1,0,0,FF
AA55,1,2,132,0.3025,36.956939,8.045879,23.347121,-0.295073,-69.949218,10.17506,1,0,0,FF
AA55,1,2,133,0.305,36.916096,8.056234,23.45537875,-0.314998,-69.943266,10.212267,1,0,0,FF
AA55,1,2,134,0.3075,36.874898,8.066455,23.563863,-0.335201,-69.935459,10.249314,1,1,0,FF
AA55,1,2,135,0.31,36.833341,8.076543,23.672573,-0.3557,-69.925889,10.286215,1,1,0,FF
AA55,1,2,136,0.3125,36.791427,8.086495,23.7815085,-0.376516,-69.914765,10.322985,1,1,0,FF
AA55,1,2,137,0.315,36.749152,8.096313,23.89066975,-0.39764,-69.902025,10.359615,1,1,0,FF
AA55,1,2,138,0.3175,36.706515,8.105994,24.00005625,-0.419052,-69.887375,10.396109,1,1,0,FF
AA55,1,2,139,0.32,36.663515,8.115538,24.10966775,-0.440688,-69.870095,10.432444,1,0,0,FF
AA55,1,2,140,0.3225,36.620151,8.124944,24.219504,-0.462512,-69.849793,10.468612,1,0,0,FF
AA55,1,2,141,0.325,36.576421,8.134211,24.329565,-0.484583,-69.827068,10.50464,1,0,0,FF
AA55,1,2,142,0.3275,36.532324,8.143339,24.43985,-0.50692,-69.802148,10.540537,1,0,0,FF
AA55,1,2,143,0.33,36.487858,8.152326,24.550359,-0.529436,-69.774147,10.576258,1,0,0,FF
AA55,1,2,144,0.3325,36.443022,8.161172,24.66109175,-0.552094,-69.74273,10.611807,1,1,0,FF
AA55,1,2,145,0.335,36.397815,8.169876,24.77204825,-0.574937,-69.70842,10.647216,1,1,0,FF
AA55,1,2,146,0.3375,36.352236,8.178438,24.883228,-0.597945,-69.671048,10.682454,1,1,0,FF
AA55,1,2,147,0.34,36.306283,8.186855,24.99463075,-0.621083,-69.630234,10.717528,1,1,0,FF
AA55,1,2,148,0.3425,36.259955,8.195128,25.1062565,-0.644373,-69.586167,10.752463,1,1,0,FF
AA55,1,2,149,0.345,36.21325,8.203256,25.21810475,-0.667876,-69.539541,10.787287,1,0,0,FF
AA55,1,2,150,0.3475,36.166168,8.211238,25.33017525,-0.691632,-69.49082,10.822017,1,0,0,FF
AA55,1,2,151,0.35,36.118708,8.219074,25.442468,-0.715653,-69.440139,10.856665,1,0,0,FF
AA55,1,2,152,0.3525,36.070868,8.226762,25.55498275,-0.739905,-69.387002,10.891232,1,0,0,FF
AA55,1,2,153,0.355,36.022646,8.234303,25.667719,-0.764449,-69.332216,10.925719,1,0,0,FF
AA55,1,2,154,0.3575,35.974043,8.241694,25.78067675,-0.789313,-69.276,10.960176,1,0,0,FF
AA55,1,2,155,0.36,35.925057,8.248935,25.89385575,-0.81449,-69.218054,10.994626,1,0,0,FF
AA55,1,2,156,0.3625,35.875686,8.256026,26.00725575,-0.839952,-69.158239,11.029021,1,0,0,FF
AA55,1,2,157,0.365,35.82593,8.262965,26.12087625,-0.865673,-69.096393,11.063335,1,1,0,FF
AA55,1,2,158,0.3675,35.775786,8.269751,26.23471725,-0.891734,-69.033258,11.097622,1,1,0,FF
AA55,1,2,159,0.37,35.725254,8.276384,26.3487785,-0.91813,-68.968603,11.131916,1,1,0,FF
AA55,1,2,160,0.3725,35.674334,8.282863,26.46305975,-0.94485,-68.902227,11.166222,1,1,0,FF
AA55,1,2,161,0.375,35.623023,8.289186,26.57756075,-0.971943,-68.834849,11.200529,1,1,0,FF
AA55,1,2,162,0.3775,35.57132,8.295354,26.69228125,-0.999445,-68.766893,11.234828,1,0,0,FF
AA55,1,2,163,0.38,35.519226,8.301364,26.807221,-1.027273,-68.697263,11.269141,1,0,0,FF
AA55,1,2,164,0.3825,35.466737,8.307216,26.92237975,-1.055364,-68.625394,11.303469,1,0,0,FF
AA55,1,2,165,0.385,35.413853,8.312907,27.03775725,-1.083692,-68.551145,11.337779,1,0,0,FF
AA55,1,2,166,0.3875,35.360573,8.318438,27.15335325,-1.112202,-68.473913,11.372051,1,0,0,FF
AA55,1,2,167,0.39,35.306895,8.323806,27.2691675,-1.140848,-68.393133,11.406284,1,1,0,FF
AA55,1,2,168,0.3925,35.252819,8.329011,27.38519975,-1.169639,-68.308926,11.440462,1,1,0,FF
AA55,1,2,169,0.395,35.198343,8.334052,27.50144975,-1.198578,-68.221295,11.474571,1,1,0,FF
AA55,1,2,170,0.3975,35.143465,8.338927,27.61791725,-1.22768,-68.130519,11.508612,1,1,0,FF
AA55,1,2,171,0.4,35.088186,8.343636,27.734602,-1.257007,-68.037425,11.542559,1,1,0,FF
AA55,1,2,172,0.4025,35.032503,8.348177,27.85150375,-1.286572,-67.942074,11.576413,1,0,0,FF
AA55,1,2,173,0.405,34.976416,8.35255,27.96862225,-1.316351,-67.844201,11.610194,1,0,0,FF
AA55,1,2,174,0.4075,34.919923,8.356753,28.08595725,-1.346303,-67.743433,11.643904,1,0,0,FF
AA55,1,2,175,0.41,34.863023,8.360785,28.2035085,-1.376441,-67.640384,11.677534,1,0,0,FF
AA55,1,2,176,0.4125,34.805715,8.364644,28.32127575,-1.406845,-67.535817,11.711087,1,0,0,FF
AA55,1,2,177,0.415,34.747998,8.368331,28.4392585,-1.437573,-67.430375,11.744587,1,1,0,FF
AA55,1,2,178,0.4175,34.689871,8.371844,28.557457,-1.468624,-67.324033,11.778069,1,1,0,FF
AA55,1,2,179,0.42,34.631334,8.375181,28.67587075,-1.499969,-67.216402,11.811524,1,1,0,FF
AA55,1,2,180,0.4225,34.572383,8.378341,28.79449925,-1.531575,-67.10734,11.844914,1,1,0,FF
AA55,1,2,181,0.425,34.51302,8.381323,28.91334275,-1.563426,-66.996583,11.878259,1,1,0,FF
AA55,1,2,182,0.4275,34.453242,8.384126,29.0324005,-1.595542,-66.884478,11.911567,1,0,0,FF
AA55,1,2,183,0.43,34.393049,8.386748,29.1516725,-1.627966,-66.771436,11.944857,1,0,0,FF
AA55,1,2,184,0.4325,34.332439,8.389189,29.2711585,-1.660667,-66.656878,11.978166,1,0,0,FF
AA55,1,2,185,0.435,34.271412,8.391446,29.39085825,-1.693654,-66.5408,12.011495,1,0,0,FF
AA55,1,2,186,0.4375,34.209966,8.393518,29.5107715,-1.726949,-66.423424,12.044861,1,0,0,FF
AA55,1,2,187,0.44,34.1481,8.395405,29.63089775,-1.760522,-66.304348,12.078232,1,0,0,FF
AA55,1,2,188,0.4425,34.085812,8.397105,29.751237,-1.794405,-66.184101,12.111553,1,0,0,FF
AA55,1,2,189,0.445,34.023102,8.398616,29.87178875,-1.828609,-66.062728,12.144814,1,0,0,FF
AA55,1,2,190,0.4475,33.959967,8.399936,29.99255275,-1.863009,-65.93895,12.177962,1,1,0,FF
AA55,1,2,191,0.45,33.896406,8.401064,30.11352875,-1.897572,-65.812548,12.210942,1,1,0,FF
AA55,1,2,192,0.4525,33.832419,8.401998,30.2347165,-1.932351,-65.683897,12.243755,1,1,0,FF
AA55,1,2,193,0.455,33.768004,8.402738,30.35611575,-1.967336,-65.552711,12.276392,1,1,0,FF
AA55,1,2,194,0.4575,33.70316,8.403281,30.477726,-2.002505,-65.418746,12.308839,1,1,0,FF
AA55,1,2,195,0.46,33.637886,8.403627,30.59954725,-2.037871,-65.280568,12.341105,1,0,0,FF
AA55,1,2,196,0.4625,33.57218,8.403772,30.72157925,-2.073366,-65.137055,12.37317,1,0,0,FF
AA55,1,2,197,0.465,33.506043,8.403716,30.8438215,-2.108973,-64.987324,12.40503,1,0,0,FF
AA55,1,2,198,0.4675,33.439472,8.403458,30.966274,-2.144723,-64.831358,12.436693,1,0,0,FF
AA55,1,2,199,0.47,33.372466,8.402995,31.088936,-2.180543,-64.667897,12.468174,1,0,0,FF
AA55,1,2,200,0.4725,33.305024,8.402325,31.21180775,-2.216399,-64.49637,12.499442,1,1,0,FF
AA55,1,2,201,0.475,33.237146,8.401446,31.3348885,-2.252286,-64.3165,12.530463,1,1,0,FF
AA55,1,2,202,0.4775,33.168829,8.400357,31.45817825,-2.28818,-64.127775,12.561234,1,1,0,FF
AA55,1,2,203,0.48,33.100074,8.399057,31.58167675,-2.324099,-63.930376,12.591726,1,1,0,FF
AA55,1,2,204,0.4825,33.030879,8.397543,31.70538375,-2.36005,-63.724312,12.621893,1,1,0,FF
AA55,1,2,205,0.485,32.961244,8.395813,31.82929875,-2.396091,-63.510207,12.651697,1,0,0,FF
AA55,1,2,206,0.4875,32.891168,8.393868,31.95342175,-2.432316,-63.289126,12.681096,1,0,0,FF
AA55,1,2,207,0.49,32.820649,8.391703,32.07775225,-2.468684,-63.061111,12.709985,1,0,0,FF
AA55,1,2,208,0.4925,32.749686,8.389319,32.20229025,-2.5052,-62.826381,12.738327,1,0,0,FF
AA55,1,2,209,0.495,32.678281,8.386713,32.32703525,-2.541853,-62.585058,12.766033,1,0,0,FF
AA55,1,2,210,0.4975,32.60643,8.383883,32.45198725,-2.578655,-62.337725,12.792985,1,1,0,FF
AA55,1,2,211,0.5,32.534135,8.380827,32.57714575,-2.615618,-62.084746,12.819102,1,1,0,FF
AA55,1,2,212,0.5025,32.461394,8.377545,32.70251075,-2.652718,-61.826281,12.844249,1,1,0,FF
AA55,1,2,213,0.505,32.388206,8.374033,32.82808175,-2.689867,-61.561919,12.868279,1,1,0,FF
AA55,1,2,214,0.5075,32.31457,8.37029,32.95385875,-2.72701,-61.291501,12.891051,1,1,0,FF
AA55,1,2,215,0.51,32.240487,8.366313,33.0798415,-2.76417,-61.01669,12.912464,1,0,0,FF
AA55,1,2,216,0.5125,32.165956,8.362101,33.2060295,-2.801214,-60.736332,12.932398,1,0,0,FF
AA55,1,2,217,0.515,32.090976,8.357651,33.33242275,-2.838051,-60.45028,12.950699,1,0,0,FF
AA55,1,2,218,0.5175,32.015547,8.352962,33.459021,-2.874611,-60.158325,12.967223,1,0,0,FF
AA55,1,2,219,0.52,31.939669,8.34803,33.585824,-2.910825,-59.859755,12.981858,1,0,0,FF
AA55,1,2,220,0.5225,31.863342,8.342855,33.7128315,-2.946622,-59.553828,12.994499,1,0,0,FF
AA55,1,2,221,0.525,31.786566,8.337433,33.84004325,-2.981893,-59.239263,13.004993,1,0,0,FF
AA55,1,2,222,0.5275,31.70934,8.331764,33.96745925,-3.01657,-58.915146,13.013199,1,0,0,FF
AA55,1,2,223,0.53,31.631666,8.325844,34.09507925,-3.050569,-58.580451,13.018968,1,1,0,FF
AA55,1,2,224,0.5325,31.553543,8.319672,34.22290325,-3.08379,-58.233603,13.022187,1,1,0,FF
AA55,1,2,225,0.535,31.474972,8.313246,34.35093075,-3.11624,-57.873446,13.022799,1,1,0,FF
AA55,1,2,226,0.5375,31.395953,8.306564,34.47916175,-3.147906,-57.49873,13.020694,1,1,0,FF
AA55,1,2,227,0.54,31.316488,8.299624,34.607596,-3.178636,-57.106721,13.015758,1,1,0,FF
AA55,1,2,228,0.5425,31.236576,8.292423,34.73623375,-3.208331,-56.694789,13.007907,1,0,0,FF
AA55,1,2,229,0.545,31.156219,8.284959,34.86507425,-3.23689,-56.260186,12.997025,1,0,0,FF
AA55,1,2,230,0.5475,31.075418,8.27723,34.994118,-3.264182,-55.799273,12.983025,1,0,0,FF
AA55,1,2,231,0.55,30.994174,8.269234,35.1233645,-3.290299,-55.309751,12.965926,1,0,0,FF
AA55,1,2,232,0.5525,30.91249,8.260969,35.25281375,-3.315239,-54.788367,12.945697,1,0,0,FF
AA55,1,2,233,0.555,30.830366,8.252433,35.38246575,-3.338879,-54.230543,12.922274,1,1,0,FF
AA55,1,2,234,0.5575,30.747805,8.243623,35.51232025,-3.361303,-53.632853,12.895668,1,1,0,FF
AA55,1,2,235,0.56,30.664815,8.234541,35.64237825,-3.382739,-53.009106,12.865976,1,1,0,FF
AA55,1,2,236,0.5625,30.581398,8.225186,35.77263925,-3.403286,-52.356396,12.833175,1,1,0,FF
AA55,1,2,237,0.565,30.497559,8.215557,35.9031035,-3.422914,-51.675086,12.797244,1,1,0,FF
AA55,1,2,238,0.5675,30.413302,8.205652,36.0337715,-3.4417,-50.963539,12.758223,1,0,0,FF
AA55,1,2,239,0.57,30.328631,8.195471,36.164643,-3.459758,-50.21898,12.716114,1,0,0,FF
AA55,1,2,240,0.5725,30.243548,8.18501,36.29571825,-3.477038,-49.435728,12.670941,1,0,0,FF
AA55,1,2,241,0.575,30.158059,8.17427,36.42699725,-3.493643,-48.607739,12.622802,1,0,0,FF
AA55,1,2,242,0.5775,30.072168,8.163248,36.55848,-3.509787,-47.729627,12.571856,1,0,0,FF
AA55,1,2,243,0.58,29.985887,8.151949,36.69016775,-3.526113,-46.828888,12.518558,1,1,0,FF
AA55,1,2,244,0.5825,29.899223,8.140374,36.82206075,-3.542847,-45.904082,12.463081,1,1,0,FF
AA55,1,2,245,0.585,29.812185,8.128525,36.95415925,-3.56031,-44.966723,12.40572,1,1,0,FF
AA55,1,2,246,0.5875,29.724781,8.116403,37.08646425,-3.578825,-44.025483,12.346742,1,1,0,FF
AA55,1,2,247,0.59,29.637022,8.104011,37.218976,-3.598727,-43.090452,12.286373,1,1,0,FF
AA55,1,2,248,0.5925,29.548914,8.091352,37.35169525,-3.620289,-42.171086,12.22484,1,0,0,FF
AA55,1,2,249,0.595,29.460468,8.078427,37.4846225,-3.643783,-41.276808,12.162373,1,0,0,FF
AA55,1,2,250,0.5975,29.371692,8.06524,37.617758,-3.669534,-40.417056,12.099222,1,0,0,FF
AA55,1,2,251,0.6,29.282593,8.051793,37.75110275,-3.697896,-39.601124,12.035642,1,0,0,FF
AA55,1,2,252,0.6025,29.193179,8.038088,37.8846565,-3.729075,-38.837734,11.971846,1,0,0,FF
AA55,1,2,253,0.605,29.103446,8.024115,38.01841925,-3.762796,-38.134388,11.907933,1,0,0,FF
AA55,1,2,254,0.6075,29.0134,8.009871,38.15239075,-3.798904,-37.497456,11.84405,1,0,0,FF
AA55,1,2,255,0.61,28.923042,7.995356,38.28657075,-3.83719,-36.931129,11.780197,1,0,0,FF
AA55,1,2,256,0.6125,28.832376,7.980565,38.42095975,-3.877319,-36.439099,11.716404,1,1,0,FF
AA55,1,2,257,0.615,28.741404,7.965494,38.5555575,-3.91857,-36.022656,11.652576,1,1,0,FF
AA55,1,2,258,0.6175,28.650129,7.95014,38.6903635,-3.960387,-35.683157,11.588633,1,1,0,FF
AA55,1,2,259,0.62,28.558553,7.934503,38.82537825,-4.002248,-35.421066,11.524492,1,1,0,FF
AA55,1,2,260,0.6225,28.466681,7.918581,38.96060175,-4.043472,-35.235598,11.460032,1,1,0,FF
AA55,1,2,261,0.625,28.374512,7.90237,39.0960335,-4.083249,-35.125237,11.395072,1,0,0,FF
AA55,1,2,262,0.6275,28.282051,7.885868,39.231674,-4.120716,-35.087652,11.329422,1,0,0,FF
AA55,1,2,263,0.63,28.189298,7.869074,39.36752275,-4.155051,-35.120216,11.26288,1,0,0,FF
AA55,1,2,264,0.6325,28.096257,7.851986,39.50358,-4.185388,-35.219932,11.195213,1,0,0,FF
AA55,1,2,265,0.635,28.002927,7.8346,39.6398455,-4.210572,-35.383553,11.125925,1,0,0,FF
AA55,1,2,266,0.6375,27.90931,7.816915,39.776319,-4.229583,-35.60782,11.054663,1,1,0,FF
AA55,1,2,267,0.64,27.81541,7.79893,39.91300075,-4.241505,-35.889864,10.981093,1,1,0,FF
AA55,1,2,268,0.6425,27.721227,7.780647,40.0498905,-4.245486,-36.226744,10.904943,1,1,0,FF
AA55,1,2,269,0.645,27.626768,7.762069,40.18698875,-4.240741,-36.615309,10.826037,1,1,0,FF
AA55,1,2,270,0.6475,27.532035,7.743198,40.32429575,-4.226504,-37.052555,10.744241,1,1,0,FF
AA55,1,2,271,0.65,27.437032,7.724038,40.46181125,-4.202142,-37.535036,10.659515,1,0,0,FF
AA55,1,2,272,0.6525,27.341766,7.704594,40.599536,-4.167336,-38.059093,10.571885,1,0,0,FF
AA55,1,2,273,0.655,27.246242,7.684873,40.73747025,-4.121881,-38.620863,10.481453,1,0,0,FF
AA55,1,2,274,0.6575,27.150467,7.664884,40.8756145,-4.065816,-39.216765,10.388373,1,0,0,FF
AA55,1,2,275,0.66,27.054448,7.644636,41.0139695,-3.999347,-39.846053,10.292833,1,0,0,FF
AA55,1,2,276,0.6625,26.958194,7.624139,41.15253525,-3.922804,-40.505382,10.195038,1,0,0,FF
AA55,1,2,277,0.665,26.861713,7.603405,41.29131275,-3.836682,-41.192379,10.095249,1,0,0,FF
AA55,1,2,278,0.6675,26.765013,7.582445,41.4303025,-3.74157,-41.904581,9.993825,1,0,0,FF
AA55,1,2,279,0.67,26.668106,7.561271,41.56950525,-3.638156,-42.639723,9.891107,1,1,0,FF
AA55,1,2,280,0.6725,26.570999,7.539896,41.70892125,-3.527175,-43.395619,9.787472,1,1,0,FF
AA55,1,2,281,0.675,26.473704,7.518333,41.8485515,-3.409473,-44.170274,9.683362,1,1,0,FF
AA55,1,2,282,0.6775,26.37623,7.496592,41.98839625,-3.285795,-44.96147,9.579081,1,1,0,FF
AA55,1,2,283,0.68,26.278586,7.474686,42.12845625,-3.156991,-45.767396,9.474977,1,1,0,FF
AA55,1,2,284,0.6825,26.180784,7.45263,42.26873175,-3.024042,-46.586909,9.371272,1,0,0,FF
AA55,1,2,285,0.685,26.082832,7.430436,42.4092235,-2.887809,-47.41852,9.268169,1,0,0,FF
AA55,1,2,286,0.6875,25.98474,7.408114,42.549932,-2.74889,-48.260376,9.165787,1,0,0,FF
AA55,1,2,287,0.69,25.886518,7.385676,42.69085725,-2.607877,-49.110814,9.064196,1,0,0,FF
AA55,1,2,288,0.6925,25.788175,7.363133,42.83199975,-2.465469,-49.970836,8.963416,1,0,0,FF
AA55,1,2,289,0.695,25.689722,7.340498,42.97336,-2.32234,-50.839225,8.86353,1,1,0,FF
AA55,1,2,290,0.6975,25.591171,7.317782,43.11493825,-2.179073,-51.714693,8.764593,1,1,0,FF
AA55,1,2,291,0.7,25.492532,7.294997,43.256735,-2.036308,-52.595739,8.666758,1,1,0,FF
AA55,1,2,292,0.7025,25.393817,7.272155,43.3987505,-1.894652,-53.480571,8.57015,1,1,0,FF
AA55,1,2,293,0.705,25.295041,7.249268,43.54098475,-1.75471,-54.366879,8.474933,1,1,0,FF
AA55,1,2,294,0.7075,25.196215,7.226346,43.68343875,-1.617045,-55.251932,8.38125,1,0,0,FF
AA55,1,2,295,0.71,25.097353,7.203401,43.826112,-1.482224,-56.133179,8.289358,1,0,0,FF
AA55,1,2,296,0.7125,24.998468,7.180443,43.969005,-1.350798,-57.007235,8.199407,1,0,0,FF
AA55,1,2,297,0.715,24.899583,7.157483,44.1120995,-1.223242,-57.87087,8.111555,1,0,0,FF
AA55,1,2,298,0.7175,24.800719,7.134533,44.25538425,-1.100034,-58.720589,8.025983,1,0,0,FF
AA55,1,2,299,0.72,24.701892,7.111601,44.3988495,-0.981574,-59.552755,7.942791,1,1,0,FF
AA55,1,2,300,0.7225,24.603118,7.088693,44.54248475,-0.868062,-60.364157,7.861767,1,1,0,FF
AA55,1,2,301,0.725,24.504411,7.065816,44.68627925,-0.759822,-61.151065,7.78271,1,1,0,FF
AA55,1,2,302,0.7275,24.405786,7.042974,44.830223,-0.657053,-61.910516,7.705495,1,1,0,FF
AA55,1,2,303,0.73,24.307258,7.020172,44.974305,-0.559919,-62.639682,7.629967,1,1,0,FF
AA55,1,2,304,0.7325,24.20884,6.997415,45.118515,-0.468731,-63.334717,7.555947,1,0,0,FF
AA55,1,2,305,0.735,24.110546,6.974707,45.26284225,-0.383635,-63.992839,7.483203,1,0,0,FF
AA55,1,2,306,0.7375,24.012386,6.952049,45.40727625,-0.304583,-64.612664,7.41146,1,0,0,FF
AA55,1,2,307,0.74,23.914373,6.929444,45.55180625,-0.231673,-65.192024,7.340516,1,0,0,FF
AA55,1,2,308,0.7425,23.81652,6.906895,45.69642175,-0.164997,-65.729112,7.270188,1,0,0,FF
AA55,1,2,309,0.745,23.718836,6.884402,45.84111225,-0.104431,-66.22385,7.200213,1,0,0,FF
AA55,1,2,310,0.7475,23.621332,6.861967,45.985867,-0.049883,-66.676099,7.130364,1,0,0,FF
AA55,1,2,311,0.75,23.524017,6.83959,46.13067525,-0.001257,-67.085948,7.060467,1,0,0,FF
AA55,1,2,312,0.7525,23.426902,6.817271,46.275527,0.041572,-67.453917,6.990287,1,1,0,FF
AA55,1,2,313,0.755,23.329995,6.795011,46.420411,0.07872,-67.7806,6.919693,1,1,0,FF
AA55,1,2,314,0.7575,23.233299,6.772811,46.56533625,0.110342,-68.067143,6.848559,1,1,0,FF
AA55,1,2,315,0.76,23.136817,6.75067,46.71029825,0.136648,-68.314815,6.776741,1,1,0,FF
AA55,1,2,316,0.7625,23.040556,6.728589,46.85529525,0.157899,-68.526039,6.704202,1,1,0,FF
AA55,1,2,317,0.765,22.94452,6.706567,47.000325,0.174462,-68.704201,6.630829,1,0,0,FF
AA55,1,2,318,0.7675,22.848715,6.684603,47.1453855,0.186554,-68.851229,6.556544,1,0,0,FF
AA55,1,2,319,0.77,22.753144,6.6627,47.2904745,0.194356,-68.968976,6.481331,1,0,0,FF
AA55,1,2,320,0.7725,22.657814,6.640856,47.43559,0.198067,-69.059662,6.405199,1,0,0,FF
AA55,1,2,321,0.775,22.562729,6.619073,47.58073025,0.198018,-69.126609,6.328212,1,0,0,FF
AA55,1,2,322,0.7775,22.467893,6.597349,47.7258925,0.194509,-69.173153,6.25049,1,1,0,FF
AA55,1,2,323,0.78,22.373312,6.575685,47.87107525,0.187789,-69.202246,6.172202,1,1,0,FF
AA55,1,2,324,0.7825,22.27899,6.554082,48.016276,0.178129,-69.21703,6.093478,1,1,0,FF
AA55,1,2,325,0.785,22.18493,6.532539,48.161493,0.165793,-69.220466,6.014453,1,1,0,FF
AA55,1,2,326,0.7875,22.091138,6.511056,48.306724,0.151043,-69.215522,5.935272,1,1,0,FF
AA55,1,2,327,0.79,21.997618,6.489635,48.4519665,0.134102,-69.204846,5.856097,1,0,0,FF
AA55,1,2,328,0.7925,21.904374,6.468274,48.597219,0.115237,-69.191251,5.776979,1,0,0,FF
AA55,1,2,329,0.795,21.81141,6.446975,48.742479,0.094657,-69.176696,5.697934,1,0,0,FF
AA55,1,2,330,0.7975,21.718728,6.425737,48.88774425,0.072684,-69.164482,5.618965,1,0,0,FF
AA55,1,2,331,0.8,21.626333,6.404559,49.033013,0.049643,-69.157943,5.540148,1,0,0,FF
AA55,1,2,332,0.8025,21.534229,6.383443,49.17828275,0.025698,-69.158405,5.461569,1,1,0,FF
AA55,1,2,333,0.805,21.442419,6.362387,49.3235515,0.001047,-69.167656,5.383265,1,1,0,FF
AA55,1,2,334,0.8075,21.350905,6.341393,49.46882025,-0.024069,-69.187962,5.305272,1,1,0,FF
AA55,1,2,335,0.81,21.259691,6.320459,49.61408825,-0.049434,-69.222108,5.227603,1,1,0,FF
AA55,1,2,336,0.8125,21.168779,6.299586,49.75935475,-0.074827,-69.271963,5.150263,1,1,0,FF
AA55,1,2,337,0.815,21.078171,6.278772,49.904619,-0.100088,-69.339011,5.073255,1,0,0,FF
AA55,1,2,338,0.8175,20.987871,6.258018,50.0498805,-0.125137,-69.423676,4.996609,1,0,0,FF
AA55,1,2,339,0.82,20.897882,6.237324,50.19513825,-0.149891,-69.526421,4.920359,1,0,0,FF
AA55,1,2,340,0.8225,20.808207,6.21669,50.34039175,-0.174288,-69.647518,4.844534,1,0,0,FF
AA55,1,2,341,0.825,20.71885,6.196115,50.48564025,-0.198343,-69.786347,4.769196,1,0,0,FF
AA55,1,2,342,0.8275,20.629814,6.175602,50.6308835,-0.222059,-69.941959,4.694287,1,0,0,FF
AA55,1,2,343,0.83,20.541103,6.155148,50.77612025,-0.24533,-70.114625,4.619767,1,0,0,FF
AA55,1,2,344,0.8325,20.452719,6.134752,50.92135025,-0.26812,-70.303837,4.5456,1,0,0,FF
AA55,1,2,345,0.835,20.364666,6.114416,51.0665725,-0.290472,-70.508373,4.471743,1,1,0,FF
AA55,1,2,346,0.8375,20.276946,6.094138,51.21178675,-0.312316,-70.727994,4.398142,1,1,0,FF
AA55,1,2,347,0.84,20.189563,6.073916,51.356992,-0.33358,-70.962627,4.324772,1,1,0,FF
AA55,1,2,348,0.8425,20.102519,6.053751,51.50218775,-0.354247,-71.211532,4.251618,1,1,0,FF
AA55,1,2,349,0.845,20.015819,6.033641,51.64737325,-0.374405,-71.47286,4.17866,1,1,0,FF
AA55,1,2,350,0.8475,19.929464,6.013586,51.79254775,-0.394103,-71.745329,4.105929,1,0,0,FF
AA55,1,2,351,0.85,19.84346,5.993585,51.93771075,-0.413449,-72.027172,4.033478,1,0,0,FF
AA55,1,2,352,0.8525,19.757809,5.973639,52.0828615,-0.432574,-72.316347,3.961385,1,0,0,FF
AA55,1,2,353,0.855,19.672516,5.953746,52.2279995,-0.45155,-72.611578,3.889717,1,0,0,FF
AA55,1,2,354,0.8575,19.587584,5.933905,52.37312425,-0.470463,-72.911288,3.818524,1,0,0,FF
AA55,1,2,355,0.86,19.503015,5.914115,52.51823575,-0.489348,-73.213121,3.747828,1,1,0,FF
AA55,1,2,356,0.8625,19.418813,5.894376,52.66333325,-0.508235,-73.515914,3.677649,1,1,0,FF
AA55,1,2,357,0.865,19.334981,5.874685,52.80841675,-0.52716,-73.818404,3.60804,1,1,0,FF
AA55,1,2,358,0.8675,19.251523,5.855042,52.9534855,-0.54624,-74.118539,3.53907,1,1,0,FF
AA55,1,2,359,0.87,19.16844,5.835446,53.0985395,-0.565499,-74.415332,3.470754,1,1,0,FF
AA55,1,2,360,0.8725,19.085735,5.815895,53.243578,-0.584932,-74.708244,3.403072,1,0,0,FF
AA55,1,2,361,0.875,19.00341,5.796387,53.38860075,-0.604592,-74.995788,3.336048,1,0,0,FF
AA55,1,2,362,0.8775,18.921468,5.776922,53.5336075,-0.624411,-75.278291,3.269659,1,0,0,FF
AA55,1,2,363,0.88,18.83991,5.757496,53.67859775,-0.64432,-75.555993,3.203935,1,0,0,FF
AA55,1,2,364,0.8825,18.758738,5.73811,53.82357075,-0.664357,-75.827721,3.138905,1,0,0,FF
AA55,1,2,365,0.885,18.677955,5.71876,53.96852675,-0.684557,-76.092882,3.074597,1,1,0,FF
AA55,1,2,366,0.8875,18.597562,5.699447,54.11346475,-0.704875,-76.351469,3.011035,1,1,0,FF
AA55,1,2,367,0.89,18.517562,5.680169,54.25838475,-0.725357,-76.602442,2.948159,1,1,0,FF
AA55,1,2,368,0.8925,18.437955,5.660924,54.40328625,-0.74593,-76.846115,2.885887,1,1,0,FF
AA55,1,2,369,0.895,18.358744,5.641711,54.54816875,-0.766567,-77.082443,2.824243,1,1,0,FF
AA55,1,2,370,0.8975,18.27993,5.622528,54.693032,-0.787261,-77.311159,2.763205,1,0,0,FF
AA55,1,2,371,0.9,18.201515,5.603374,54.8378755,-0.807924,-77.532904,2.702743,1,0,0,FF
AA55,1,2,372,0.9025,18.1235,5.584247,54.982699,-0.828437,-77.748871,2.642863,1,0,0,FF
AA55,1,2,373,0.905,18.045883,5.565144,55.127515,-0.848716,-77.959639,2.583567,1,0,0,FF
AA55,1,2,374,0.9075,17.968668,5.546065,55.27231525,-0.868785,-78.164346,2.524827,1,0,0,FF
AA55,1,2,375,0.91,17.891855,5.527009,55.41710075,-0.888663,-78.362397,2.466646,1,0,0,FF
AA55,1,2,376,0.9125,17.815446,5.507974,55.56187175,-0.908342,-78.553648,2.409061,1,0,0,FF
AA55,1,2,377,0.915,17.73944,5.488959,55.70662825,-0.927791,-78.738179,2.352055,1,0,0,FF
AA55,1,2,378,0.9175,17.66384,5.469962,55.85137,-0.946975,-78.916097,2.295618,1,1,0,FF
AA55,1,2,379,0.92,17.588645,5.450983,55.99609675,-0.965874,-79.087214,2.239748,1,1,0,FF
AA55,1,2,380,0.9225,17.513856,5.432019,56.1408085,-0.984521,-79.25093,2.184455,1,1,0,FF
AA55,1,2,381,0.925,17.439475,5.41307,56.2855055,-1.002911,-79.40714,2.129764,1,1,0,FF
AA55,1,2,382,0.9275,17.365501,5.394135,56.43018725,-1.021043,-79.555756,2.075713,1,1,0,FF
AA55,1,2,383,0.93,17.291937,5.375213,56.574854,-1.038942,-79.695913,2.022368,1,0,0,FF
AA55,1,2,384,0.9325,17.218783,5.356304,56.7195055,-1.056617,-79.828117,1.969811,1,0,0,FF
AA55,1,2,385,0.935,17.14604,5.337404,56.86414175,-1.074008,-79.953469,1.918134,1,0,0,FF
AA55,1,2,386,0.9375,17.073707,5.318514,57.00876275,-1.091145,-80.071446,1.867391,1,0,0,FF
AA55,1,2,387,0.94,17.001785,5.299633,57.15336825,-1.108033,-80.182024,1.81761,1,0,0,FF
AA55,1,2,388,0.9425,16.930275,5.28076,57.29795825,-1.12465,-80.285805,1.768859,1,1,0,FF
AA55,1,2,389,0.945,16.859176,5.261892,57.44253275,-1.140994,-80.382793,1.721192,1,1,0,FF
AA55,1,2,390,0.9475,16.788489,5.243031,57.58709175,-1.15705,-80.473438,1.67472,1,1,0,FF
AA55,1,2,391,0.95,16.718215,5.224174,57.731635,-1.172802,-80.558296,1.629535,1,1,0,FF
AA55,1,2,392,0.9525,16.648354,5.205321,57.87616225,-1.188246,-80.637369,1.58567,1,1,0,FF
AA55,1,2,393,0.955,16.578906,5.186471,58.020674,-1.203408,-80.710217,1.543182,1,0,0,FF
AA55,1,2,394,0.9575,16.509871,5.167624,58.16516975,-1.218359,-80.775744,1.50212,1,0,0,FF
AA55,1,2,395,0.96,16.441249,5.14878,58.3096495,-1.233085,-80.833124,1.462549,1,0,0,FF
AA55,1,2,396,0.9625,16.37304,5.129937,58.45411325,-1.247514,-80.883629,1.424515,1,0,0,FF
AA55,1,2,397,0.965,16.305243,5.111094,58.598561,-1.261639,-80.927143,1.38804,1,0,0,FF
AA55,1,2,398,0.9675,16.237857,5.092251,58.7429925,-1.275462,-80.963189,1.353158,1,1,0,FF
AA55,1,2,399,0.97,16.170882,5.073407,58.8874075,-1.28905,-80.990066,1.319939,1,1,0,FF
AA55,1,2,400,0.9725,16.104319,5.054564,59.0318065,-1.302434,-81.007096,1.288428,1,1,0,FF
AA55,1,2,401,0.975,16.038165,5.03572,59.176189,-1.31558,-81.014687,1.258656,1,1,0,FF
AA55,1,2,402,0.9775,15.97242,5.016875,59.32055525,-1.328479,-81.012814,1.230682,1,1,0,FF
AA55,1,2,403,0.98,15.907084,4.998028,59.46490475,-1.341123,-81.00175,1.204543,1,0,0,FF
AA55,1,2,404,0.9825,15.842156,4.97918,59.609238,-1.353522,-80.981166,1.180251,1,0,0,FF
AA55,1,2,405,0.985,15.777635,4.96033,59.7535545,-1.365663,-80.951232,1.157809,1,0,0,FF
AA55,1,2,406,0.9875,15.713518,4.941477,59.89785425,-1.377493,-80.912923,1.137185,1,0,0,FF
AA55,1,2,407,0.99,15.649804,4.922621,60.04213725,-1.388965,-80.867251,1.118447,1,0,0,FF
AA55,1,2,408,0.9925,15.58649,4.903761,60.18640375,-1.400066,-80.813964,1.101613,1,0,0,FF
AA55,1,2,409,0.995,15.523575,4.884899,60.330653,-1.410804,-80.752853,1.086664,1,0,0,FF
AA55,1,2,410,0.9975,15.461056,4.866032,60.4748855,-1.421145,-80.684564,1.073624,1,0,0,FF
AA55,1,2,411,1,15.39893,4.847162,60.619101,-1.43108,-80.609157,1.062476,1,1,0,FF
AA55,1,2,412,1.0025,15.337197,4.828287,60.76329925,-1.440592,-80.527129,1.053191,1,1,0,FF
AA55,1,2,413,1.005,15.275852,4.809409,60.9074805,-1.449677,-80.438491,1.04579,1,1,0,FF
AA55,1,2,414,1.0075,15.214893,4.790526,61.05164475,-1.458332,-80.343162,1.040284,1,1,0,FF
AA55,1,2,415,1.01,15.154318,4.771639,61.1957915,-1.466559,-80.241072,1.036685,1,1,0,FF
AA55,1,2,416,1.0125,15.094125,4.752749,61.339921,-1.4744,-80.131324,1.034954,1,0,0,FF
AA55,1,2,417,1.015,15.03431,4.733855,61.48403325,-1.481869,-80.012956,1.034993,1,0,0,FF
AA55,1,2,418,1.0175,14.974869,4.714959,61.62812825,-1.488932,-79.88657,1.036734,1,0,0,FF
AA55,1,2,419,1.02,14.915801,4.696058,61.7722055,-1.49555,-79.752583,1.040126,1,0,0,FF
AA55,1,2,420,1.0225,14.8571,4.677154,61.9162655,-1.501674,-79.61129,1.045113,1,0,0,FF
AA55,1,2,421,1.025,14.798765,4.658246,62.06030775,-1.507238,-79.463543,1.051634,1,1,0,FF
AA55,1,2,422,1.0275,14.740792,4.639334,62.2043325,-1.512253,-79.308626,1.059633,1,1,0,FF
AA55,1,2,423,1.03,14.683175,4.620417,62.3483395,-1.516686,-79.146792,1.069008,1,1,0,FF
AA55,1,2,424,1.0325,14.625912,4.601497,62.49232875,-1.520548,-78.977551,1.079673,1,1,0,FF
AA55,1,2,425,1.035,14.568999,4.582573,62.6363,-1.523863,-78.799973,1.091565,1,1,0,FF
AA55,1,2,426,1.0375,14.512431,4.563646,62.78025375,-1.52659,-78.614656,1.104583,1,0,0,FF
AA55,1,2,427,1.04,14.456204,4.544715,62.9241895,-1.528752,-78.420528,1.118669,1,0,0,FF
AA55,1,2,428,1.0425,14.400314,4.525782,63.06810725,-1.530328,-78.217333,1.133742,1,0,0,FF
AA55,1,2,429,1.045,14.344757,4.506846,63.212007,-1.531288,-78.005054,1.149726,1,0,0,FF
AA55,1,2,430,1.0475,14.289528,4.487907,63.35588875,-1.531642,-77.782944,1.166593,1,0,0,FF
AA55,1,2,431,1.05,14.234623,4.468966,63.49975225,-1.531363,-77.551009,1.184284,1,1,0,FF
AA55,1,2,432,1.0525,14.180038,4.450022,63.643598,-1.530424,-77.309248,1.202751,1,1,0,FF
AA55,1,2,433,1.055,14.125768,4.431075,63.78742525,-1.528735,-77.0587,1.221879,1,1,0,FF
AA55,1,2,434,1.0575,14.071808,4.412126,63.9312345,-1.526251,-76.799264,1.241494,1,1,0,FF
AA55,1,2,435,1.06,14.018154,4.393173,64.07502525,-1.522975,-76.530079,1.261538,1,1,0,FF
AA55,1,2,436,1.0625,13.964801,4.374219,64.21879775,-1.518891,-76.250957,1.281934,1,0,0,FF
AA55,1,2,437,1.065,13.911745,4.355262,64.362552,-1.513993,-75.961604,1.30263,1,0,0,FF
AA55,1,2,438,1.0675,13.858982,4.336303,64.50628775,-1.508296,-75.661445,1.323582,1,0,0,FF
AA55,1,2,439,1.07,13.806507,4.317345,64.65000525,-1.501894,-75.348903,1.344772,1,0,0,FF
AA55,1,2,440,1.0725,13.754315,4.298386,64.79370425,-1.494823,-75.023027,1.366153,1,0,0,FF
AA55,1,2,441,1.075,13.702402,4.279428,64.93738475,-1.487047,-74.684251,1.38765,1,0,0,FF
AA55,1,2,442,1.0775,13.650763,4.260471,65.08104675,-1.478544,-74.332712,1.409231,1,0,0,FF
AA55,1,2,443,1.08,13.599394,4.241516,65.22469025,-1.469412,-73.966761,1.430981,1,0,0,FF
AA55,1,2,444,1.0825,13.548292,4.222563,65.36831525,-1.459643,-73.586525,1.452875,1,1,0,FF
AA55,1,2,445,1.085,13.497452,4.203613,65.51192175,-1.449183,-73.192759,1.474835,1,1,0,FF
AA55,1,2,446,1.0875,13.44687,4.184667,65.6555095,-1.43803,-72.785287,1.496866,1,1,0,FF
AA55,1,2,447,1.09,13.396541,4.165723,65.79907875,-1.426127,-72.364963,1.518889,1,1,0,FF
AA55,1,2,448,1.0925,13.346462,4.146784,65.94262925,-1.413463,-71.932031,1.540836,1,1,0,FF
AA55,1,2,449,1.095,13.296627,4.127848,66.086161,-1.399994,-71.486434,1.56263,1,0,0,FF
AA55,1,2,450,1.0975,13.247032,4.108918,66.22967425,-1.385673,-71.028491,1.584181,1,0,0,FF
AA55,1,2,451,1.1,13.197673,4.089993,66.3731685,-1.370502,-70.558181,1.605481,1,0,0,FF
AA55,1,2,452,1.1025,13.148547,4.071075,66.51664375,-1.354502,-70.075208,1.626551,1,0,0,FF
AA55,1,2,453,1.105,13.099649,4.052166,66.66010025,-1.337689,-69.579217,1.647378,1,0,0,FF
AA55,1,2,454,1.1075,13.050975,4.033265,66.80353775,-1.320049,-69.070453,1.66791,1,1,0,FF
AA55,1,2,455,1.11,13.002522,4.014373,66.94695625,-1.301481,-68.54825,1.687996,1,1,0,FF
AA55,1,2,456,1.1125,12.954284,3.995491,67.09035575,-1.28197,-68.012613,1.707639,1,1,0,FF
AA55,1,2,457,1.115,12.906259,3.97662,67.233736,-1.261561,-67.462717,1.726877,1,1,0,FF
AA55,1,2,458,1.1175,12.858442,3.957761,67.377097,-1.2402,-66.898754,1.745634,1,1,0,FF
AA55,1,2,459,1.12,12.81083,3.938915,67.520439,-1.217874,-66.320988,1.763966,1,0,0,FF
AA55,1,2,460,1.1225,12.763421,3.920083,67.6637615,-1.19461,-65.729306,1.781935,1,0,0,FF
AA55,1,2,461,1.125,12.71621,3.901266,67.807065,-1.170411,-65.123905,1.799517,1,0,0,FF
AA55,1,2,462,1.1275,12.669195,3.882466,67.950349,-1.145343,-64.50477,1.816788,1,0,0,FF
AA55,1,2,463,1.13,12.622374,3.863684,68.09361375,-1.119534,-63.871653,1.833881,1,0,0,FF
AA55,1,2,464,1.1325,12.575744,3.844922,68.23685925,-1.092893,-63.225997,1.850777,1,0,0,FF
AA55,1,2,465,1.135,12.5293,3.82618,68.3800855,-1.065373,-62.568839,1.867462,1,0,0,FF
AA55,1,2,466,1.1375,12.483041,3.80746,68.52329225,-1.037028,-61.900518,1.883966,1,0,0,FF
AA55,1,2,467,1.14,12.436963,3.788761,68.6664795,-1.007797,-61.222382,1.900262,1,1,0,FF
AA55,1,2,468,1.1425,12.391064,3.770086,68.8096475,-0.977699,-60.535155,1.916394,1,1,0,FF
AA55,1,2,469,1.145,12.345341,3.751436,68.952796,-0.946857,-59.838934,1.932458,1,1,0,FF
AA55,1,2,470,1.1475,12.299792,3.732813,69.095925,-0.915355,-59.134148,1.948536,1,1,0,FF
AA55,1,2,471,1.15,12.254415,3.714221,69.23903475,-0.883309,-58.421239,1.964755,1,1,0,FF
AA55,1,2,472,1.1525,12.209208,3.695658,69.382125,-0.850709,-57.701206,1.981108,1,0,0,FF
AA55,1,2,473,1.155,12.164168,3.677128,69.52519575,-0.817537,-56.974875,1.99758,1,0,0,FF
AA55,1,2,474,1.1575,12.119293,3.658631,69.668247,-0.783946,-56.24256,2.01436,1,0,0,FF
AA55,1,2,475,1.16,12.074583,3.640171,69.81127875,-0.750068,-55.503614,2.031578,1,0,0,FF
AA55,1,2,476,1.1625,12.030033,3.621749,69.95429125,-0.71588,-54.758818,2.049191,1,0,0,FF
AA55,1,2,477,1.165,11.98564,3.603363,70.097284,-0.681296,-54.009106,2.067162,1,1,0,FF
AA55,1,2,478,1.1675,11.941402,3.585016,70.24025725,-0.646364,-53.254877,2.085528,1,1,0,FF
AA55,1,2,479,1.17,11.897317,3.566709,70.383211,-0.611074,-52.496805,2.104287,1,1,0,FF
AA55,1,2,480,1.1725,11.853381,3.548443,70.52614525,-0.575473,-51.735378,2.123479,1,1,0,FF
AA55,1,2,481,1.175,11.809594,3.53022,70.66905975,-0.539753,-50.970544,2.143223,1,1,0,FF
AA55,1,2,482,1.1775,11.765954,3.512043,70.81195475,-0.503937,-50.202919,2.163533,1,0,0,FF
AA55,1,2,483,1.18,11.722457,3.493912,70.95483,-0.468107,-49.43291,2.184428,1,0,0,FF
AA55,1,2,484,1.1825,11.679102,3.47583,71.097686,-0.432324,-48.661316,2.205936,1,0,0,FF
AA55,1,2,485,1.185,11.635886,3.457796,71.240522,-0.396573,-47.889106,2.22803,1,0,0,FF
AA55,1,2,486,1.1875,11.592807,3.439813,71.3833385,-0.360853,-47.116951,2.250668,1,0,0,FF
AA55,1,2,487,1.19,11.549862,3.42188,71.5261355,-0.325134,-46.345613,2.273799,1,1,0,FF
AA55,1,2,488,1.1925,11.507049,3.404,71.66891275,-0.289546,-45.575484,2.297468,1,1,0,FF
AA55,1,2,489,1.195,11.464366,3.386174,71.81167025,-0.254215,-44.807019,2.321713,1,1,0,FF
AA55,1,2,490,1.1975,11.421812,3.368406,71.954408,-0.219277,-44.04035,2.346551,1,1,0,FF
AA55,1,2,491,1.2,11.379384,3.350698,72.09712625,-0.184837,-43.275838,2.371986,1,1,0,FF
AA55,1,2,492,1.2025,11.337081,3.333049,72.23982475,-0.150878,-42.514252,2.39798,1,0,0,FF
AA55,1,2,493,1.205,11.2949,3.315461,72.38250375,-0.117459,-41.756089,2.424537,1,0,0,FF
AA55,1,2,494,1.2075,11.252839,3.297937,72.525163,-0.084684,-41.001689,2.451685,1,0,0,FF
AA55,1,2,495,1.21,11.210897,3.280478,72.6678025,-0.05256,-40.251781,2.479386,1,0,0,FF
AA55,1,2,496,1.2125,11.16907,3.263086,72.81042225,-0.021138,-39.506791,2.507621,1,0,0,FF
AA55,1,2,497,1.215,11.127358,3.245761,72.95302225,0.009512,-38.767062,2.536362,1,0,0,FF
AA55,1,2,498,1.2175,11.085758,3.228505,73.09560275,0.039372,-38.033072,2.565556,1,0,0,FF
AA55,1,2,499,1.22,11.044268,3.21132,73.2381635,0.068429,-37.305262,2.595161,1,0,0,FF
AA55,1,2,500,1.2225,11.002886,3.194207,73.3807045,0.096569,-36.583868,2.625185,1,1,0,FF
AA55,1,2,501,1.225,10.961609,3.177169,73.52322575,0.123729,-35.869287,2.655629,1,1,0,FF
AA55,1,2,502,1.2275,10.920436,3.160204,73.66572725,0.150009,-35.162279,2.686397,1,1,0,FF
AA55,1,2,503,1.23,10.879365,3.143315,73.808209,0.175277,-34.462944,2.717485,1,1,0,FF
AA55,1,2,504,1.2325,10.838394,3.126506,73.95067125,0.19935,-33.771324,2.748911,1,1,0,FF
AA55,1,2,505,1.235,10.797522,3.109777,74.09311375,0.222244,-33.087999,2.780633,1,0,0,FF
AA55,1,2,506,1.2375,10.756747,3.093131,74.2355365,0.243858,-32.413213,2.812643,1,0,0,FF
AA55,1,2,507,1.24,10.716067,3.076569,74.3779395,0.264085,-31.747133,2.844936,1,0,0,FF
AA55,1,2,508,1.2425,10.67548,3.060092,74.520323,0.283005,-31.090362,2.877412,1,0,0,FF
AA55,1,2,509,1.245,10.634984,3.0437,74.6626865,0.300766,-30.443469,2.909947,1,0,0,FF
AA55,1,2,510,1.2475,10.594575,3.027392,74.8050305,0.317445,-29.806933,2.942453,1,1,0,FF
AA55,1,2,511,1.25,10.554251,3.011168,74.94735475,0.333115,-29.181516,2.974846,1,1,0,FF
AA55,1,2,512,1.2525,10.514011,2.995028,75.089659,0.347908,-28.567914,3.00703,1,1,0,FF
AA55,1,2,513,1.255,10.473852,2.978974,75.23194375,0.361754,-27.966316,3.038945,1,1,0,FF
AA55,1,2,514,1.2575,10.433773,2.963007,75.3742085,0.37461,-27.37693,3.070526,1,1,0,FF
AA55,1,2,515,1.26,10.39377,2.947124,75.5164535,0.3867,-26.799555,3.101629,1,0,0,FF
AA55,1,2,516,1.2625,10.353842,2.931325,75.65867875,0.398184,-26.234977,3.132173,1,0,0,FF
AA55,1,2,517,1.265,10.313986,2.915609,75.800884,0.409046,-25.683174,3.162108,1,0,0,FF
AA55,1,2,518,1.2675,10.274201,2.899979,75.94306925,0.419239,-25.144143,3.191392,1,0,0,FF
AA55,1,2,519,1.27,10.234485,2.884433,76.08523475,0.428852,-24.618243,3.219946,1,0,0,FF
AA55,1,2,520,1.2725,10.194837,2.868973,76.22738025,0.437818,-24.105699,3.247759,1,1,0,FF
AA55,1,2,521,1.275,10.155256,2.853601,76.369506,0.446094,-23.606822,3.274808,1,1,0,FF
AA55,1,2,522,1.2775,10.115738,2.838313,76.51161175,0.453831,-23.122296,3.301003,1,1,0,FF
AA55,1,2,523,1.28,10.076281,2.823107,76.6536975,0.461117,-22.652847,3.326318,1,1,0,FF
AA55,1,2,524,1.2825,10.036883,2.807983,76.79576325,0.468039,-22.199052,3.350708,1,1,0,FF
AA55,1,2,525,1.285,9.997543,2.792939,76.93780875,0.474495,-21.761032,3.374151,1,0,0,FF
AA55,1,2,526,1.2875,9.958259,2.777977,77.0798345,0.480359,-21.338929,3.396627,1,0,0,FF
AA55,1,2,527,1.29,9.919028,2.763094,77.22183975,0.485854,-20.933655,3.41807,1,0,0,FF
AA55,1,2,528,1.2925,9.879849,2.748287,77.363825,0.491098,-20.545952,3.43846,1,0,0,FF
AA55,1,2,529,1.295,9.84072,2.733555,77.50579,0.496103,-20.176194,3.457783,1,0,0,FF
AA55,1,2,530,1.2975,9.80164,2.718897,77.64773475,0.500968,-19.824977,3.476015,1,0,0,FF
AA55,1,2,531,1.3,9.762607,2.704313,77.78965925,0.50564,-19.492718,3.493167,1,0,0,FF
AA55,1,2,532,1.3025,9.72362,2.689801,77.93156325,0.510083,-19.179751,3.509236,1,0,0,FF
AA55,1,2,533,1.305,9.684677,2.67536,78.073447,0.514537,-18.886893,3.524177,1,1,0,FF
AA55,1,2,534,1.3075,9.645778,2.660987,78.2153105,0.518997,-18.614396,3.537981,1,1,0,FF
AA55,1,2,535,1.31,9.606921,2.646683,78.3571535,0.523301,-18.365273,3.550676,1,1,0,FF
AA55,1,2,536,1.3125,9.568104,2.632446,78.49897625,0.527571,-18.139933,3.562222,1,1,0,FF
AA55,1,2,537,1.315,9.529327,2.618273,78.6407785,0.531876,-17.939458,3.572576,1,1,0,FF
AA55,1,2,538,1.3175,9.490589,2.604165,78.78256,0.53621,-17.764495,3.581737,1,0,0,FF
AA55,1,2,539,1.32,9.451892,2.590128,78.9243215,0.540574,-17.594737,3.58971,1,0,0,FF
AA55,1,2,540,1.3225,9.413236,2.576164,79.0660625,0.544872,-17.429806,3.596509,1,0,0,FF
AA55,1,2,541,1.325,9.374621,2.562276,79.20778325,0.549076,-17.263094,3.602152,1,0,0,FF
AA55,1,2,542,1.3275,9.336048,2.548465,79.349484,0.553103,-17.090413,3.606673,1,0,0,FF
AA55,1,2,543,1.33,9.297516,2.534729,79.49116425,0.556677,-16.908637,3.610169,1,1,0,FF
AA55,1,2,544,1.3325,9.259024,2.521069,79.63282425,0.559657,-16.716137,3.612717,1,1,0,FF
AA55,1,2,545,1.335,9.220571,2.507483,79.774464,0.562041,-16.5127,3.614395,1,1,0,FF
AA55,1,2,546,1.3375,9.182157,2.493969,79.91608325,0.564027,-16.299105,3.615226,1,1,0,FF
AA55,1,2,547,1.34,9.143781,2.480525,80.05768225,0.565667,-16.076548,3.615233,1,1,0,FF
AA55,1,2,548,1.3425,9.105442,2.467154,80.19926075,0.566762,-15.846549,3.614502,1,0,0,FF
AA55,1,2,549,1.345,9.067142,2.453855,80.340819,0.56736,-15.611584,3.613112,1,0,0,FF
AA55,1,2,550,1.3475,9.028879,2.440627,80.482357,0.567658,-15.374382,3.611091,1,0,0,FF
AA55,1,2,551,1.35,8.990651,2.427467,80.62387475,0.567816,-15.137674,3.608482,1,0,0,FF
AA55,1,2,552,1.3525,8.952461,2.414377,80.76537225,0.567918,-14.904257,3.605361,1,0,0,FF
AA55,1,2,553,1.355,8.914305,2.401354,80.9068495,0.567961,-14.676452,3.60178,1,1,0,FF
AA55,1,2,554,1.3575,8.876184,2.388397,81.0483065,0.567948,-14.456552,3.597799,1,1,0,FF
AA55,1,2,555,1.36,8.838098,2.375504,81.189743,0.567825,-14.24662,3.593477,1,1,0,FF
AA55,1,2,556,1.3625,8.800044,2.362677,81.33115925,0.567468,-14.048201,3.588876,1,1,0,FF
AA55,1,2,557,1.365,8.762024,2.349914,81.472555,0.566855,-13.862802,3.584046,1,1,0,FF
AA55,1,2,558,1.3675,8.724036,2.337212,81.6139305,0.566118,-13.691994,3.579027,1,0,0,FF
AA55,1,2,559,1.37,8.686079,2.324571,81.75528575,0.565209,-13.536825,3.573855,1,0,0,FF
AA55,1,2,560,1.3725,8.648155,2.311992,81.8966205,0.564067,-13.398134,3.568588,1,0,0,FF
AA55,1,2,561,1.375,8.610261,2.299473,82.037935,0.562662,-13.276583,3.563272,1,0,0,FF
AA55,1,2,562,1.3775,8.572399,2.287014,82.179229,0.56096,-13.172655,3.557939,1,0,0,FF
AA55,1,2,563,1.38,8.534568,2.274615,82.3205025,0.558917,-13.086576,3.552612,1,0,0,FF
AA55,1,2,564,1.3825,8.496767,2.262274,82.461756,0.556607,-13.018595,3.547291,1,0,0,FF
AA55,1,2,565,1.385,8.458996,2.249989,82.60298875,0.554158,-12.968926,3.541978,1,0,0,FF
AA55,1,2,566,1.3875,8.421254,2.23776,82.74420125,0.551602,-12.937417,3.53664,1,1,0,FF
AA55,1,2,567,1.39,8.383542,2.225585,82.8853935,0.548922,-12.923713,3.531249,1,1,0,FF
AA55,1,2,568,1.3925,8.34586,2.213467,83.02656525,0.546055,-12.927537,3.525811,1,1,0,FF
AA55,1,2,569,1.395,8.308207,2.201404,83.1677165,0.543043,-12.948828,3.520342,1,1,0,FF
AA55,1,2,570,1.3975,8.270584,2.189396,83.3088475,0.539862,-12.987169,3.514827,1,1,0,FF
AA55,1,2,571,1.4,8.23299,2.177442,83.44995825,0.53656,-13.042213,3.509245,1,0,0,FF
AA55,1,2,572,1.4025,8.195425,2.165541,83.5910485,0.53322,-13.113677,3.503588,1,0,0,FF
AA55,1,2,573,1.405,8.157889,2.153691,83.73211825,0.529889,-13.201305,3.497858,1,0,0,FF
AA55,1,2,574,1.4075,8.120383,2.141893,83.873168,0.52655,-13.304812,3.492074,1,0,0,FF
AA55,1,2,575,1.41,8.082906,2.130144,84.01419725,0.523421,-13.421552,3.486177,1,0,0,FF
AA55,1,2,576,1.4125,8.045458,2.118442,84.155206,0.520737,-13.551181,3.480111,1,1,0,FF
AA55,1,2,577,1.415,8.008039,2.106785,84.29619475,0.518539,-13.692415,3.473844,1,1,0,FF
AA55,1,2,578,1.4175,7.97065,2.095174,84.437163,0.516886,-13.844381,3.467363,1,1,0,FF
AA55,1,2,579,1.42,7.93329,2.08361,84.578111,0.515599,-14.00609,3.460674,1,1,0,FF
AA55,1,2,580,1.4225,7.89596,2.072092,84.71903875,0.514675,-14.17696,3.45377,1,1,0,FF
AA55,1,2,581,1.425,7.858661,2.060622,84.85994625,0.514041,-14.356532,3.446675,1,0,0,FF
AA55,1,2,582,1.4275,7.821393,2.049201,85.0008335,0.513632,-14.54429,3.439368,1,0,0,FF
AA55,1,2,583,1.43,7.784156,2.037824,85.1417005,0.513718,-14.740224,3.431816,1,0,0,FF
AA55,1,2,584,1.4325,7.746949,2.026492,85.28254725,0.514266,-14.943994,3.424009,1,0,0,FF
AA55,1,2,585,1.435,7.709774,2.015205,85.423374,0.515172,-15.155256,3.415944,1,0,0,FF
AA55,1,2,586,1.4375,7.672631,2.003963,85.56418025,0.516477,-15.37399,3.407627,1,1,0,FF
AA55,1,2,587,1.44,7.635521,1.992765,85.7049665,0.518225,-15.600158,3.399055,1,1,0,FF
AA55,1,2,588,1.4425,7.598442,1.98161,85.8457325,0.520346,-15.833618,3.390236,1,1,0,FF
AA55,1,2,589,1.445,7.561397,1.970502,85.9864785,0.522683,-16.074068,3.3812,1,1,0,FF
AA55,1,2,590,1.4475,7.524385,1.959439,86.12720425,0.525209,-16.321207,3.371916,1,1,0,FF
AA55,1,2,591,1.45,7.487408,1.94842,86.26790975,0.527931,-16.5748,3.362349,1,0,0,FF
AA55,1,2,592,1.4525,7.450464,1.937447,86.40859525,0.530844,-16.834771,3.3525,1,0,0,FF
AA55,1,2,593,1.455,7.413554,1.926516,86.5492605,0.534031,-17.101112,3.342377,1,0,0,FF
AA55,1,2,594,1.4575,7.37668,1.915626,86.68990575,0.537571,-17.373741,3.331979,1,0,0,FF
AA55,1,2,595,1.46,7.339839,1.904776,86.83053075,0.541485,-17.654157,3.321305,1,0,0,FF
AA55,1,2,596,1.4625,7.303033,1.893966,86.97113575,0.545749,-17.942137,3.31035,1,0,0,FF
AA55,1,2,597,1.465,7.266263,1.883194,87.11172075,0.550421,-18.23824,3.299129,1,0,0,FF
AA55,1,2,598,1.4675,7.229528,1.872459,87.2522855,0.55558,-18.542645,3.287637,1,0,0,FF
AA55,1,2,599,1.47,7.192829,1.861761,87.39283,0.561217,-18.855282,3.27586,1,1,0,FF
AA55,1,2,600,1.4725,7.156166,1.8511,87.5333545,0.56726,-19.175949,3.263801,1,1,0,FF
AA55,1,2,601,1.475,7.119541,1.840478,87.673859,0.573544,-19.504321,3.251484,1,1,0,FF
AA55,1,2,602,1.4775,7.082954,1.829896,87.8143435,0.580014,-19.840116,3.238939,1,1,0,FF
AA55,1,2,603,1.48,7.046407,1.819353,87.95480775,0.586674,-20.182904,3.226154,1,1,0,FF
AA55,1,2,604,1.4825,7.009899,1.808851,88.095252,0.59344,-20.532083,3.213133,1,0,0,FF
AA55,1,2,605,1.485,6.973431,1.798388,88.23567625,0.600274,-20.887155,3.199888,1,0,0,FF
AA55,1,2,606,1.4875,6.937005,1.787967,88.37608075,0.60704,-21.247593,3.186444,1,0,0,FF
AA55,1,2,607,1.49,6.900623,1.77759,88.516465,0.613559,-21.612574,3.172816,1,0,0,FF
AA55,1,2,608,1.4925,6.864283,1.767256,88.65682925,0.619952,-21.981683,3.158955,1,0,0,FF
AA55,1,2,609,1.495,6.827987,1.756963,88.7971735,0.626292,-22.354641,3.144857,1,1,0,FF
AA55,1,2,610,1.4975,6.791736,1.746711,88.937498,0.632554,-22.73103,3.13053,1,1,0,FF
AA55,1,2,611,1.5,6.755529,1.736502,89.0778025,0.638714,-23.110335,3.115952,1,1,0,FF
AA55,1,2,612,1.5025,6.719369,1.726335,89.218087,0.644773,-23.492092,3.101101,1,1,0,FF
AA55,1,2,613,1.505,6.683256,1.716211,89.3583515,0.650671,-23.875832,3.085983,1,1,0,FF
AA55,1,2,614,1.5075,6.647192,1.706132,89.49859625,0.656292,-24.261031,3.070608,1,0,0,FF
AA55,1,2,615,1.51,6.611176,1.696096,89.63882125,0.661761,-24.64531,3.054952,1,0,0,FF
AA55,1,2,616,1.5125,6.575211,1.686103,89.77902625,0.667149,-25.028453,3.038993,1,0,0,FF
AA55,1,2,617,1.515,6.539296,1.676155,89.91921125,0.672388,-25.409307,3.022727,1,0,0,FF
AA55,1,2,618,1.5175,6.503434,1.666254,90.05937675,0.67736,-25.787102,3.006193,1,0,0,FF
AA55,1,2,619,1.52,6.467625,1.656398,90.19952225,0.682079,-26.161315,2.989379,1,1,0,FF
AA55,1,2,620,1.5225,6.43187,1.646588,90.339648,0.686593,-26.531649,2.972274,1,1,0,FF
AA55,1,2,621,1.525,6.396171,1.636824,90.479754,0.69089,-26.89801,2.954906,1,1,0,FF
AA55,1,2,622,1.5275,6.360528,1.627107,90.61984,0.694827,-27.260204,2.93733,1,1,0,FF
AA55,1,2,623,1.53,6.324943,1.61744,90.7599065,0.698332,-27.618127,2.919568,1,1,0,FF
AA55,1,2,624,1.5325,6.289417,1.607821,90.8999535,0.701358,-27.971881,2.901645,1,0,0,FF
AA55,1,2,625,1.535,6.253951,1.598253,91.0399805,0.703911,-28.321747,2.883571,1,0,0,FF
AA55,1,2,626,1.5375,6.218545,1.588732,91.179988,0.706043,-28.66795,2.86533,1,0,0,FF
AA55,1,2,627,1.54,6.1832,1.579259,91.31997575,0.707823,-29.010895,2.846927,1,0,0,FF
AA55,1,2,628,1.5425,6.147916,1.569832,91.45994375,0.709286,-29.350947,2.828364,1,0,0,FF
AA55,1,2,629,1.545,6.112695,1.560453,91.59989225,0.710381,-29.688159,2.809664,1,0,0,FF
AA55,1,2,630,1.5475,6.077538,1.551123,91.739821,0.711046,-30.022743,2.790886,1,0,0,FF
AA55,1,2,631,1.55,6.042445,1.54184,91.87973,0.711337,-30.354939,2.77203,1,0,0,FF
AA55,1,2,632,1.5525,6.007416,1.532603,92.0196195,0.711363,-30.684962,2.753049,1,1,0,FF
AA55,1,2,633,1.555,5.972453,1.523414,92.15948925,0.711106,-31.012939,2.733973,1,1,0,FF
AA55,1,2,634,1.5575,5.937557,1.514271,92.2993395,0.710575,-31.339012,2.714829,1,1,0,FF
AA55,1,2,635,1.56,5.902727,1.505175,92.43917,0.709707,-31.664939,2.69566,1,1,0,FF
AA55,1,2,636,1.5625,5.867965,1.496125,92.578981,0.708587,-31.99096,2.676428,1,1,0,FF
AA55,1,2,637,1.565,5.833271,1.487118,92.7187725,0.707425,-32.318064,2.657098,1,0,0,FF
AA55,1,2,638,1.5675,5.798644,1.478154,92.85854425,0.706221,-32.646577,2.637673,1,0,0,FF
AA55,1,2,639,1.57,5.764085,1.469233,92.99829625,0.705025,-32.976771,2.618131,1,0,0,FF
AA55,1,2,640,1.5725,5.729595,1.460353,93.13802875,0.703924,-33.308964,2.598459,1,0,0,FF
AA55,1,2,641,1.575,5.695174,1.451514,93.27774175,0.702894,-33.643123,2.578678,1,0,0,FF
AA55,1,2,642,1.5775,5.660824,1.442718,93.417435,0.701919,-33.979099,2.558794,1,1,0,FF
AA55,1,2,643,1.58,5.626546,1.433963,93.55710875,0.701005,-34.316732,2.538808,1,1,0,FF
AA55,1,2,644,1.5825,5.59234,1.425249,93.696763,0.700107,-34.655759,2.518748,1,1,0,FF
AA55,1,2,645,1.585,5.558206,1.416578,93.83639775,0.69924,-34.995767,2.498572,1,1,0,FF
AA55,1,2,646,1.5875,5.524146,1.407947,93.976013,0.698486,-35.336402,2.478243,1,1,0,FF
AA55,1,2,647,1.59,5.490161,1.399358,94.1156085,0.697748,-35.677187,2.457802,1,0,0,FF
AA55,1,2,648,1.5925,5.456251,1.39081,94.25518475,0.697027,-36.017806,2.437242,1,0,0,FF
AA55,1,2,649,1.595,5.422418,1.382303,94.39474125,0.69639,-36.358119,2.416537,1,0,0,FF
AA55,1,2,650,1.5975,5.388662,1.373838,94.5342785,0.695708,-36.697618,2.395734,0,0,0,FF
AA55,1,2,651,1.6,5.354984,1.365415,94.67379625,0.694984,-37.035979,2.374832,0,0,0,FF
AA55,1,2,652,1.6025,5.321385,1.357032,94.8132945,0.694398,-37.373365,2.353759,0,0,0,FF
AA55,1,2,653,1.605,5.287865,1.348688,94.95277325,0.694007,-37.709891,2.332521,0,0,0,FF
AA55,1,2,654,1.6075,5.254425,1.340383,95.0922325,0.693768,-38.045159,2.311131,0,0,0,FF
AA55,1,2,655,1.61,5.221066,1.332118,95.2316725,0.693621,-38.378327,2.289567,0,1,0,FF
AA55,1,2,656,1.6125,5.18779,1.323894,95.371093,0.693511,-38.70929,2.26788,0,1,0,FF
AA55,1,2,657,1.615,5.154597,1.31571,95.51049425,0.693515,-39.038041,2.246067,0,1,0,FF
AA55,1,2,658,1.6175,5.121489,1.307566,95.649876,0.693581,-39.364152,2.224139,0,1,0,FF
AA55,1,2,659,1.62,5.088466,1.299462,95.7892385,0.693578,-39.687222,2.202139,0,1,0,FF
AA55,1,2,660,1.6225,5.05553,1.291399,95.9285815,0.693604,-40.007433,2.180056,0,0,0,FF
AA55,1,2,661,1.625,5.02268,1.283375,96.06790525,0.693761,-40.32483,2.157859,0,0,0,FF
AA55,1,2,662,1.6275,4.989916,1.275388,96.20720975,0.694127,-40.639556,2.135532,0,0,0,FF
AA55,1,2,663,1.63,4.957241,1.26744,96.34649475,0.694658,-40.951428,2.113102,0,0,0,FF
AA55,1,2,664,1.6325,4.924655,1.25953,96.4857605,0.695368,-41.260527,2.090585,0,0,0,FF
AA55,1,2,665,1.635,4.89216,1.251658,96.625007,0.696259,-41.56697,2.068017,0,1,0,FF
AA55,1,2,666,1.6375,4.859755,1.243824,96.76423425,0.69726,-41.870484,2.045417,0,1,0,FF
AA55,1,2,667,1.64,4.827442,1.236028,96.903442,0.698414,-42.17112,2.022766,0,1,0,FF
AA55,1,2,668,1.6425,4.795222,1.22827,97.04263075,0.699703,-42.468758,2.000077,0,1,0,FF
AA55,1,2,669,1.645,4.763096,1.220551,97.1818,0.701068,-42.763341,1.977413,0,1,0,FF
AA55,1,2,670,1.6475,4.731066,1.21287,97.32095025,0.70247,-43.055023,1.954845,0,0,0,FF
AA55,1,2,671,1.65,4.699133,1.205228,97.46008125,0.703875,-43.343638,1.932389,0,0,0,FF
AA55,1,2,672,1.6525,4.667296,1.197624,97.599193,0.705333,-43.629271,1.910033,0,0,0,FF
AA55,1,2,673,1.655,4.635558,1.190059,97.7382855,0.706822,-43.91189,1.887792,0,0,0,FF
AA55,1,2,674,1.6575,4.603918,1.182532,97.87735875,0.708262,-44.191254,1.865711,0,0,0,FF
AA55,1,2,675,1.66,4.572379,1.175043,98.016413,0.709677,-44.467862,1.843777,0,1,0,FF
AA55,1,2,676,1.6625,4.54094,1.167592,98.15544775,0.711116,-44.741775,1.821957,0,1,0,FF
AA55,1,2,677,1.665,4.509602,1.160178,98.2944635,0.712564,-45.013019,1.800239,0,1,0,FF
AA55,1,2,678,1.6675,4.478366,1.152801,98.43346025,0.713991,-45.281482,1.77863,0,1,0,FF
AA55,1,2,679,1.67,4.447232,1.145461,98.5724375,0.71548,-45.547445,1.757085,0,1,0,FF
AA55,1,2,680,1.6725,4.416201,1.138157,98.71139575,0.717059,-45.810861,1.735581,0,0,0,FF
AA55,1,2,681,1.675,4.385273,1.13089,98.85033475,0.718682,-46.07145,1.714132,0,0,0,FF
AA55,1,2,682,1.6775,4.35445,1.123659,98.98925475,0.720319,-46.328958,1.69274,0,0,0,FF
AA55,1,2,683,1.68,4.323733,1.116465,99.1281555,0.721965,-46.583258,1.671403,0,0,0,FF
AA55,1,2,684,1.6825,4.293122,1.109308,99.267037,0.723548,-46.834117,1.650159,0,0,0,FF
AA55,1,2,685,1.685,4.262618,1.102188,99.4058995,0.725015,-47.081158,1.629006,0,0,0,FF
AA55,1,2,686,1.6875,4.232224,1.095105,99.544743,0.726352,-47.324541,1.608004,0,0,0,FF
AA55,1,2,687,1.69,4.201939,1.08806,99.68356725,0.727594,-47.564488,1.587187,0,0,0,FF
AA55,1,2,688,1.6925,4.171763,1.081049,99.82237225,0.728871,-47.80127,1.566462,0,1,0,FF
