#Header,Sender ID,Target ID,MSG Counter,Time, Object X,Object Y,Object Z,Object Roll,Object Pitch,Object Yaw,Smoke,Object Model,spare,CheckSum
AA55,1,2,11,0.0000,40.000000,0.000000,0.000000,0.000000,10.000000,0.000000,1,0,0,FF
AA55,1,2,12,0.0010,40.000000,0.000000,0.000000,0.000000,10.000000,0.000000,1,0,0,FF
AA55,1,2,13,0.0050,40.000000,0.000000,0.000000,-0.000010,10.000000,0.000004,1,0,0,FF
AA55,1,2,14,0.0075,40.000000,0.000289,0.001641,-0.000010,10.000000,0.000004,1,0,0,FF
AA55,1,2,15,0.0100,40.000000,0.000771,0.004374,-0.000010,10.000000,0.000004,1,1,0,FF
AA55,1,2,16,0.0125,40.000000,0.001446,0.008201,-0.000010,10.000000,0.000004,1,1,0,FF
AA55,1,2,17,0.0150,40.000000,0.002313,0.013120,-0.000010,10.000000,0.000004,1,1,0,FF
AA55,1,2,18,0.0175,40.000000,0.003373,0.019132,-0.000010,10.000000,0.000004,1,1,0,FF
AA55,1,2,19,0.0200,40.000000,0.004626,0.026235,-0.000010,10.000000,0.000004,1,1,0,FF
AA55,1,2,20,0.0225,40.000000,0.006071,0.034431,-0.000010,10.000000,0.000004,1,0,0,FF
AA55,1,2,21,0.0250,40.000000,0.007709,0.043718,-0.000010,10.000000,0.000004,1,0,0,FF
AA55,1,2,22,0.0275,40.000000,0.009539,0.054096,-0.000010,10.000000,0.000004,1,0,0,FF
AA55,1,2,23,0.0300,40.000000,0.011561,0.065566,-0.000010,10.000000,0.000004,1,0,0,FF
AA55,1,2,24,0.0325,40.000000,0.013776,0.078126,-0.000010,10.000000,0.000004,1,0,0,FF
AA55,1,2,25,0.0350,40.000000,0.016183,0.091778,-0.000010,10.000000,0.000004,1,1,0,FF
AA55,1,2,26,0.0375,40.000000,0.018782,0.106519,-0.000010,10.000000,0.000004,1,1,0,FF
AA55,1,2,27,0.0400,40.000000,0.021574,0.122350,-0.000010,10.000000,0.000004,1,1,0,FF
AA55,1,2,28,0.0425,40.000000,0.024557,0.139272,-0.000010,10.000000,0.000004,1,1,0,FF
AA55,1,2,29,0.0450,40.000000,0.027733,0.157283,-0.000010,10.000000,0.000004,1,1,0,FF
AA55,1,2,30,0.0475,40.000000,0.031101,0.176383,-0.000010,10.000000,0.000004,1,0,0,FF
AA55,1,2,31,0.0500,40.000000,0.034661,0.196572,-0.000010,10.000000,0.000004,1,0,0,FF
AA55,1,2,32,0.0525,40.000000,0.038413,0.217850,-0.000010,10.000000,0.000004,1,0,0,FF
AA55,1,2,33,0.0550,40.000000,0.042357,0.240217,-0.000010,10.000000,0.000004,1,0,0,FF
AA55,1,2,34,0.0575,40.000000,0.046492,0.263672,-0.000010,10.000000,0.000004,1,0,0,FF
AA55,1,2,35,0.0600,40.000000,0.050820,0.288215,-0.000010,10.000000,0.000004,1,1,0,FF
AA55,1,2,36,0.0625,40.000000,0.055339,0.313846,-0.000010,10.000000,0.000004,1,1,0,FF
AA55,1,2,37,0.0650,40.000000,0.060051,0.340564,-0.000010,10.000000,0.000004,1,1,0,FF
AA55,1,2,38,0.0675,40.000000,0.064954,0.368370,-0.000010,10.000000,0.000004,1,1,0,FF
AA55,1,2,39,0.0700,40.000000,0.070048,0.397263,-0.000010,10.000000,0.000004,1,1,0,FF
AA55,1,2,40,0.0725,40.000000,0.075334,0.427242,-0.000010,10.000000,0.000004,1,0,0,FF
AA55,1,2,41,0.0750,40.000000,0.080812,0.458308,-0.000010,10.000000,0.000004,1,0,0,FF
AA55,1,2,42,0.0775,40.000000,0.086481,0.490460,-0.000010,10.000000,0.000004,1,0,0,FF
AA55,1,2,43,0.0800,40.000000,0.092342,0.523699,-0.000010,10.000000,0.000004,1,0,0,FF
AA55,1,2,44,0.0825,40.000000,0.098394,0.558023,-0.000010,10.000000,0.000004,1,0,0,FF
AA55,1,2,45,0.0850,40.000000,0.104638,0.593432,-0.000010,10.000000,0.000004,1,0,0,FF
AA55,1,2,46,0.0875,40.000000,0.111073,0.629927,-0.000010,10.000000,0.000004,1,0,0,FF
AA55,1,2,47,0.0900,40.000000,0.117699,0.667507,-0.000010,10.000000,0.000004,1,0,0,FF
AA55,1,2,48,0.0925,40.000000,0.124517,0.706171,-0.000010,10.000000,0.000004,1,1,0,FF
AA55,1,2,49,0.0950,40.000000,0.131526,0.745920,-0.000010,10.000000,0.000004,1,1,0,FF
AA55,1,2,50,0.0975,40.000000,0.138726,0.786753,-0.000010,10.000000,0.000004,1,1,0,FF
AA55,1,2,51,0.1000,40.000000,0.146117,0.828670,-0.000010,10.000000,0.000004,1,1,0,FF
AA55,1,2,52,0.1025,40.000000,0.153699,0.871671,-0.000010,10.000000,0.000004,1,1,0,FF
AA55,1,2,53,0.1050,40.000000,0.161472,0.915756,-0.000010,10.000000,0.000004,1,0,0,FF
AA55,1,2,54,0.1075,40.000000,0.169437,0.960923,-0.000010,10.000000,0.000004,1,0,0,FF
AA55,1,2,55,0.1100,40.000000,0.177592,1.007173,-0.000010,10.000000,0.000004,1,0,0,FF
AA55,1,2,56,0.1125,40.000000,0.185938,1.054507,-0.000010,10.000000,0.000004,1,0,0,FF
AA55,1,2,57,0.1150,40.000000,0.194475,1.102922,-0.000010,10.000000,0.000004,1,0,0,FF
AA55,1,2,58,0.1175,40.000000,0.203203,1.152420,-0.000010,10.000000,0.000004,1,1,0,FF
AA55,1,2,59,0.1200,40.000000,0.212121,1.202999,-0.000010,10.000000,0.000004,1,1,0,FF
AA55,1,2,60,0.1225,40.000000,0.221231,1.254661,-0.000010,10.000000,0.000004,1,1,0,FF
AA55,1,2,61,0.1250,40.000000,0.230530,1.307403,-0.000010,10.000000,0.000004,1,1,0,FF
AA55,1,2,62,0.1275,40.000000,0.240021,1.361227,-0.000010,10.000000,0.000004,1,1,0,FF
AA55,1,2,63,0.1300,40.000000,0.249702,1.416131,-0.000010,10.000000,0.000004,1,0,0,FF
AA55,1,2,64,0.1325,40.000000,0.259574,1.472117,-0.000010,10.000000,0.000004,1,0,0,FF
AA55,1,2,65,0.1350,40.000000,0.269636,1.529182,-0.000010,10.000000,0.000004,1,0,0,FF
AA55,1,2,66,0.1375,40.000000,0.279889,1.587328,-0.000010,10.000000,0.000004,1,0,0,FF
AA55,1,2,67,0.1400,40.000000,0.290332,1.646554,-0.000010,10.000000,0.000004,1,0,0,FF
AA55,1,2,68,0.1425,40.000000,0.300965,1.706859,-0.000010,10.000000,0.000004,1,1,0,FF
AA55,1,2,69,0.1450,40.000000,0.311789,1.768243,-0.000010,10.000000,0.000004,1,1,0,FF
AA55,1,2,70,0.1475,40.000000,0.322669,1.830730,-0.000010,10.000000,0.000004,1,1,0,FF
AA55,1,2,71,0.1500,40.000000,0.333695,1.894304,-0.000010,10.000000,0.000004,1,1,0,FF
AA55,1,2,72,0.1525,40.000000,0.344852,1.958967,-0.000010,10.000000,0.000004,1,1,0,FF
AA55,1,2,73,0.1550,40.000000,0.356140,2.024718,-0.000010,10.000000,0.000004,1,0,0,FF
AA55,1,2,74,0.1575,40.000000,0.367558,2.091558,-0.000010,10.000000,0.000004,1,0,0,FF
AA55,1,2,75,0.1600,40.000000,0.379108,2.159486,-0.000010,10.000000,0.000004,1,0,0,FF
AA55,1,2,76,0.1625,40.000000,0.390788,2.228500,-0.000011,9.999989,0.000004,1,0,0,FF
AA55,1,2,77,0.1650,39.999999,0.402599,2.298601,-0.000013,9.999971,0.000005,1,0,0,FF
AA55,1,2,78,0.1675,39.999999,0.414541,2.369788,-0.000015,9.999943,0.000006,1,0,0,FF
AA55,1,2,79,0.1700,39.999999,0.426614,2.442062,-0.000019,9.999904,0.000007,1,0,0,FF
AA55,1,2,80,0.1725,39.999999,0.438819,2.515421,-0.000025,9.999852,0.000009,1,0,0,FF
AA55,1,2,81,0.1750,39.999999,0.451154,2.589865,-0.000034,9.999786,0.000012,1,1,0,FF
AA55,1,2,82,0.1775,39.999999,0.463620,2.665394,-0.000045,9.999704,0.000016,1,1,0,FF
AA55,1,2,83,0.1800,39.999999,0.476217,2.742009,-0.000057,9.999603,0.000019,1,1,0,FF
AA55,1,2,84,0.1825,39.999999,0.488945,2.819708,-0.000071,9.999484,0.000023,1,1,0,FF
AA55,1,2,85,0.1850,39.999999,0.501805,2.898491,-0.000086,9.999345,0.000028,1,1,0,FF
AA55,1,2,86,0.1875,39.999998,0.514795,2.978358,-0.000105,9.999187,0.000033,1,0,0,FF
AA55,1,2,87,0.1900,39.999998,0.527916,3.059309,-0.000127,9.999004,0.000039,1,0,0,FF
AA55,1,2,88,0.1925,39.999998,0.541168,3.141342,-0.000154,9.998791,0.000046,1,0,0,FF
AA55,1,2,89,0.1950,39.999998,0.554552,3.224459,-0.000190,9.998543,0.000054,1,0,0,FF
AA55,1,2,90,0.1975,39.999998,0.568067,3.308659,-0.000242,9.998260,0.000065,1,0,0,FF
AA55,1,2,91,0.2000,39.999998,0.581713,3.393941,-0.000309,9.997940,0.000079,1,1,0,FF
AA55,1,2,92,0.2025,39.999998,0.595491,3.480305,-0.000387,9.997578,0.000095,1,1,0,FF
AA55,1,2,93,0.2050,39.999997,0.609400,3.567750,-0.000476,9.997172,0.000112,1,1,0,FF
AA55,1,2,94,0.2075,39.999997,0.623441,3.656277,-0.000574,9.996721,0.000131,1,1,0,FF
AA55,1,2,95,0.2100,39.999997,0.637613,3.745885,-0.000680,9.996221,0.000151,1,1,0,FF
AA55,1,2,96,0.2125,39.999997,0.651916,3.836574,-0.000792,9.995668,0.000172,1,0,0,FF
AA55,1,2,97,0.2150,39.999997,0.666351,3.928343,-0.000912,9.995058,0.000194,1,0,0,FF
AA55,1,2,98,0.2175,39.999997,0.680918,4.021192,-0.001039,9.994387,0.000218,1,0,0,FF
AA55,1,2,99,0.2200,39.999996,0.695616,4.115121,-0.001176,9.993647,0.000242,1,0,0,FF
AA55,1,2,100,0.2225,39.999996,0.710447,4.210129,-0.001322,9.992834,0.000268,1,0,0,FF
AA55,1,2,101,0.2250,39.999996,0.725409,4.306217,-0.001471,9.991950,0.000295,1,1,0,FF
AA55,1,2,102,0.2275,39.999996,0.740503,4.403383,-0.001618,9.990995,0.000321,1,1,0,FF
AA55,1,2,103,0.2300,39.999996,0.755729,4.501628,-0.001774,9.989964,0.000349,1,1,0,FF
AA55,1,2,104,0.2325,39.999995,0.771087,4.600951,-0.001939,9.988851,0.000378,1,1,0,FF
AA55,1,2,105,0.2350,39.999995,0.786577,4.701352,-0.002115,9.987656,0.000408,1,1,0,FF
AA55,1,2,106,0.2375,39.999995,0.802198,4.802830,-0.002310,9.986374,0.000441,1,0,0,FF
AA55,1,2,107,0.2400,39.999995,0.817952,4.905385,-0.002524,9.984995,0.000476,1,0,0,FF
AA55,1,2,108,0.2425,39.999994,0.833838,5.009018,-0.002758,9.983512,0.000514,1,0,0,FF
AA55,1,2,109,0.2450,39.999994,0.849856,5.113727,-0.003021,9.981919,0.000556,1,0,0,FF
AA55,1,2,110,0.2475,39.999994,0.866007,5.219511,-0.003317,9.980211,0.000601,1,0,0,FF
AA55,1,2,111,0.2500,39.999994,0.882290,5.326372,-0.003650,9.978385,0.000651,1,0,0,FF
AA55,1,2,112,0.2525,39.999993,0.898706,5.434308,-0.004018,9.976437,0.000705,1,0,0,FF
AA55,1,2,113,0.2550,39.999993,0.915254,5.543320,-0.004415,9.974362,0.000763,1,0,0,FF
AA55,1,2,114,0.2575,39.999993,0.931934,5.653406,-0.004846,9.972152,0.000825,1,1,0,FF
AA55,1,2,115,0.2600,39.999993,0.948747,5.764567,-0.005306,9.969807,0.000891,1,1,0,FF
AA55,1,2,116,0.2625,39.999993,0.965693,5.876802,-0.005800,9.967321,0.000960,1,1,0,FF
AA55,1,2,117,0.2650,39.999992,0.982771,5.990110,-0.006334,9.964690,0.001035,1,1,0,FF
AA55,1,2,118,0.2675,39.999992,0.999982,6.104493,-0.006902,9.961915,0.001114,1,1,0,FF
AA55,1,2,119,0.2700,39.999992,1.017326,6.219948,-0.007508,9.958984,0.001198,1,0,0,FF
AA55,1,2,120,0.2725,39.999992,1.034802,6.336476,-0.008153,9.955886,0.001286,1,0,0,FF
AA55,1,2,121,0.2750,39.999991,1.052411,6.454077,-0.008818,9.952617,0.001377,1,0,0,FF
AA55,1,2,122,0.2775,39.999991,1.070153,6.572750,-0.009502,9.949174,0.001470,1,0,0,FF
AA55,1,2,123,0.2800,39.999991,1.088029,6.692495,-0.010210,9.945546,0.001567,1,0,0,FF
AA55,1,2,124,0.2825,39.999991,1.106037,6.813311,-0.010941,9.941730,0.001667,1,1,0,FF
AA55,1,2,125,0.2850,39.999990,1.124178,6.935199,-0.011708,9.937726,0.001771,1,1,0,FF
AA55,1,2,126,0.2875,39.999990,1.142452,7.058157,-0.012515,9.933524,0.001880,1,1,0,FF
AA55,1,2,127,0.2900,39.999990,1.160859,7.182185,-0.013366,9.929115,0.001994,1,1,0,FF
AA55,1,2,128,0.2925,39.999989,1.179400,7.307284,-0.014267,9.924494,0.002115,1,1,0,FF
AA55,1,2,129,0.2950,39.999989,1.198073,7.433453,-0.015227,9.919656,0.002242,1,0,0,FF
AA55,1,2,130,0.2975,39.999989,1.216880,7.560691,-0.016243,9.914595,0.002376,1,0,0,FF
AA55,1,2,131,0.3000,39.999988,1.235819,7.688998,-0.017313,9.909311,0.002517,1,0,0,FF
AA55,1,2,132,0.3025,39.999988,1.254892,7.818374,-0.018454,9.903782,0.002666,1,0,0,FF
AA55,1,2,133,0.3050,39.999987,1.274098,7.948819,-0.019660,9.898007,0.002822,1,0,0,FF
AA55,1,2,134,0.3075,39.999987,1.293437,8.080332,-0.020928,9.891995,0.002987,1,1,0,FF
AA55,1,2,135,0.3100,39.999987,1.312909,8.212912,-0.022274,9.885737,0.003160,1,1,0,FF
AA55,1,2,136,0.3125,39.999986,1.332514,8.346560,-0.024780,9.879199,0.003345,1,1,0,FF
AA55,1,2,137,0.3150,39.999986,1.352251,8.481275,-0.028646,9.872365,0.003540,1,1,0,FF
AA55,1,2,138,0.3175,39.999985,1.372121,8.617058,-0.034534,9.865230,0.003747,1,1,0,FF
AA55,1,2,139,0.3200,39.999985,1.392122,8.753906,-0.043039,9.857785,0.003966,1,0,0,FF
AA55,1,2,140,0.3225,39.999984,1.412254,8.891822,-0.054819,9.850014,0.004198,1,0,0,FF
AA55,1,2,141,0.3250,39.999983,1.432517,9.030803,-0.070555,9.841911,0.004443,1,0,0,FF
AA55,1,2,142,0.3275,39.999982,1.452910,9.170850,-0.090957,9.833461,0.004702,1,0,0,FF
AA55,1,2,143,0.3300,39.999980,1.473433,9.311963,-0.116761,9.824646,0.004977,1,0,0,FF
AA55,1,2,144,0.3325,39.999979,1.494085,9.454142,-0.148726,9.815448,0.005269,1,0,0,FF
AA55,1,2,145,0.3350,39.999977,1.514867,9.597385,-0.187632,9.805841,0.005578,1,0,0,FF
AA55,1,2,146,0.3375,39.999975,1.535776,9.741693,-0.234275,9.795807,0.005907,1,0,0,FF
AA55,1,2,147,0.3400,39.999972,1.556814,9.887066,-0.289456,9.785337,0.006257,1,1,0,FF
AA55,1,2,148,0.3425,39.999969,1.577978,10.033503,-0.353906,9.774402,0.006627,1,1,0,FF
AA55,1,2,149,0.3450,39.999966,1.599270,10.181003,-0.428339,9.762960,0.007019,1,1,0,FF
AA55,1,2,150,0.3475,39.999962,1.620689,10.329568,-0.513416,9.750972,0.007433,1,1,0,FF
AA55,1,2,151,0.3500,39.999958,1.642233,10.479196,-0.609782,9.738387,0.007870,1,1,0,FF
AA55,1,2,152,0.3525,39.999953,1.663904,10.629887,-0.718002,9.725151,0.008329,1,0,0,FF
AA55,1,2,153,0.3550,39.999948,1.685700,10.781641,-0.838529,9.711218,0.008809,1,0,0,FF
AA55,1,2,154,0.3575,39.999942,1.707621,10.934457,-0.971765,9.696531,0.009308,1,0,0,FF
AA55,1,2,155,0.3600,39.999936,1.729667,11.088335,-1.118035,9.681057,0.009826,1,0,0,FF
AA55,1,2,156,0.3625,39.999929,1.751838,11.243275,-1.277604,9.664766,0.010359,1,0,0,FF
AA55,1,2,157,0.3650,39.999921,1.774132,11.399277,-1.450676,9.647610,0.010906,1,1,0,FF
AA55,1,2,158,0.3675,39.999913,1.796550,11.556340,-1.637255,9.629563,0.011470,1,1,0,FF
AA55,1,2,159,0.3700,39.999903,1.819092,11.714464,-1.837309,9.610594,0.012054,1,1,0,FF
AA55,1,2,160,0.3725,39.999894,1.841757,11.873649,-2.050919,9.590666,0.012659,1,1,0,FF
AA55,1,2,161,0.3750,39.999883,1.864544,12.033894,-2.278122,9.569767,0.013286,1,1,0,FF
AA55,1,2,162,0.3775,39.999872,1.887454,12.195199,-2.518971,9.547887,0.013939,1,0,0,FF
AA55,1,2,163,0.3800,39.999860,1.910486,12.357563,-2.773504,9.525019,0.014623,1,0,0,FF
AA55,1,2,164,0.3825,39.999847,1.933638,12.520988,-3.041749,9.501159,0.015338,1,0,0,FF
AA55,1,2,165,0.3850,39.999834,1.956911,12.685471,-3.323741,9.476294,0.016090,1,0,0,FF
AA55,1,2,166,0.3875,39.999819,1.980303,12.851014,-3.619533,9.450404,0.016884,1,0,0,FF
AA55,1,2,167,0.3900,39.999804,2.003815,13.017616,-3.929163,9.423479,0.017726,1,1,0,FF
AA55,1,2,168,0.3925,39.999788,2.027446,13.185276,-4.252655,9.395506,0.018617,1,1,0,FF
AA55,1,2,169,0.3950,39.999772,2.051195,13.353994,-4.590057,9.366467,0.019562,1,1,0,FF
AA55,1,2,170,0.3975,39.999754,2.075061,13.523771,-4.941415,9.336339,0.020565,1,1,0,FF
AA55,1,2,171,0.4000,39.999736,2.099045,13.694605,-5.306752,9.305115,0.021629,1,1,0,FF
AA55,1,2,172,0.4025,39.999716,2.123144,13.866496,-5.686074,9.272813,0.022757,1,0,0,FF
AA55,1,2,173,0.4050,39.999696,2.147360,14.039445,-6.079400,9.239411,0.023956,1,0,0,FF
AA55,1,2,174,0.4075,39.999675,2.171690,14.213451,-6.486774,9.204885,0.025241,1,0,0,FF
AA55,1,2,175,0.4100,39.999653,2.196135,14.388514,-6.908207,9.169228,0.026622,1,0,0,FF
AA55,1,2,176,0.4125,39.999630,2.220693,14.564633,-7.343712,9.132427,0.028107,1,0,0,FF
AA55,1,2,177,0.4150,39.999606,2.245364,14.741809,-7.793298,9.094466,0.029701,1,0,0,FF
AA55,1,2,178,0.4175,39.999581,2.270147,14.920040,-8.256966,9.055338,0.031415,1,0,0,FF
AA55,1,2,179,0.4200,39.999555,2.295041,15.099327,-8.734729,9.015061,0.033258,1,0,0,FF
AA55,1,2,180,0.4225,39.999528,2.320045,15.279670,-9.226589,8.973650,0.035240,1,1,0,FF
AA55,1,2,181,0.4250,39.999499,2.345157,15.461069,-9.732555,8.931102,0.037375,1,1,0,FF
AA55,1,2,182,0.4275,39.999470,2.370377,15.643523,-10.252648,8.887415,0.039680,1,1,0,FF
AA55,1,2,183,0.4300,39.999439,2.395704,15.827032,-10.786867,8.842576,0.042163,1,1,0,FF
AA55,1,2,184,0.4325,39.999407,2.421137,16.011595,-11.335216,8.796591,0.044849,1,1,0,FF
AA55,1,2,185,0.4350,39.999373,2.446674,16.197214,-11.897706,8.749481,0.047748,1,0,0,FF
AA55,1,2,186,0.4375,39.999338,2.472314,16.383887,-12.474339,8.701246,0.050881,1,0,0,FF
AA55,1,2,187,0.4400,39.999301,2.498056,16.571614,-13.065120,8.651869,0.054271,1,0,0,FF
AA55,1,2,188,0.4425,39.999263,2.523900,16.760396,-13.670054,8.601366,0.057940,1,0,0,FF
AA55,1,2,189,0.4450,39.999223,2.549842,16.950231,-14.289018,8.549754,0.061904,1,0,0,FF
AA55,1,2,190,0.4475,39.999181,2.575884,17.141121,-14.921606,8.497011,0.066175,1,1,0,FF
AA55,1,2,191,0.4500,39.999137,2.602022,17.333064,-15.567397,8.443156,0.070767,1,1,0,FF
AA55,1,2,192,0.4525,39.999090,2.628257,17.526060,-16.225767,8.388201,0.075701,1,1,0,FF
AA55,1,2,193,0.4550,39.999042,2.654587,17.720110,-16.895960,8.332136,0.080996,1,1,0,FF
AA55,1,2,194,0.4575,39.998991,2.681011,17.915212,-17.577083,8.274989,0.086663,1,1,0,FF
AA55,1,2,195,0.4600,39.998938,2.707528,18.111368,-18.268075,8.216797,0.092719,1,0,0,FF
AA55,1,2,196,0.4625,39.998882,2.734136,18.308576,-18.967743,8.157591,0.099173,1,0,0,FF
AA55,1,2,197,0.4650,39.998824,2.760835,18.506837,-19.674858,8.097380,0.106040,1,0,0,FF
AA55,1,2,198,0.4675,39.998763,2.787623,18.706150,-20.388077,8.036181,0.113321,1,0,0,FF
AA55,1,2,199,0.4700,39.998699,2.814500,18.906514,-21.106064,7.974018,0.121027,1,0,0,FF
AA55,1,2,200,0.4725,39.998633,2.841464,19.107931,-21.827454,7.910908,0.129171,1,0,0,FF
AA55,1,2,201,0.4750,39.998564,2.868515,19.310400,-22.550840,7.846872,0.137764,1,0,0,FF
AA55,1,2,202,0.4775,39.998491,2.895651,19.513920,-23.274797,7.781939,0.146814,1,0,0,FF
AA55,1,2,203,0.4800,39.998417,2.922871,19.718491,-23.997957,7.716119,0.156335,1,1,0,FF
AA55,1,2,204,0.4825,39.998339,2.950174,19.924114,-24.718980,7.649415,0.166341,1,1,0,FF
AA55,1,2,205,0.4850,39.998258,2.977558,20.130787,-25.436550,7.581853,0.176850,1,1,0,FF
AA55,1,2,206,0.4875,39.998174,3.005023,20.338511,-26.149447,7.513444,0.187887,1,1,0,FF
AA55,1,2,207,0.4900,39.998087,3.032567,20.547286,-26.856539,7.444179,0.199483,1,1,0,FF
AA55,1,2,208,0.4925,39.997997,3.060190,20.757111,-27.556814,7.374067,0.211656,1,0,0,FF
AA55,1,2,209,0.4950,39.997903,3.087888,20.967986,-28.249286,7.303129,0.224447,1,0,0,FF
AA55,1,2,210,0.4975,39.997806,3.115661,21.179912,-28.933113,7.231376,0.237883,1,0,0,FF
AA55,1,2,211,0.5000,39.997705,3.143507,21.392887,-29.607817,7.158836,0.251999,1,0,0,FF
AA55,1,2,212,0.5025,39.997600,3.171424,21.606913,-30.272867,7.085521,0.266837,1,0,0,FF
AA55,1,2,213,0.5050,39.997491,3.199412,21.821987,-30.927787,7.011421,0.282439,1,1,0,FF
AA55,1,2,214,0.5075,39.997377,3.227468,22.038111,-31.572211,6.936553,0.298842,1,1,0,FF
AA55,1,2,215,0.5100,39.997258,3.255589,22.255285,-32.205867,6.860932,0.316098,1,1,0,FF
AA55,1,2,216,0.5125,39.997133,3.283774,22.473508,-32.828544,6.784561,0.334250,1,1,0,FF
AA55,1,2,217,0.5150,39.997001,3.312020,22.692779,-33.440083,6.707464,0.353343,1,1,0,FF
AA55,1,2,218,0.5175,39.996862,3.340326,22.913100,-34.040323,6.629662,0.373422,1,0,0,FF
AA55,1,2,219,0.5200,39.996715,3.368689,23.134469,-34.629197,6.551169,0.394530,1,0,0,FF
AA55,1,2,220,0.5225,39.996560,3.397107,23.356886,-35.206653,6.471994,0.416706,1,0,0,FF
AA55,1,2,221,0.5250,39.996395,3.425579,23.580352,-35.772641,6.392157,0.439990,1,0,0,FF
AA55,1,2,222,0.5275,39.996221,3.454102,23.804866,-36.327186,6.311682,0.464413,1,0,0,FF
AA55,1,2,223,0.5300,39.996036,3.482675,24.030428,-36.870308,6.230603,0.490004,1,1,0,FF
AA55,1,2,224,0.5325,39.995839,3.511294,24.257037,-37.402030,6.148953,0.516797,1,1,0,FF
AA55,1,2,225,0.5350,39.995630,3.539958,24.484695,-37.922425,6.066743,0.544825,1,1,0,FF
AA55,1,2,226,0.5375,39.995407,3.568665,24.713399,-38.431600,5.983983,0.574119,1,1,0,FF
AA55,1,2,227,0.5400,39.995171,3.597413,24.943151,-38.929620,5.900698,0.604704,1,1,0,FF
AA55,1,2,228,0.5425,39.994919,3.626200,25.173949,-39.416600,5.816917,0.636597,1,0,0,FF
AA55,1,2,229,0.5450,39.994651,3.655023,25.405795,-39.892657,5.732700,0.669807,1,0,0,FF
AA55,1,2,230,0.5475,39.994366,3.683880,25.638687,-40.357879,5.648103,0.704323,1,0,0,FF
AA55,1,2,231,0.5500,39.994063,3.712769,25.872625,-40.812306,5.563184,0.740150,1,0,0,FF
AA55,1,2,232,0.5525,39.993739,3.741687,26.107610,-41.255979,5.478016,0.777276,1,0,0,FF
AA55,1,2,233,0.5550,39.993394,3.770632,26.343640,-41.689018,5.392655,0.815694,1,0,0,FF
AA55,1,2,234,0.5575,39.993026,3.799600,26.580717,-42.111541,5.307153,0.855403,1,0,0,FF
AA55,1,2,235,0.5600,39.992635,3.828591,26.818839,-42.523736,5.221531,0.896404,1,0,0,FF
AA55,1,2,236,0.5625,39.992218,3.857603,27.058006,-42.925808,5.135819,0.938685,1,1,0,FF
AA55,1,2,237,0.5650,39.991775,3.886631,27.298218,-43.317810,5.050081,0.982228,1,1,0,FF
AA55,1,2,238,0.5675,39.991304,3.915675,27.539475,-43.699829,4.964373,1.027015,1,1,0,FF
AA55,1,2,239,0.5700,39.990803,3.944732,27.781777,-44.072068,4.878708,1.073046,1,1,0,FF
AA55,1,2,240,0.5725,39.990270,3.973800,28.025122,-44.434546,4.793141,1.120295,1,1,0,FF
AA55,1,2,241,0.5750,39.989705,4.002875,28.269512,-44.787343,4.707743,1.168739,1,0,0,FF
AA55,1,2,242,0.5775,39.989105,4.031956,28.514946,-45.130685,4.622527,1.218366,1,0,0,FF
AA55,1,2,243,0.5800,39.988469,4.061041,28.761423,-45.464646,4.537557,1.269136,1,0,0,FF
AA55,1,2,244,0.5825,39.987795,4.090126,29.008943,-45.789396,4.452870,1.321024,1,0,0,FF
AA55,1,2,245,0.5850,39.987081,4.119210,29.257506,-46.105178,4.368493,1.374001,1,0,0,FF
AA55,1,2,246,0.5875,39.986325,4.148291,29.507111,-46.412157,4.284470,1.428032,1,1,0,FF
AA55,1,2,247,0.5900,39.985526,4.177365,29.757759,-46.710429,4.200850,1.483078,1,1,0,FF
AA55,1,2,248,0.5925,39.984681,4.206431,30.009448,-47.000344,4.117638,1.539125,1,1,0,FF
AA55,1,2,249,0.5950,39.983789,4.235486,30.262179,-47.282233,4.034842,1.596154,1,1,0,FF
AA55,1,2,250,0.5975,39.982847,4.264528,30.515951,-47.555903,3.952542,1.654109,1,1,0,FF
AA55,1,2,251,0.6000,39.981852,4.293553,30.770763,-47.821357,3.870794,1.712941,1,0,0,FF
AA55,1,2,252,0.6025,39.980803,4.322560,31.026616,-48.079008,3.789624,1.772611,1,0,0,FF
AA55,1,2,253,0.6050,39.979697,4.351545,31.283508,-48.329228,3.709052,1.833094,1,0,0,FF
AA55,1,2,254,0.6075,39.978532,4.380507,31.541440,-48.572110,3.629132,1.894337,1,0,0,FF
AA55,1,2,255,0.6100,39.977305,4.409443,31.800411,-48.807623,3.549974,1.956259,1,0,0,FF
AA55,1,2,256,0.6125,39.976014,4.438349,32.060421,-49.035930,3.471617,2.018813,1,1,0,FF
AA55,1,2,257,0.6150,39.974656,4.467224,32.321468,-49.257114,3.394099,2.081951,1,1,0,FF
AA55,1,2,258,0.6175,39.973229,4.496064,32.583553,-49.471265,3.317472,2.145630,1,1,0,FF
AA55,1,2,259,0.6200,39.971730,4.524868,32.846675,-49.678733,3.241758,2.209810,1,1,0,FF
AA55,1,2,260,0.6225,39.970157,4.553632,33.110834,-49.879865,3.166974,2.274452,1,1,0,FF
AA55,1,2,261,0.6250,39.968507,4.582355,33.376029,-50.075003,3.093143,2.339514,1,0,0,FF
AA55,1,2,262,0.6275,39.966779,4.611035,33.642259,-50.264535,3.020281,2.404966,1,0,0,FF
AA55,1,2,263,0.6300,39.964968,4.639669,33.909524,-50.448643,2.948417,2.470766,1,0,0,FF
AA55,1,2,264,0.6325,39.963073,4.668254,34.177824,-50.627417,2.877601,2.536855,1,0,0,FF
AA55,1,2,265,0.6350,39.961091,4.696788,34.447157,-50.800951,2.807876,2.603182,1,0,0,FF
AA55,1,2,266,0.6375,39.959018,4.725268,34.717524,-50.969349,2.739285,2.669693,1,0,0,FF
AA55,1,2,267,0.6400,39.956853,4.753693,34.988923,-51.133225,2.671817,2.736360,1,0,0,FF
AA55,1,2,268,0.6425,39.954592,4.782059,35.261355,-51.292675,2.605500,2.803143,1,0,0,FF
AA55,1,2,269,0.6450,39.952234,4.810364,35.534817,-51.447669,2.540376,2.869988,1,1,0,FF
AA55,1,2,270,0.6475,39.949774,4.838606,35.809311,-51.598594,2.476483,2.936825,1,1,0,FF
AA55,1,2,271,0.6500,39.947211,4.866783,36.084835,-51.745693,2.413851,3.003609,1,1,0,FF
AA55,1,2,272,0.6525,39.944542,4.894893,36.361388,-51.889401,2.352475,3.070311,1,1,0,FF
AA55,1,2,273,0.6550,39.941765,4.922935,36.638970,-52.030212,2.292358,3.136895,1,1,0,FF
AA55,1,2,274,0.6575,39.938878,4.950906,36.917581,-52.168389,2.233524,3.203310,1,0,0,FF
AA55,1,2,275,0.6600,39.935877,4.978804,37.197219,-52.304292,2.175975,3.269513,1,0,0,FF
AA55,1,2,276,0.6625,39.932760,5.006628,37.477884,-52.438326,2.119717,3.335459,1,0,0,FF
AA55,1,2,277,0.6650,39.929525,5.034375,37.759575,-52.570730,2.064761,3.401115,1,0,0,FF
AA55,1,2,278,0.6675,39.926170,5.062045,38.042292,-52.701655,2.011116,3.466447,1,0,0,FF
AA55,1,2,279,0.6700,39.922692,5.089635,38.326033,-52.831518,1.958770,3.531420,1,1,0,FF
AA55,1,2,280,0.6725,39.919089,5.117145,38.610799,-52.960553,1.907715,3.596004,1,1,0,FF
AA55,1,2,281,0.6750,39.915358,5.144571,38.896589,-53.088952,1.857957,3.660165,1,1,0,FF
AA55,1,2,282,0.6775,39.911497,5.171913,39.183401,-53.217071,1.809486,3.723880,1,1,0,FF
AA55,1,2,283,0.6800,39.907503,5.199169,39.471236,-53.344906,1.762309,3.787127,1,1,0,FF
AA55,1,2,284,0.6825,39.903375,5.226337,39.760091,-53.472476,1.716446,3.849864,1,0,0,FF
AA55,1,2,285,0.6850,39.899110,5.253417,40.049968,-53.600186,1.671874,3.912068,1,0,0,FF
AA55,1,2,286,0.6875,39.894706,5.280406,40.340865,-53.728179,1.628596,3.973707,1,0,0,FF
AA55,1,2,287,0.6900,39.890161,5.307304,40.632780,-53.856558,1.586616,4.034757,1,0,0,FF
AA55,1,2,288,0.6925,39.885472,5.334109,40.925715,-53.985438,1.545925,4.095206,1,0,0,FF
AA55,1,2,289,0.6950,39.880637,5.360819,41.219667,-54.115047,1.506502,4.155041,1,1,0,FF
AA55,1,2,290,0.6975,39.875656,5.387435,41.514637,-54.245860,1.468289,4.214277,1,1,0,FF
AA55,1,2,291,0.7000,39.870525,5.413956,41.810623,-54.377997,1.431268,4.272898,1,1,0,FF
AA55,1,2,292,0.7025,39.865243,5.440379,42.107625,-54.511631,1.395414,4.330892,1,1,0,FF
AA55,1,2,293,0.7050,39.859808,5.466705,42.405643,-54.646754,1.360728,4.388239,1,1,0,FF
AA55,1,2,294,0.7075,39.854217,5.492931,42.704674,-54.783700,1.327180,4.444943,1,0,0,FF
AA55,1,2,295,0.7100,39.848470,5.519059,43.004720,-54.922817,1.294723,4.501014,1,0,0,FF
AA55,1,2,296,0.7125,39.842564,5.545087,43.305778,-55.064040,1.263340,4.556447,1,0,0,FF
AA55,1,2,297,0.7150,39.836498,5.571013,43.607849,-55.207286,1.233023,4.611234,1,0,0,FF
AA55,1,2,298,0.7175,39.830269,5.596837,43.910932,-55.352600,1.203751,4.665366,1,0,0,FF
AA55,1,2,299,0.7200,39.823876,5.622559,44.215025,-55.500266,1.175486,4.718842,1,0,0,FF
AA55,1,2,300,0.7225,39.817317,5.648177,44.520129,-55.650159,1.148221,4.771668,1,0,0,FF
AA55,1,2,301,0.7250,39.810590,5.673692,44.826242,-55.802092,1.121941,4.823846,1,0,0,FF
AA55,1,2,302,0.7275,39.803694,5.699102,45.133365,-55.956349,1.096589,4.875394,1,1,0,FF
AA55,1,2,303,0.7300,39.796628,5.724407,45.441495,-56.112605,1.072155,4.926329,1,1,0,FF
AA55,1,2,304,0.7325,39.789388,5.749606,45.750633,-56.270494,1.048648,4.976642,1,1,0,FF
AA55,1,2,305,0.7350,39.781974,5.774698,46.060778,-56.429912,1.026063,5.026334,1,1,0,FF
AA55,1,2,306,0.7375,39.774384,5.799683,46.371928,-56.590501,1.004397,5.075407,1,1,0,FF
AA55,1,2,307,0.7400,39.766615,5.824559,46.684085,-56.752041,0.983647,5.123857,1,0,0,FF
AA55,1,2,308,0.7425,39.758667,5.849327,46.997245,-56.914393,0.963797,5.171690,1,0,0,FF
AA55,1,2,309,0.7450,39.750538,5.873986,47.311410,-57.077478,0.944824,5.218925,1,0,0,FF
AA55,1,2,310,0.7475,39.742226,5.898534,47.626578,-57.241014,0.926717,5.265566,1,0,0,FF
AA55,1,2,311,0.7500,39.733729,5.922973,47.942748,-57.404510,0.909467,5.311613,1,0,0,FF
AA55,1,2,312,0.7525,39.725045,5.947299,48.259921,-57.567407,0.893086,5.357078,1,1,0,FF
AA55,1,2,313,0.7550,39.716174,5.971514,48.578094,-57.729751,0.877536,5.401987,1,1,0,FF
AA55,1,2,314,0.7575,39.707113,5.995617,48.897268,-57.891566,0.862772,5.446365,1,1,0,FF
AA55,1,2,315,0.7600,39.697862,6.019607,49.217441,-58.052587,0.848788,5.490212,1,1,0,FF
AA55,1,2,316,0.7625,39.688418,6.043486,49.538614,-58.213166,0.835528,5.533555,1,1,0,FF
AA55,1,2,317,0.7650,39.678780,6.067251,49.860785,-58.373155,0.822988,5.576398,1,0,0,FF
AA55,1,2,318,0.7675,39.668948,6.090903,50.183954,-58.532203,0.811174,5.618743,1,0,0,FF
AA55,1,2,319,0.7700,39.658918,6.114441,50.508120,-58.690519,0.800022,5.660638,1,0,0,FF
AA55,1,2,320,0.7725,39.648690,6.137866,50.833282,-58.847938,0.789499,5.702103,1,0,0,FF
AA55,1,2,321,0.7750,39.638263,6.161177,51.159439,-59.004392,0.779592,5.743140,1,0,0,FF
AA55,1,2,322,0.7775,39.627635,6.184374,51.486592,-59.160201,0.770258,5.783767,1,1,0,FF
AA55,1,2,323,0.7800,39.616806,6.207457,51.814739,-59.315614,0.761453,5.824014,1,1,0,FF
AA55,1,2,324,0.7825,39.605773,6.230426,52.143880,-59.470503,0.753151,5.863902,1,1,0,FF
AA55,1,2,325,0.7850,39.594536,6.253282,52.474014,-59.624883,0.745316,5.903452,1,1,0,FF
AA55,1,2,326,0.7875,39.583093,6.276023,52.805140,-59.778857,0.737910,5.942689,1,1,0,FF
AA55,1,2,327,0.7900,39.571444,6.298651,53.137258,-59.932497,0.730903,5.981623,1,0,0,FF
AA55,1,2,328,0.7925,39.559587,6.321165,53.470367,-60.085838,0.724266,6.020281,1,0,0,FF
AA55,1,2,329,0.7950,39.547521,6.343565,53.804467,-60.238883,0.717967,6.058698,1,0,0,FF
AA55,1,2,330,0.7975,39.535245,6.365851,54.139556,-60.391373,0.712016,6.096858,1,0,0,FF
AA55,1,2,331,0.8000,39.522756,6.388023,54.475634,-60.543193,0.706395,6.134765,1,0,0,FF
AA55,1,2,332,0.8025,39.510054,6.410080,54.812701,-60.694715,0.701059,6.172442,1,0,0,FF
AA55,1,2,333,0.8050,39.497139,6.432024,55.150756,-60.845951,0.695985,6.209916,1,0,0,FF
AA55,1,2,334,0.8075,39.484009,6.453854,55.489797,-60.996946,0.691138,6.247222,1,0,0,FF
AA55,1,2,335,0.8100,39.470662,6.475571,55.829826,-61.147660,0.686503,6.284372,1,1,0,FF
AA55,1,2,336,0.8125,39.457099,6.497173,56.170840,-61.297857,0.682072,6.321385,1,1,0,FF
AA55,1,2,337,0.8150,39.443317,6.518663,56.512839,-61.447565,0.677823,6.358288,1,1,0,FF
AA55,1,2,338,0.8175,39.429316,6.540039,56.855823,-61.596814,0.673739,6.395084,1,1,0,FF
AA55,1,2,339,0.8200,39.415095,6.561301,57.199791,-61.745680,0.669794,6.431795,1,1,0,FF
AA55,1,2,340,0.8225,39.400652,6.582451,57.544742,-61.894093,0.665969,6.468442,1,0,0,FF
AA55,1,2,341,0.8250,39.385986,6.603487,57.890676,-62.041643,0.662279,6.505010,1,0,0,FF
AA55,1,2,342,0.8275,39.371095,6.624409,58.237591,-62.188374,0.658694,6.541532,1,0,0,FF
AA55,1,2,343,0.8300,39.355980,6.645219,58.585488,-62.334570,0.655160,6.578061,1,0,0,FF
AA55,1,2,344,0.8325,39.340640,6.665917,58.934366,-62.480432,0.651656,6.614620,1,0,0,FF
AA55,1,2,345,0.8350,39.325073,6.686501,59.284223,-62.625851,0.648167,6.651213,1,1,0,FF
AA55,1,2,346,0.8375,39.309277,6.706974,59.635060,-62.770597,0.644681,6.687845,1,1,0,FF
AA55,1,2,347,0.8400,39.293252,6.727334,59.986876,-62.914591,0.641186,6.724524,1,1,0,FF
AA55,1,2,348,0.8425,39.276997,6.747581,60.339669,-63.058153,0.637650,6.761270,1,1,0,FF
AA55,1,2,349,0.8450,39.260511,6.767717,60.693440,-63.201335,0.634053,6.798103,1,1,0,FF
AA55,1,2,350,0.8475,39.243792,6.787741,61.048188,-63.344019,0.630382,6.835042,1,0,0,FF
AA55,1,2,351,0.8500,39.226840,6.807654,61.403911,-63.486258,0.626628,6.872089,1,0,0,FF
AA55,1,2,352,0.8525,39.209653,6.827454,61.760610,-63.627839,0.622798,6.909241,1,0,0,FF
AA55,1,2,353,0.8550,39.192229,6.847143,62.118283,-63.768450,0.618901,6.946497,1,0,0,FF
AA55,1,2,354,0.8575,39.174569,6.866719,62.476931,-63.908106,0.614923,6.983867,1,0,0,FF
AA55,1,2,355,0.8600,39.156671,6.886185,62.836552,-64.047228,0.610821,7.021388,1,1,0,FF
AA55,1,2,356,0.8625,39.138533,6.905539,63.197145,-64.185814,0.606584,7.059060,1,1,0,FF
AA55,1,2,357,0.8650,39.120156,6.924783,63.558710,-64.323650,0.602215,7.096886,1,1,0,FF
AA55,1,2,358,0.8675,39.101537,6.943915,63.921246,-64.460562,0.597698,7.134892,1,1,0,FF
AA55,1,2,359,0.8700,39.082675,6.962935,64.284753,-64.596208,0.593044,7.173066,1,1,0,FF
AA55,1,2,360,0.8725,39.063569,6.981845,64.649230,-64.730617,0.588252,7.211397,1,0,0,FF
AA55,1,2,361,0.8750,39.044218,7.000643,65.014676,-64.864208,0.583291,7.249898,1,0,0,FF
AA55,1,2,362,0.8775,39.024620,7.019331,65.381090,-64.996797,0.578166,7.288577,1,0,0,FF
AA55,1,2,363,0.8800,39.004776,7.037908,65.748471,-65.128008,0.572890,7.327426,1,0,0,FF
AA55,1,2,364,0.8825,38.984682,7.056373,66.116820,-65.258132,0.567427,7.366464,1,0,0,FF
AA55,1,2,365,0.8850,38.964339,7.074729,66.486135,-65.387400,0.561764,7.405700,1,0,0,FF
AA55,1,2,366,0.8875,38.943745,7.092974,66.856415,-65.516094,0.555883,7.445150,1,0,0,FF
AA55,1,2,367,0.8900,38.922900,7.111109,67.227661,-65.644400,0.549753,7.484839,1,0,0,FF
AA55,1,2,368,0.8925,38.901803,7.129134,67.599870,-65.772209,0.543382,7.524756,1,1,0,FF
AA55,1,2,369,0.8950,38.880451,7.147050,67.973044,-65.899671,0.536766,7.564903,1,1,0,FF
AA55,1,2,370,0.8975,38.858844,7.164856,68.347179,-66.027155,0.529870,7.605292,1,1,0,FF
AA55,1,2,371,0.9000,38.836981,7.182553,68.722277,-66.154455,0.522700,7.645902,1,1,0,FF
AA55,1,2,372,0.9025,38.814860,7.200140,69.098336,-66.280913,0.515284,7.686719,1,1,0,FF
AA55,1,2,373,0.9050,38.792480,7.217617,69.475356,-66.407090,0.507568,7.727813,1,0,0,FF
AA55,1,2,374,0.9075,38.769840,7.234985,69.853335,-66.533110,0.499547,7.769174,1,0,0,FF
AA55,1,2,375,0.9100,38.746938,7.252244,70.232273,-66.658421,0.491254,7.810768,1,0,0,FF
AA55,1,2,376,0.9125,38.723773,7.269392,70.612169,-66.782822,0.482697,7.852586,1,0,0,FF
AA55,1,2,377,0.9150,38.700343,7.286431,70.993023,-66.906053,0.473896,7.894594,1,0,0,FF
AA55,1,2,378,0.9175,38.676647,7.303359,71.374833,-67.028317,0.464829,7.936784,1,1,0,FF
AA55,1,2,379,0.9200,38.652684,7.320178,71.757599,-67.150078,0.455455,7.979196,1,1,0,FF
AA55,1,2,380,0.9225,38.628453,7.336888,72.141320,-67.270921,0.445798,8.021816,1,1,0,FF
AA55,1,2,381,0.9250,38.603951,7.353487,72.525995,-67.390164,0.435912,8.064579,1,1,0,FF
AA55,1,2,382,0.9275,38.579178,7.369976,72.911623,-67.507789,0.425785,8.107486,1,1,0,FF
AA55,1,2,383,0.9300,38.554131,7.386354,73.298204,-67.623502,0.415425,8.150530,1,0,0,FF
AA55,1,2,384,0.9325,38.528809,7.402621,73.685736,-67.737262,0.404845,8.193692,1,0,0,FF
AA55,1,2,385,0.9350,38.503211,7.418777,74.074219,-67.848859,0.394055,8.236956,1,0,0,FF
AA55,1,2,386,0.9375,38.477335,7.434821,74.463652,-67.957840,0.383080,8.280289,1,0,0,FF
AA55,1,2,387,0.9400,38.451178,7.450754,74.854034,-68.063724,0.371949,8.323664,1,0,0,FF
AA55,1,2,388,0.9425,38.424739,7.466573,75.245364,-68.166116,0.360686,8.367067,1,0,0,FF
AA55,1,2,389,0.9450,38.398017,7.482280,75.637641,-68.265138,0.349289,8.410500,1,0,0,FF
AA55,1,2,390,0.9475,38.371009,7.497875,76.030865,-68.360993,0.337750,8.453950,1,0,0,FF
AA55,1,2,391,0.9500,38.343715,7.513356,76.425034,-68.453621,0.326071,8.497406,1,1,0,FF
AA55,1,2,392,0.9525,38.316132,7.528723,76.820147,-68.542549,0.314278,8.540856,1,1,0,FF
AA55,1,2,393,0.9550,38.288259,7.543976,77.216204,-68.627617,0.302384,8.584278,1,1,0,FF
AA55,1,2,394,0.9575,38.260093,7.559114,77.613203,-68.708990,0.290377,8.627676,1,1,0,FF
AA55,1,2,395,0.9600,38.231634,7.574138,78.011145,-68.786616,0.278262,8.671014,1,1,0,FF
AA55,1,2,396,0.9625,38.202879,7.589046,78.410027,-68.860593,0.266046,8.714251,1,0,0,FF
AA55,1,2,397,0.9650,38.173827,7.603840,78.809849,-68.931337,0.253713,8.757402,1,0,0,FF
AA55,1,2,398,0.9675,38.144476,7.618517,79.210610,-68.999139,0.241249,8.800459,1,0,0,FF
AA55,1,2,399,0.9700,38.114825,7.633080,79.612309,-69.064084,0.228647,8.843421,1,0,0,FF
AA55,1,2,400,0.9725,38.084872,7.647526,80.014945,-69.125988,0.215921,8.886287,1,0,0,FF
AA55,1,2,401,0.9750,38.054615,7.661856,80.418518,-69.185185,0.203054,8.929072,1,1,0,FF
AA55,1,2,402,0.9775,38.024054,7.676069,80.823026,-69.241939,0.190021,8.971785,1,1,0,FF
AA55,1,2,403,0.9800,37.993186,7.690165,81.228468,-69.296151,0.176820,9.014396,1,1,0,FF
AA55,1,2,404,0.9825,37.962009,7.704144,81.634844,-69.347918,0.163447,9.056884,1,1,0,FF
AA55,1,2,405,0.9850,37.930522,7.718004,82.042153,-69.397947,0.149843,9.099230,1,1,0,FF
AA55,1,2,406,0.9875,37.898722,7.731747,82.450393,-69.445989,0.136024,9.141427,1,0,0,FF
AA55,1,2,407,0.9900,37.866608,7.745371,82.859563,-69.491468,0.122038,9.183463,1,0,0,FF
AA55,1,2,408,0.9925,37.834179,7.758875,83.269664,-69.534339,0.107886,9.225344,1,0,0,FF
AA55,1,2,409,0.9950,37.801433,7.772259,83.680693,-69.574651,0.093577,9.267054,1,0,0,FF
AA55,1,2,410,0.9975,37.768367,7.785523,84.092649,-69.612631,0.079105,9.308567,1,0,0,FF
AA55,1,2,411,1.0000,37.734981,7.798666,84.505533,-69.648339,0.064463,9.349889,1,1,0,FF
AA55,1,2,412,1.0025,37.701272,7.811688,84.919342,-69.681880,0.049640,9.391014,1,1,0,FF
AA55,1,2,413,1.0050,37.667239,7.824587,85.334076,-69.713465,0.034610,9.431943,1,1,0,FF
AA55,1,2,414,1.0075,37.632880,7.837365,85.749734,-69.743480,0.019340,9.472678,1,1,0,FF
AA55,1,2,415,1.0100,37.598194,7.850021,86.166315,-69.771760,0.003846,9.513218,1,1,0,FF
AA55,1,2,416,1.0125,37.563179,7.862553,86.583819,-69.798045,-0.011857,9.553579,1,0,0,FF
AA55,1,2,417,1.0150,37.527833,7.874961,87.002243,-69.822236,-0.027770,9.593777,1,0,0,FF
AA55,1,2,418,1.0175,37.492156,7.887246,87.421587,-69.844589,-0.043921,9.633811,1,0,0,FF
AA55,1,2,419,1.0200,37.456145,7.899405,87.841850,-69.864880,-0.060299,9.673687,1,0,0,FF
AA55,1,2,420,1.0225,37.419799,7.911440,88.263032,-69.882982,-0.076904,9.713414,1,0,0,FF
AA55,1,2,421,1.0250,37.383116,7.923348,88.685131,-69.898910,-0.093727,9.752964,1,0,0,FF
AA55,1,2,422,1.0275,37.346095,7.935130,89.108146,-69.912586,-0.110757,9.792324,1,0,0,FF
AA55,1,2,423,1.0300,37.308734,7.946786,89.532077,-69.924614,-0.128051,9.831494,1,0,0,FF
AA55,1,2,424,1.0325,37.271031,7.958313,89.956922,-69.934868,-0.145603,9.870478,1,1,0,FF
AA55,1,2,425,1.0350,37.232986,7.969713,90.382680,-69.942698,-0.163358,9.909265,1,1,0,FF
AA55,1,2,426,1.0375,37.194596,7.980984,90.809351,-69.948622,-0.181356,9.947838,1,1,0,FF
AA55,1,2,427,1.0400,37.155860,7.992126,91.236933,-69.952847,-0.199618,9.986211,1,1,0,FF
AA55,1,2,428,1.0425,37.116777,8.003139,91.665426,-69.955116,-0.218123,10.024388,1,1,0,FF
AA55,1,2,429,1.0450,37.077345,8.014021,92.094829,-69.955767,-0.236906,10.062347,1,0,0,FF
AA55,1,2,430,1.0475,37.037562,8.024772,92.525140,-69.955329,-0.256018,10.100103,1,0,0,FF
AA55,1,2,431,1.0500,36.997427,8.035392,92.956359,-69.953328,-0.275423,10.137675,1,0,0,FF
AA55,1,2,432,1.0525,36.956939,8.045879,93.388484,-69.949218,-0.295073,10.175060,1,0,0,FF
AA55,1,2,433,1.0550,36.916096,8.056234,93.821515,-69.943266,-0.314998,10.212267,1,0,0,FF
AA55,1,2,434,1.0575,36.874898,8.066455,94.255452,-69.935459,-0.335201,10.249314,1,1,0,FF
AA55,1,2,435,1.0600,36.833341,8.076543,94.690292,-69.925889,-0.355700,10.286215,1,1,0,FF
AA55,1,2,436,1.0625,36.791427,8.086495,95.126034,-69.914765,-0.376516,10.322985,1,1,0,FF
AA55,1,2,437,1.0650,36.749152,8.096313,95.562679,-69.902025,-0.397640,10.359615,1,1,0,FF
AA55,1,2,438,1.0675,36.706515,8.105994,96.000225,-69.887375,-0.419052,10.396109,1,1,0,FF
AA55,1,2,439,1.0700,36.663515,8.115538,96.438671,-69.870095,-0.440688,10.432444,1,0,0,FF
AA55,1,2,440,1.0725,36.620151,8.124944,96.878016,-69.849793,-0.462512,10.468612,1,0,0,FF
AA55,1,2,441,1.0750,36.576421,8.134211,97.318260,-69.827068,-0.484583,10.504640,1,0,0,FF
AA55,1,2,442,1.0775,36.532324,8.143339,97.759400,-69.802148,-0.506920,10.540537,1,0,0,FF
AA55,1,2,443,1.0800,36.487858,8.152326,98.201436,-69.774147,-0.529436,10.576258,1,0,0,FF
AA55,1,2,444,1.0825,36.443022,8.161172,98.644367,-69.742730,-0.552094,10.611807,1,1,0,FF
AA55,1,2,445,1.0850,36.397815,8.169876,99.088193,-69.708420,-0.574937,10.647216,1,1,0,FF
AA55,1,2,446,1.0875,36.352236,8.178438,99.532912,-69.671048,-0.597945,10.682454,1,1,0,FF
AA55,1,2,447,1.0900,36.306283,8.186855,99.978523,-69.630234,-0.621083,10.717528,1,1,0,FF
AA55,1,2,448,1.0925,36.259955,8.195128,100.425026,-69.586167,-0.644373,10.752463,1,1,0,FF
AA55,1,2,449,1.0950,36.213250,8.203256,100.872419,-69.539541,-0.667876,10.787287,1,0,0,FF
AA55,1,2,450,1.0975,36.166168,8.211238,101.320701,-69.490820,-0.691632,10.822017,1,0,0,FF
AA55,1,2,451,1.1000,36.118708,8.219074,101.769872,-69.440139,-0.715653,10.856665,1,0,0,FF
AA55,1,2,452,1.1025,36.070868,8.226762,102.219931,-69.387002,-0.739905,10.891232,1,0,0,FF
AA55,1,2,453,1.1050,36.022646,8.234303,102.670876,-69.332216,-0.764449,10.925719,1,0,0,FF
AA55,1,2,454,1.1075,35.974043,8.241694,103.122707,-69.276000,-0.789313,10.960176,1,0,0,FF
AA55,1,2,455,1.1100,35.925057,8.248935,103.575423,-69.218054,-0.814490,10.994626,1,0,0,FF
AA55,1,2,456,1.1125,35.875686,8.256026,104.029023,-69.158239,-0.839952,11.029021,1,0,0,FF
AA55,1,2,457,1.1150,35.825930,8.262965,104.483505,-69.096393,-0.865673,11.063335,1,1,0,FF
AA55,1,2,458,1.1175,35.775786,8.269751,104.938869,-69.033258,-0.891734,11.097622,1,1,0,FF
AA55,1,2,459,1.1200,35.725254,8.276384,105.395114,-68.968603,-0.918130,11.131916,1,1,0,FF
AA55,1,2,460,1.1225,35.674334,8.282863,105.852239,-68.902227,-0.944850,11.166222,1,1,0,FF
AA55,1,2,461,1.1250,35.623023,8.289186,106.310243,-68.834849,-0.971943,11.200529,1,1,0,FF
AA55,1,2,462,1.1275,35.571320,8.295354,106.769125,-68.766893,-0.999445,11.234828,1,0,0,FF
AA55,1,2,463,1.1300,35.519226,8.301364,107.228884,-68.697263,-1.027273,11.269141,1,0,0,FF
AA55,1,2,464,1.1325,35.466737,8.307216,107.689519,-68.625394,-1.055364,11.303469,1,0,0,FF
AA55,1,2,465,1.1350,35.413853,8.312907,108.151029,-68.551145,-1.083692,11.337779,1,0,0,FF
AA55,1,2,466,1.1375,35.360573,8.318438,108.613413,-68.473913,-1.112202,11.372051,1,0,0,FF
AA55,1,2,467,1.1400,35.306895,8.323806,109.076670,-68.393133,-1.140848,11.406284,1,1,0,FF
AA55,1,2,468,1.1425,35.252819,8.329011,109.540799,-68.308926,-1.169639,11.440462,1,1,0,FF
AA55,1,2,469,1.1450,35.198343,8.334052,110.005799,-68.221295,-1.198578,11.474571,1,1,0,FF
AA55,1,2,470,1.1475,35.143465,8.338927,110.471669,-68.130519,-1.227680,11.508612,1,1,0,FF
AA55,1,2,471,1.1500,35.088186,8.343636,110.938408,-68.037425,-1.257007,11.542559,1,1,0,FF
AA55,1,2,472,1.1525,35.032503,8.348177,111.406015,-67.942074,-1.286572,11.576413,1,0,0,FF
AA55,1,2,473,1.1550,34.976416,8.352550,111.874489,-67.844201,-1.316351,11.610194,1,0,0,FF
AA55,1,2,474,1.1575,34.919923,8.356753,112.343829,-67.743433,-1.346303,11.643904,1,0,0,FF
AA55,1,2,475,1.1600,34.863023,8.360785,112.814034,-67.640384,-1.376441,11.677534,1,0,0,FF
AA55,1,2,476,1.1625,34.805715,8.364644,113.285103,-67.535817,-1.406845,11.711087,1,0,0,FF
AA55,1,2,477,1.1650,34.747998,8.368331,113.757034,-67.430375,-1.437573,11.744587,1,1,0,FF
AA55,1,2,478,1.1675,34.689871,8.371844,114.229828,-67.324033,-1.468624,11.778069,1,1,0,FF
AA55,1,2,479,1.1700,34.631334,8.375181,114.703483,-67.216402,-1.499969,11.811524,1,1,0,FF
AA55,1,2,480,1.1725,34.572383,8.378341,115.177997,-67.107340,-1.531575,11.844914,1,1,0,FF
AA55,1,2,481,1.1750,34.513020,8.381323,115.653371,-66.996583,-1.563426,11.878259,1,1,0,FF
AA55,1,2,482,1.1775,34.453242,8.384126,116.129602,-66.884478,-1.595542,11.911567,1,0,0,FF
AA55,1,2,483,1.1800,34.393049,8.386748,116.606690,-66.771436,-1.627966,11.944857,1,0,0,FF
AA55,1,2,484,1.1825,34.332439,8.389189,117.084634,-66.656878,-1.660667,11.978166,1,0,0,FF
AA55,1,2,485,1.1850,34.271412,8.391446,117.563433,-66.540800,-1.693654,12.011495,1,0,0,FF
AA55,1,2,486,1.1875,34.209966,8.393518,118.043086,-66.423424,-1.726949,12.044861,1,0,0,FF
AA55,1,2,487,1.1900,34.148100,8.395405,118.523591,-66.304348,-1.760522,12.078232,1,0,0,FF
AA55,1,2,488,1.1925,34.085812,8.397105,119.004948,-66.184101,-1.794405,12.111553,1,0,0,FF
AA55,1,2,489,1.1950,34.023102,8.398616,119.487155,-66.062728,-1.828609,12.144814,1,0,0,FF
AA55,1,2,490,1.1975,33.959967,8.399936,119.970211,-65.938950,-1.863009,12.177962,1,1,0,FF
AA55,1,2,491,1.2000,33.896406,8.401064,120.454115,-65.812548,-1.897572,12.210942,1,1,0,FF
AA55,1,2,492,1.2025,33.832419,8.401998,120.938866,-65.683897,-1.932351,12.243755,1,1,0,FF
AA55,1,2,493,1.2050,33.768004,8.402738,121.424463,-65.552711,-1.967336,12.276392,1,1,0,FF
AA55,1,2,494,1.2075,33.703160,8.403281,121.910904,-65.418746,-2.002505,12.308839,1,1,0,FF
AA55,1,2,495,1.2100,33.637886,8.403627,122.398189,-65.280568,-2.037871,12.341105,1,0,0,FF
AA55,1,2,496,1.2125,33.572180,8.403772,122.886317,-65.137055,-2.073366,12.373170,1,0,0,FF
AA55,1,2,497,1.2150,33.506043,8.403716,123.375286,-64.987324,-2.108973,12.405030,1,0,0,FF
AA55,1,2,498,1.2175,33.439472,8.403458,123.865096,-64.831358,-2.144723,12.436693,1,0,0,FF
AA55,1,2,499,1.2200,33.372466,8.402995,124.355744,-64.667897,-2.180543,12.468174,1,0,0,FF
AA55,1,2,500,1.2225,33.305024,8.402325,124.847231,-64.496370,-2.216399,12.499442,1,1,0,FF
AA55,1,2,501,1.2250,33.237146,8.401446,125.339554,-64.316500,-2.252286,12.530463,1,1,0,FF
AA55,1,2,502,1.2275,33.168829,8.400357,125.832713,-64.127775,-2.288180,12.561234,1,1,0,FF
AA55,1,2,503,1.2300,33.100074,8.399057,126.326707,-63.930376,-2.324099,12.591726,1,1,0,FF
AA55,1,2,504,1.2325,33.030879,8.397543,126.821535,-63.724312,-2.360050,12.621893,1,1,0,FF
AA55,1,2,505,1.2350,32.961244,8.395813,127.317195,-63.510207,-2.396091,12.651697,1,0,0,FF
AA55,1,2,506,1.2375,32.891168,8.393868,127.813687,-63.289126,-2.432316,12.681096,1,0,0,FF
AA55,1,2,507,1.2400,32.820649,8.391703,128.311009,-63.061111,-2.468684,12.709985,1,0,0,FF
AA55,1,2,508,1.2425,32.749686,8.389319,128.809161,-62.826381,-2.505200,12.738327,1,0,0,FF
AA55,1,2,509,1.2450,32.678281,8.386713,129.308141,-62.585058,-2.541853,12.766033,1,0,0,FF
AA55,1,2,510,1.2475,32.606430,8.383883,129.807949,-62.337725,-2.578655,12.792985,1,1,0,FF
AA55,1,2,511,1.2500,32.534135,8.380827,130.308583,-62.084746,-2.615618,12.819102,1,1,0,FF
AA55,1,2,512,1.2525,32.461394,8.377545,130.810043,-61.826281,-2.652718,12.844249,1,1,0,FF
AA55,1,2,513,1.2550,32.388206,8.374033,131.312327,-61.561919,-2.689867,12.868279,1,1,0,FF
AA55,1,2,514,1.2575,32.314570,8.370290,131.815435,-61.291501,-2.727010,12.891051,1,1,0,FF
AA55,1,2,515,1.2600,32.240487,8.366313,132.319366,-61.016690,-2.764170,12.912464,1,0,0,FF
AA55,1,2,516,1.2625,32.165956,8.362101,132.824118,-60.736332,-2.801214,12.932398,1,0,0,FF
AA55,1,2,517,1.2650,32.090976,8.357651,133.329691,-60.450280,-2.838051,12.950699,1,0,0,FF
AA55,1,2,518,1.2675,32.015547,8.352962,133.836084,-60.158325,-2.874611,12.967223,1,0,0,FF
AA55,1,2,519,1.2700,31.939669,8.348030,134.343296,-59.859755,-2.910825,12.981858,1,0,0,FF
AA55,1,2,520,1.2725,31.863342,8.342855,134.851326,-59.553828,-2.946622,12.994499,1,0,0,FF
AA55,1,2,521,1.2750,31.786566,8.337433,135.360173,-59.239263,-2.981893,13.004993,1,0,0,FF
AA55,1,2,522,1.2775,31.709340,8.331764,135.869837,-58.915146,-3.016570,13.013199,1,0,0,FF
AA55,1,2,523,1.2800,31.631666,8.325844,136.380317,-58.580451,-3.050569,13.018968,1,1,0,FF
AA55,1,2,524,1.2825,31.553543,8.319672,136.891613,-58.233603,-3.083790,13.022187,1,1,0,FF
AA55,1,2,525,1.2850,31.474972,8.313246,137.403723,-57.873446,-3.116240,13.022799,1,1,0,FF
AA55,1,2,526,1.2875,31.395953,8.306564,137.916647,-57.498730,-3.147906,13.020694,1,1,0,FF
AA55,1,2,527,1.2900,31.316488,8.299624,138.430384,-57.106721,-3.178636,13.015758,1,1,0,FF
AA55,1,2,528,1.2925,31.236576,8.292423,138.944935,-56.694789,-3.208331,13.007907,1,0,0,FF
AA55,1,2,529,1.2950,31.156219,8.284959,139.460297,-56.260186,-3.236890,12.997025,1,0,0,FF
AA55,1,2,530,1.2975,31.075418,8.277230,139.976472,-55.799273,-3.264182,12.983025,1,0,0,FF
AA55,1,2,531,1.3000,30.994174,8.269234,140.493458,-55.309751,-3.290299,12.965926,1,0,0,FF
AA55,1,2,532,1.3025,30.912490,8.260969,141.011255,-54.788367,-3.315239,12.945697,1,0,0,FF
AA55,1,2,533,1.3050,30.830366,8.252433,141.529863,-54.230543,-3.338879,12.922274,1,1,0,FF
AA55,1,2,534,1.3075,30.747805,8.243623,142.049281,-53.632853,-3.361303,12.895668,1,1,0,FF
AA55,1,2,535,1.3100,30.664815,8.234541,142.569513,-53.009106,-3.382739,12.865976,1,1,0,FF
AA55,1,2,536,1.3125,30.581398,8.225186,143.090557,-52.356396,-3.403286,12.833175,1,1,0,FF
AA55,1,2,537,1.3150,30.497559,8.215557,143.612414,-51.675086,-3.422914,12.797244,1,1,0,FF
AA55,1,2,538,1.3175,30.413302,8.205652,144.135086,-50.963539,-3.441700,12.758223,1,0,0,FF
AA55,1,2,539,1.3200,30.328631,8.195471,144.658572,-50.218980,-3.459758,12.716114,1,0,0,FF
AA55,1,2,540,1.3225,30.243548,8.185010,145.182873,-49.435728,-3.477038,12.670941,1,0,0,FF
AA55,1,2,541,1.3250,30.158059,8.174270,145.707989,-48.607739,-3.493643,12.622802,1,0,0,FF
AA55,1,2,542,1.3275,30.072168,8.163248,146.233920,-47.729627,-3.509787,12.571856,1,0,0,FF
AA55,1,2,543,1.3300,29.985887,8.151949,146.760671,-46.828888,-3.526113,12.518558,1,1,0,FF
AA55,1,2,544,1.3325,29.899223,8.140374,147.288243,-45.904082,-3.542847,12.463081,1,1,0,FF
AA55,1,2,545,1.3350,29.812185,8.128525,147.816637,-44.966723,-3.560310,12.405720,1,1,0,FF
AA55,1,2,546,1.3375,29.724781,8.116403,148.345857,-44.025483,-3.578825,12.346742,1,1,0,FF
AA55,1,2,547,1.3400,29.637022,8.104011,148.875904,-43.090452,-3.598727,12.286373,1,1,0,FF
AA55,1,2,548,1.3425,29.548914,8.091352,149.406781,-42.171086,-3.620289,12.224840,1,0,0,FF
AA55,1,2,549,1.3450,29.460468,8.078427,149.938490,-41.276808,-3.643783,12.162373,1,0,0,FF
AA55,1,2,550,1.3475,29.371692,8.065240,150.471032,-40.417056,-3.669534,12.099222,1,0,0,FF
AA55,1,2,551,1.3500,29.282593,8.051793,151.004411,-39.601124,-3.697896,12.035642,1,0,0,FF
AA55,1,2,552,1.3525,29.193179,8.038088,151.538626,-38.837734,-3.729075,11.971846,1,0,0,FF
AA55,1,2,553,1.3550,29.103446,8.024115,152.073677,-38.134388,-3.762796,11.907933,1,0,0,FF
AA55,1,2,554,1.3575,29.013400,8.009871,152.609563,-37.497456,-3.798904,11.844050,1,0,0,FF
AA55,1,2,555,1.3600,28.923042,7.995356,153.146283,-36.931129,-3.837190,11.780197,1,0,0,FF
AA55,1,2,556,1.3625,28.832376,7.980565,153.683839,-36.439099,-3.877319,11.716404,1,1,0,FF
AA55,1,2,557,1.3650,28.741404,7.965494,154.222230,-36.022656,-3.918570,11.652576,1,1,0,FF
AA55,1,2,558,1.3675,28.650129,7.950140,154.761454,-35.683157,-3.960387,11.588633,1,1,0,FF
AA55,1,2,559,1.3700,28.558553,7.934503,155.301513,-35.421066,-4.002248,11.524492,1,1,0,FF
AA55,1,2,560,1.3725,28.466681,7.918581,155.842407,-35.235598,-4.043472,11.460032,1,1,0,FF
AA55,1,2,561,1.3750,28.374512,7.902370,156.384134,-35.125237,-4.083249,11.395072,1,0,0,FF
AA55,1,2,562,1.3775,28.282051,7.885868,156.926696,-35.087652,-4.120716,11.329422,1,0,0,FF
AA55,1,2,563,1.3800,28.189298,7.869074,157.470091,-35.120216,-4.155051,11.262880,1,0,0,FF
AA55,1,2,564,1.3825,28.096257,7.851986,158.014320,-35.219932,-4.185388,11.195213,1,0,0,FF
AA55,1,2,565,1.3850,28.002927,7.834600,158.559382,-35.383553,-4.210572,11.125925,1,0,0,FF
AA55,1,2,566,1.3875,27.909310,7.816915,159.105276,-35.607820,-4.229583,11.054663,1,1,0,FF
AA55,1,2,567,1.3900,27.815410,7.798930,159.652003,-35.889864,-4.241505,10.981093,1,1,0,FF
AA55,1,2,568,1.3925,27.721227,7.780647,160.199562,-36.226744,-4.245486,10.904943,1,1,0,FF
AA55,1,2,569,1.3950,27.626768,7.762069,160.747955,-36.615309,-4.240741,10.826037,1,1,0,FF
AA55,1,2,570,1.3975,27.532035,7.743198,161.297183,-37.052555,-4.226504,10.744241,1,1,0,FF
AA55,1,2,571,1.4000,27.437032,7.724038,161.847245,-37.535036,-4.202142,10.659515,1,0,0,FF
AA55,1,2,572,1.4025,27.341766,7.704594,162.398144,-38.059093,-4.167336,10.571885,1,0,0,FF
AA55,1,2,573,1.4050,27.246242,7.684873,162.949881,-38.620863,-4.121881,10.481453,1,0,0,FF
AA55,1,2,574,1.4075,27.150467,7.664884,163.502458,-39.216765,-4.065816,10.388373,1,0,0,FF
AA55,1,2,575,1.4100,27.054448,7.644636,164.055878,-39.846053,-3.999347,10.292833,1,0,0,FF
AA55,1,2,576,1.4125,26.958194,7.624139,164.610141,-40.505382,-3.922804,10.195038,1,0,0,FF
AA55,1,2,577,1.4150,26.861713,7.603405,165.165251,-41.192379,-3.836682,10.095249,1,0,0,FF
AA55,1,2,578,1.4175,26.765013,7.582445,165.721210,-41.904581,-3.741570,9.993825,1,0,0,FF
AA55,1,2,579,1.4200,26.668106,7.561271,166.278021,-42.639723,-3.638156,9.891107,1,1,0,FF
AA55,1,2,580,1.4225,26.570999,7.539896,166.835685,-43.395619,-3.527175,9.787472,1,1,0,FF
AA55,1,2,581,1.4250,26.473704,7.518333,167.394206,-44.170274,-3.409473,9.683362,1,1,0,FF
AA55,1,2,582,1.4275,26.376230,7.496592,167.953585,-44.961470,-3.285795,9.579081,1,1,0,FF
AA55,1,2,583,1.4300,26.278586,7.474686,168.513825,-45.767396,-3.156991,9.474977,1,1,0,FF
AA55,1,2,584,1.4325,26.180784,7.452630,169.074927,-46.586909,-3.024042,9.371272,1,0,0,FF
AA55,1,2,585,1.4350,26.082832,7.430436,169.636894,-47.418520,-2.887809,9.268169,1,0,0,FF
AA55,1,2,586,1.4375,25.984740,7.408114,170.199728,-48.260376,-2.748890,9.165787,1,0,0,FF
AA55,1,2,587,1.4400,25.886518,7.385676,170.763429,-49.110814,-2.607877,9.064196,1,0,0,FF
AA55,1,2,588,1.4425,25.788175,7.363133,171.327999,-49.970836,-2.465469,8.963416,1,0,0,FF
AA55,1,2,589,1.4450,25.689722,7.340498,171.893440,-50.839225,-2.322340,8.863530,1,1,0,FF
AA55,1,2,590,1.4475,25.591171,7.317782,172.459753,-51.714693,-2.179073,8.764593,1,1,0,FF
AA55,1,2,591,1.4500,25.492532,7.294997,173.026940,-52.595739,-2.036308,8.666758,1,1,0,FF
AA55,1,2,592,1.4525,25.393817,7.272155,173.595002,-53.480571,-1.894652,8.570150,1,1,0,FF
AA55,1,2,593,1.4550,25.295041,7.249268,174.163939,-54.366879,-1.754710,8.474933,1,1,0,FF
AA55,1,2,594,1.4575,25.196215,7.226346,174.733755,-55.251932,-1.617045,8.381250,1,0,0,FF
AA55,1,2,595,1.4600,25.097353,7.203401,175.304448,-56.133179,-1.482224,8.289358,1,0,0,FF
AA55,1,2,596,1.4625,24.998468,7.180443,175.876020,-57.007235,-1.350798,8.199407,1,0,0,FF
AA55,1,2,597,1.4650,24.899583,7.157483,176.448398,-57.870870,-1.223242,8.111555,1,0,0,FF
AA55,1,2,598,1.4675,24.800719,7.134533,177.021537,-58.720589,-1.100034,8.025983,1,0,0,FF
AA55,1,2,599,1.4700,24.701892,7.111601,177.595398,-59.552755,-0.981574,7.942791,1,1,0,FF
AA55,1,2,600,1.4725,24.603118,7.088693,178.169939,-60.364157,-0.868062,7.861767,1,1,0,FF
AA55,1,2,601,1.4750,24.504411,7.065816,178.745117,-61.151065,-0.759822,7.782710,1,1,0,FF
AA55,1,2,602,1.4775,24.405786,7.042974,179.320892,-61.910516,-0.657053,7.705495,1,1,0,FF
AA55,1,2,603,1.4800,24.307258,7.020172,179.897220,-62.639682,-0.559919,7.629967,1,1,0,FF
AA55,1,2,604,1.4825,24.208840,6.997415,180.474060,-63.334717,-0.468731,7.555947,1,0,0,FF
AA55,1,2,605,1.4850,24.110546,6.974707,181.051369,-63.992839,-0.383635,7.483203,1,0,0,FF
AA55,1,2,606,1.4875,24.012386,6.952049,181.629105,-64.612664,-0.304583,7.411460,1,0,0,FF
AA55,1,2,607,1.4900,23.914373,6.929444,182.207225,-65.192024,-0.231673,7.340516,1,0,0,FF
AA55,1,2,608,1.4925,23.816520,6.906895,182.785687,-65.729112,-0.164997,7.270188,1,0,0,FF
AA55,1,2,609,1.4950,23.718836,6.884402,183.364449,-66.223850,-0.104431,7.200213,1,0,0,FF
AA55,1,2,610,1.4975,23.621332,6.861967,183.943468,-66.676099,-0.049883,7.130364,1,0,0,FF
AA55,1,2,611,1.5000,23.524017,6.839590,184.522701,-67.085948,-0.001257,7.060467,1,0,0,FF
AA55,1,2,612,1.5025,23.426902,6.817271,185.102108,-67.453917,0.041572,6.990287,1,1,0,FF
AA55,1,2,613,1.5050,23.329995,6.795011,185.681644,-67.780600,0.078720,6.919693,1,1,0,FF
AA55,1,2,614,1.5075,23.233299,6.772811,186.261345,-68.067143,0.110342,6.848559,1,1,0,FF
AA55,1,2,615,1.5100,23.136817,6.750670,186.841193,-68.314815,0.136648,6.776741,1,1,0,FF
AA55,1,2,616,1.5125,23.040556,6.728589,187.421181,-68.526039,0.157899,6.704202,1,1,0,FF
AA55,1,2,617,1.5150,22.944520,6.706567,188.001300,-68.704201,0.174462,6.630829,1,0,0,FF
AA55,1,2,618,1.5175,22.848715,6.684603,188.581542,-68.851229,0.186554,6.556544,1,0,0,FF
AA55,1,2,619,1.5200,22.753144,6.662700,189.161898,-68.968976,0.194356,6.481331,1,0,0,FF
AA55,1,2,620,1.5225,22.657814,6.640856,189.742360,-69.059662,0.198067,6.405199,1,0,0,FF
AA55,1,2,621,1.5250,22.562729,6.619073,190.322921,-69.126609,0.198018,6.328212,1,0,0,FF
AA55,1,2,622,1.5275,22.467893,6.597349,190.903570,-69.173153,0.194509,6.250490,1,1,0,FF
AA55,1,2,623,1.5300,22.373312,6.575685,191.484301,-69.202246,0.187789,6.172202,1,1,0,FF
AA55,1,2,624,1.5325,22.278990,6.554082,192.065104,-69.217030,0.178129,6.093478,1,1,0,FF
AA55,1,2,625,1.5350,22.184930,6.532539,192.645972,-69.220466,0.165793,6.014453,1,1,0,FF
AA55,1,2,626,1.5375,22.091138,6.511056,193.226896,-69.215522,0.151043,5.935272,1,1,0,FF
AA55,1,2,627,1.5400,21.997618,6.489635,193.807866,-69.204846,0.134102,5.856097,1,0,0,FF
AA55,1,2,628,1.5425,21.904374,6.468274,194.388876,-69.191251,0.115237,5.776979,1,0,0,FF
AA55,1,2,629,1.5450,21.811410,6.446975,194.969916,-69.176696,0.094657,5.697934,1,0,0,FF
AA55,1,2,630,1.5475,21.718728,6.425737,195.550977,-69.164482,0.072684,5.618965,1,0,0,FF
AA55,1,2,631,1.5500,21.626333,6.404559,196.132052,-69.157943,0.049643,5.540148,1,0,0,FF
AA55,1,2,632,1.5525,21.534229,6.383443,196.713131,-69.158405,0.025698,5.461569,1,1,0,FF
AA55,1,2,633,1.5550,21.442419,6.362387,197.294206,-69.167656,0.001047,5.383265,1,1,0,FF
AA55,1,2,634,1.5575,21.350905,6.341393,197.875281,-69.187962,-0.024069,5.305272,1,1,0,FF
AA55,1,2,635,1.5600,21.259691,6.320459,198.456353,-69.222108,-0.049434,5.227603,1,1,0,FF
AA55,1,2,636,1.5625,21.168779,6.299586,199.037419,-69.271963,-0.074827,5.150263,1,1,0,FF
AA55,1,2,637,1.5650,21.078171,6.278772,199.618476,-69.339011,-0.100088,5.073255,1,0,0,FF
AA55,1,2,638,1.5675,20.987871,6.258018,200.199522,-69.423676,-0.125137,4.996609,1,0,0,FF
AA55,1,2,639,1.5700,20.897882,6.237324,200.780553,-69.526421,-0.149891,4.920359,1,0,0,FF
AA55,1,2,640,1.5725,20.808207,6.216690,201.361567,-69.647518,-0.174288,4.844534,1,0,0,FF
AA55,1,2,641,1.5750,20.718850,6.196115,201.942561,-69.786347,-0.198343,4.769196,1,0,0,FF
AA55,1,2,642,1.5775,20.629814,6.175602,202.523534,-69.941959,-0.222059,4.694287,1,0,0,FF
AA55,1,2,643,1.5800,20.541103,6.155148,203.104481,-70.114625,-0.245330,4.619767,1,0,0,FF
AA55,1,2,644,1.5825,20.452719,6.134752,203.685401,-70.303837,-0.268120,4.545600,1,0,0,FF
AA55,1,2,645,1.5850,20.364666,6.114416,204.266290,-70.508373,-0.290472,4.471743,1,1,0,FF
AA55,1,2,646,1.5875,20.276946,6.094138,204.847147,-70.727994,-0.312316,4.398142,1,1,0,FF
AA55,1,2,647,1.5900,20.189563,6.073916,205.427968,-70.962627,-0.333580,4.324772,1,1,0,FF
AA55,1,2,648,1.5925,20.102519,6.053751,206.008751,-71.211532,-0.354247,4.251618,1,1,0,FF
AA55,1,2,649,1.5950,20.015819,6.033641,206.589493,-71.472860,-0.374405,4.178660,1,1,0,FF
AA55,1,2,650,1.5975,19.929464,6.013586,207.170191,-71.745329,-0.394103,4.105929,1,0,0,FF
AA55,1,2,651,1.6000,19.843460,5.993585,207.750843,-72.027172,-0.413449,4.033478,1,0,0,FF
AA55,1,2,652,1.6025,19.757809,5.973639,208.331446,-72.316347,-0.432574,3.961385,1,0,0,FF
AA55,1,2,653,1.6050,19.672516,5.953746,208.911998,-72.611578,-0.451550,3.889717,1,0,0,FF
AA55,1,2,654,1.6075,19.587584,5.933905,209.492497,-72.911288,-0.470463,3.818524,1,0,0,FF
AA55,1,2,655,1.6100,19.503015,5.914115,210.072943,-73.213121,-0.489348,3.747828,1,1,0,FF
AA55,1,2,656,1.6125,19.418813,5.894376,210.653333,-73.515914,-0.508235,3.677649,1,1,0,FF
AA55,1,2,657,1.6150,19.334981,5.874685,211.233667,-73.818404,-0.527160,3.608040,1,1,0,FF
AA55,1,2,658,1.6175,19.251523,5.855042,211.813942,-74.118539,-0.546240,3.539070,1,1,0,FF
AA55,1,2,659,1.6200,19.168440,5.835446,212.394158,-74.415332,-0.565499,3.470754,1,1,0,FF
AA55,1,2,660,1.6225,19.085735,5.815895,212.974312,-74.708244,-0.584932,3.403072,1,0,0,FF
AA55,1,2,661,1.6250,19.003410,5.796387,213.554403,-74.995788,-0.604592,3.336048,1,0,0,FF
AA55,1,2,662,1.6275,18.921468,5.776922,214.134430,-75.278291,-0.624411,3.269659,1,0,0,FF
AA55,1,2,663,1.6300,18.839910,5.757496,214.714391,-75.555993,-0.644320,3.203935,1,0,0,FF
AA55,1,2,664,1.6325,18.758738,5.738110,215.294283,-75.827721,-0.664357,3.138905,1,0,0,FF
AA55,1,2,665,1.6350,18.677955,5.718760,215.874107,-76.092882,-0.684557,3.074597,1,1,0,FF
AA55,1,2,666,1.6375,18.597562,5.699447,216.453859,-76.351469,-0.704875,3.011035,1,1,0,FF
AA55,1,2,667,1.6400,18.517562,5.680169,217.033539,-76.602442,-0.725357,2.948159,1,1,0,FF
AA55,1,2,668,1.6425,18.437955,5.660924,217.613145,-76.846115,-0.745930,2.885887,1,1,0,FF
AA55,1,2,669,1.6450,18.358744,5.641711,218.192675,-77.082443,-0.766567,2.824243,1,1,0,FF
AA55,1,2,670,1.6475,18.279930,5.622528,218.772128,-77.311159,-0.787261,2.763205,1,0,0,FF
AA55,1,2,671,1.6500,18.201515,5.603374,219.351502,-77.532904,-0.807924,2.702743,1,0,0,FF
AA55,1,2,672,1.6525,18.123500,5.584247,219.930796,-77.748871,-0.828437,2.642863,1,0,0,FF
AA55,1,2,673,1.6550,18.045883,5.565144,220.510060,-77.959639,-0.848716,2.583567,1,0,0,FF
AA55,1,2,674,1.6575,17.968668,5.546065,221.089261,-78.164346,-0.868785,2.524827,1,0,0,FF
AA55,1,2,675,1.6600,17.891855,5.527009,221.668403,-78.362397,-0.888663,2.466646,1,0,0,FF
AA55,1,2,676,1.6625,17.815446,5.507974,222.247487,-78.553648,-0.908342,2.409061,1,0,0,FF
AA55,1,2,677,1.6650,17.739440,5.488959,222.826513,-78.738179,-0.927791,2.352055,1,0,0,FF
AA55,1,2,678,1.6675,17.663840,5.469962,223.405480,-78.916097,-0.946975,2.295618,1,1,0,FF
AA55,1,2,679,1.6700,17.588645,5.450983,223.984387,-79.087214,-0.965874,2.239748,1,1,0,FF
AA55,1,2,680,1.6725,17.513856,5.432019,224.563234,-79.250930,-0.984521,2.184455,1,1,0,FF
AA55,1,2,681,1.6750,17.439475,5.413070,225.142022,-79.407140,-1.002911,2.129764,1,1,0,FF
AA55,1,2,682,1.6775,17.365501,5.394135,225.720749,-79.555756,-1.021043,2.075713,1,1,0,FF
AA55,1,2,683,1.6800,17.291937,5.375213,226.299416,-79.695913,-1.038942,2.022368,1,0,0,FF
AA55,1,2,684,1.6825,17.218783,5.356304,226.878022,-79.828117,-1.056617,1.969811,1,0,0,FF
AA55,1,2,685,1.6850,17.146040,5.337404,227.456567,-79.953469,-1.074008,1.918134,1,0,0,FF
AA55,1,2,686,1.6875,17.073707,5.318514,228.035051,-80.071446,-1.091145,1.867391,1,0,0,FF
AA55,1,2,687,1.6900,17.001785,5.299633,228.613473,-80.182024,-1.108033,1.817610,1,0,0,FF
AA55,1,2,688,1.6925,16.930275,5.280760,229.191833,-80.285805,-1.124650,1.768859,1,1,0,FF
AA55,1,2,689,1.6950,16.859176,5.261892,229.770131,-80.382793,-1.140994,1.721192,1,1,0,FF
AA55,1,2,690,1.6975,16.788489,5.243031,230.348367,-80.473438,-1.157050,1.674720,1,1,0,FF
AA55,1,2,691,1.7000,16.718215,5.224174,230.926540,-80.558296,-1.172802,1.629535,1,1,0,FF
AA55,1,2,692,1.7025,16.648354,5.205321,231.504649,-80.637369,-1.188246,1.585670,1,1,0,FF
AA55,1,2,693,1.7050,16.578906,5.186471,232.082696,-80.710217,-1.203408,1.543182,1,0,0,FF
AA55,1,2,694,1.7075,16.509871,5.167624,232.660679,-80.775744,-1.218359,1.502120,1,0,0,FF
