#Header,Sender ID,Target ID,MSG Counter,Time, Object X,Object Y,Object Z,Object Roll,Object Pitch,Object Yaw,Smoke,Object Model,spare,CheckSum
AA55,1,2,11,9,0.001,0.001,10,5,5,0,1,0,0,FF
AA55,1,2,12,19,0.001,0.001,12,15,15,0,1,0,0,FF
AA55,1,2,13,29,0.001,0.001,14,25,25,0,1,0,0,FF
AA55,1,2,14,39,0.001,0.001,16,35,35,0,1,0,0,FF
AA55,1,2,15,49,0.001,0.001,18,45,45,0,1,1,0,FF
AA55,1,2,16,59,0.001,0.001,20,55,55,0,1,1,0,FF
AA55,1,2,17,69,0.001,0.001,22,65,65,0,1,1,0,FF
AA55,1,2,18,79,0.001,0.001,24,75,75,0,1,1,0,FF
AA55,1,2,19,89,0.001,0.001,26,85,85,0,1,1,0,FF
AA55,1,2,20,99,0.001,0.001,28,95,95,0,1,0,0,FF
AA55,1,2,21,109,0.001,0.001,30,105,105,0,1,0,0,FF
AA55,1,2,22,119,0.001,0.001,32,115,115,0,1,0,0,FF
AA55,1,2,23,129,0.001,0.001,34,125,125,0,1,0,0,FF
AA55,1,2,24,139,0.001,0.001,36,135,135,0,1,0,0,FF
AA55,1,2,25,149,0.001,0.001,38,145,145,0,1,1,0,FF
AA55,1,2,26,159,0.001,0.001,40,155,155,0,1,1,0,FF
AA55,1,2,27,169,0.001,0.001,42,165,165,0,1,1,0,FF
AA55,1,2,28,179,0.001,0.001,44,175,175,0,1,1,0,FF
AA55,1,2,29,189,0.001,0.001,46,185,185,0,1,1,0,FF
AA55,1,2,30,199,0.001,0.001,48,195,195,0,1,0,0,FF
AA55,1,2,31,209,0.001,0.001,50,205,205,0,1,0,0,FF
AA55,1,2,32,219,0.001,0.001,52,215,215,0,1,0,0,FF
AA55,1,2,33,229,0.001,0.001,54,225,225,0,1,0,0,FF
AA55,1,2,34,239,0.001,0.001,56,235,235,0,1,0,0,FF
AA55,1,2,35,249,0.001,0.001,58,245,245,0,1,1,0,FF
AA55,1,2,36,259,0.001,0.001,60,255,255,0,1,1,0,FF
AA55,1,2,37,269,0.001,0.001,62,265,265,0,1,1,0,FF
AA55,1,2,38,279,0.001,0.001,64,275,275,0,1,1,0,FF
AA55,1,2,39,289,0.001,0.001,66,285,285,0,1,1,0,FF
AA55,1,2,40,299,0.001,0.001,68,295,295,0,1,0,0,FF
AA55,1,2,41,309,0.001,0.001,70,305,305,0,1,0,0,FF
AA55,1,2,42,319,0.001,0.001,72,315,315,0,1,0,0,FF
AA55,1,2,43,329,0.001,0.001,74,325,325,0,1,0,0,FF
AA55,1,2,44,339,0.001,0.001,76,335,335,0,1,0,0,FF
AA55,1,2,45,349,0.001,0.001,78,345,345,0,1,0,0,FF
AA55,1,2,46,359,0.001,0.001,80,355,355,0,1,0,0,FF
AA55,1,2,47,369,0.001,0.001,82,365,365,0,1,0,0,FF
AA55,1,2,48,379,0.001,0.001,84,375,375,0,1,1,0,FF
AA55,1,2,49,389,0.001,0.001,86,385,385,0,1,1,0,FF
AA55,1,2,50,399,0.001,0.001,88,395,395,0,1,1,0,FF
AA55,1,2,51,409,0.001,0.001,90,405,405,0,1,1,0,FF
AA55,1,2,52,419,0.001,0.001,92,415,415,0,1,1,0,FF
AA55,1,2,53,429,0.001,0.001,94,425,425,0,1,0,0,FF
AA55,1,2,54,439,0.001,0.001,96,435,435,0,1,0,0,FF
AA55,1,2,55,449,0.001,0.001,98,445,445,0,1,0,0,FF
AA55,1,2,56,459,0.001,0.001,100,455,455,0,1,0,0,FF
AA55,1,2,57,469,0.001,0.001,102,465,465,0,1,0,0,FF
AA55,1,2,58,479,0.001,0.001,104,475,475,0,1,1,0,FF
AA55,1,2,59,489,0.001,0.001,106,485,485,0,1,1,0,FF
AA55,1,2,60,499,0.001,0.001,108,495,495,0,1,1,0,FF
AA55,1,2,61,509,0.001,0.001,110,505,505,0,1,1,0,FF
AA55,1,2,62,519,0.001,0.001,112,515,515,0,1,1,0,FF
AA55,1,2,63,529,0.001,0.001,114,525,525,0,1,0,0,FF
AA55,1,2,64,539,0.001,0.001,116,535,535,0,1,0,0,FF
AA55,1,2,65,549,0.001,0.001,118,545,545,0,1,0,0,FF
AA55,1,2,66,559,0.001,0.001,120,555,555,0,1,0,0,FF
AA55,1,2,67,569,0.001,0.001,122,565,565,0,1,0,0,FF
AA55,1,2,68,579,0.001,0.001,124,575,575,0,1,1,0,FF
AA55,1,2,69,589,0.001,0.001,126,585,585,0,1,1,0,FF
AA55,1,2,70,599,0.001,0.001,128,595,595,0,1,1,0,FF
AA55,1,2,71,609,0.001,0.001,130,605,605,0,1,1,0,FF
AA55,1,2,72,619,0.001,0.001,132,615,615,0,1,1,0,FF
AA55,1,2,73,629,0.001,0.001,134,625,625,0,1,0,0,FF
AA55,1,2,74,639,0.001,0.001,136,635,635,0,1,0,0,FF
AA55,1,2,75,649,0.001,0.001,138,645,645,0,1,0,0,FF
AA55,1,2,76,659,0.001,0.001,140,655,655,0,1,0,0,FF
AA55,1,2,77,669,0.001,0.001,142,665,665,0,1,0,0,FF
AA55,1,2,78,679,0.001,0.001,144,675,675,0,1,0,0,FF
AA55,1,2,79,689,0.001,0.001,146,685,685,0,1,0,0,FF
AA55,1,2,80,699,0.001,0.001,148,695,695,0,1,0,0,FF
AA55,1,2,81,709,0.001,0.001,150,705,705,0,1,1,0,FF
AA55,1,2,82,719,0.001,0.001,152,715,715,0,1,1,0,FF
AA55,1,2,83,729,0.001,0.001,154,725,725,0,1,1,0,FF
AA55,1,2,84,739,0.001,0.001,156,735,735,0,1,1,0,FF
AA55,1,2,85,749,0.001,0.001,158,745,745,0,1,1,0,FF
AA55,1,2,86,759,0.001,0.001,160,755,755,0,1,0,0,FF
AA55,1,2,87,769,0.001,0.001,162,765,765,0,1,0,0,FF
AA55,1,2,88,779,0.001,0.001,164,775,775,0,1,0,0,FF
AA55,1,2,89,789,0.001,0.001,166,785,785,0,1,0,0,FF
AA55,1,2,90,799,0.001,0.001,168,795,795,0,1,0,0,FF
AA55,1,2,91,809,0.001,0.001,170,805,805,0,1,1,0,FF
AA55,1,2,92,819,0.001,0.001,172,815,815,0,1,1,0,FF
AA55,1,2,93,829,0.001,0.001,174,825,825,0,1,1,0,FF
AA55,1,2,94,839,0.001,0.001,176,835,835,0,1,1,0,FF
AA55,1,2,95,849,0.001,0.001,178,845,845,0,1,1,0,FF
AA55,1,2,96,859,0.001,0.001,180,855,855,0,1,0,0,FF
AA55,1,2,97,869,0.001,0.001,182,865,865,0,1,0,0,FF
AA55,1,2,98,879,0.001,0.001,184,875,875,0,1,0,0,FF
AA55,1,2,99,889,0.001,0.001,186,885,885,0,1,0,0,FF
AA55,1,2,100,899,0.001,0.001,188,895,895,0,1,0,0,FF
AA55,1,2,101,909,0.001,0.001,190,905,905,0,1,1,0,FF
AA55,1,2,102,919,0.001,0.001,192,915,915,0,1,1,0,FF
AA55,1,2,103,929,0.001,0.001,194,925,925,0,1,1,0,FF
AA55,1,2,104,939,0.001,0.001,196,935,935,0,1,1,0,FF
AA55,1,2,105,949,0.001,0.001,198,945,945,0,1,1,0,FF
AA55,1,2,106,959,0.001,0.001,200,955,955,0,1,0,0,FF
AA55,1,2,107,969,0.001,0.001,202,965,965,0,1,0,0,FF
AA55,1,2,108,979,0.001,0.001,204,975,975,0,1,0,0,FF
AA55,1,2,109,989,0.001,0.001,206,985,985,0,1,0,0,FF
AA55,1,2,110,999,0.001,0.001,208,995,995,0,1,0,0,FF
AA55,1,2,111,1009,0.001,0.001,210,1005,1005,0,1,0,0,FF
AA55,1,2,112,1019,0.001,0.001,212,1015,1015,0,1,0,0,FF
AA55,1,2,113,1029,0.001,0.001,214,1025,1025,0,1,0,0,FF
AA55,1,2,114,1039,0.001,0.001,216,1035,1035,0,1,1,0,FF
AA55,1,2,115,1049,0.001,0.001,218,1045,1045,0,1,1,0,FF
AA55,1,2,116,1059,0.001,0.001,220,1055,1055,0,1,1,0,FF
AA55,1,2,117,1069,0.001,0.001,222,1065,1065,0,1,1,0,FF
AA55,1,2,118,1079,0.001,0.001,224,1075,1075,0,1,1,0,FF
AA55,1,2,119,1089,0.001,0.001,226,1085,1085,0,1,0,0,FF
AA55,1,2,120,1099,0.001,0.001,228,1095,1095,0,1,0,0,FF
AA55,1,2,121,1109,0.001,0.001,230,1105,1105,0,1,0,0,FF
AA55,1,2,122,1119,0.001,0.001,232,1115,1115,0,1,0,0,FF
AA55,1,2,123,1129,0.001,0.001,234,1125,1125,0,1,0,0,FF
AA55,1,2,124,1139,0.001,0.001,236,1135,1135,0,1,1,0,FF
AA55,1,2,125,1149,0.001,0.001,238,1145,1145,0,1,1,0,FF
AA55,1,2,126,1159,0.001,0.001,240,1155,1155,0,1,1,0,FF
AA55,1,2,127,1169,0.001,0.001,242,1165,1165,0,1,1,0,FF
AA55,1,2,128,1179,0.001,0.001,244,1175,1175,0,1,1,0,FF
AA55,1,2,129,1189,0.001,0.001,246,1185,1185,0,1,0,0,FF
AA55,1,2,130,1199,0.001,0.001,248,1195,1195,0,1,0,0,FF
AA55,1,2,131,1209,0.001,0.001,250,1205,1205,0,1,0,0,FF
AA55,1,2,132,1219,0.001,0.001,252,1215,1215,0,1,0,0,FF
AA55,1,2,133,1229,0.001,0.001,254,1225,1225,0,1,0,0,FF
AA55,1,2,134,1239,0.001,0.001,256,1235,1235,0,1,1,0,FF
AA55,1,2,135,1249,0.001,0.001,258,1245,1245,0,1,1,0,FF
AA55,1,2,136,1259,0.001,0.001,260,1255,1255,0,1,1,0,FF
AA55,1,2,137,1269,0.001,0.001,262,1265,1265,0,1,1,0,FF
AA55,1,2,138,1279,0.001,0.001,264,1275,1275,0,1,1,0,FF
AA55,1,2,139,1289,0.001,0.001,266,1285,1285,0,1,0,0,FF
AA55,1,2,140,1299,0.001,0.001,268,1295,1295,0,1,0,0,FF
AA55,1,2,141,1309,0.001,0.001,270,1305,1305,0,1,0,0,FF
AA55,1,2,142,1319,0.001,0.001,272,1315,1315,0,1,0,0,FF
AA55,1,2,143,1329,0.001,0.001,274,1325,1325,0,1,0,0,FF
AA55,1,2,144,1339,0.001,0.001,276,1335,1335,0,1,0,0,FF
AA55,1,2,145,1349,0.001,0.001,278,1345,1345,0,1,0,0,FF
AA55,1,2,146,1359,0.001,0.001,280,1355,1355,0,1,0,0,FF
AA55,1,2,147,1369,0.001,0.001,282,1365,1365,0,1,1,0,FF
AA55,1,2,148,1379,0.001,0.001,284,1375,1375,0,1,1,0,FF
AA55,1,2,149,1389,0.001,0.001,286,1385,1385,0,1,1,0,FF
AA55,1,2,150,1399,0.001,0.001,288,1395,1395,0,1,1,0,FF
AA55,1,2,151,1409,0.001,0.001,290,1405,1405,0,1,1,0,FF
AA55,1,2,152,1419,0.001,0.001,292,1415,1415,0,1,0,0,FF
AA55,1,2,153,1429,0.001,0.001,294,1425,1425,0,1,0,0,FF
AA55,1,2,154,1439,0.001,0.001,296,1435,1435,0,1,0,0,FF
AA55,1,2,155,1449,0.001,0.001,298,1445,1445,0,1,0,0,FF
AA55,1,2,156,1459,0.001,0.001,300,1455,1455,0,1,0,0,FF
AA55,1,2,157,1469,0.001,0.001,302,1465,1465,0,1,1,0,FF
AA55,1,2,158,1479,0.001,0.001,304,1475,1475,0,1,1,0,FF
AA55,1,2,159,1489,0.001,0.001,306,1485,1485,0,1,1,0,FF
AA55,1,2,160,1499,0.001,0.001,308,1495,1495,0,1,1,0,FF
AA55,1,2,161,1509,0.001,0.001,310,1505,1505,0,1,1,0,FF
AA55,1,2,162,1519,0.001,0.001,312,1515,1515,0,1,0,0,FF
AA55,1,2,163,1529,0.001,0.001,314,1525,1525,0,1,0,0,FF
AA55,1,2,164,1539,0.001,0.001,316,1535,1535,0,1,0,0,FF
AA55,1,2,165,1549,0.001,0.001,318,1545,1545,0,1,0,0,FF
AA55,1,2,166,1559,0.001,0.001,320,1555,1555,0,1,0,0,FF
AA55,1,2,167,1569,0.001,0.001,322,1565,1565,0,1,1,0,FF
AA55,1,2,168,1579,0.001,0.001,324,1575,1575,0,1,1,0,FF
AA55,1,2,169,1589,0.001,0.001,326,1585,1585,0,1,1,0,FF
AA55,1,2,170,1599,0.001,0.001,328,1595,1595,0,1,1,0,FF
AA55,1,2,171,1609,0.001,0.001,330,1605,1605,0,1,1,0,FF
AA55,1,2,172,1619,0.001,0.001,332,1615,1615,0,1,0,0,FF
AA55,1,2,173,1629,0.001,0.001,334,1625,1625,0,1,0,0,FF
AA55,1,2,174,1639,0.001,0.001,336,1635,1635,0,1,0,0,FF
AA55,1,2,175,1649,0.001,0.001,338,1645,1645,0,1,0,0,FF
AA55,1,2,176,1659,0.001,0.001,340,1655,1655,0,1,0,0,FF
AA55,1,2,177,1669,0.001,0.001,342,1665,1665,0,1,0,0,FF
AA55,1,2,178,1679,0.001,0.001,344,1675,1675,0,1,0,0,FF
AA55,1,2,179,1689,0.001,0.001,346,1685,1685,0,1,0,0,FF
AA55,1,2,180,1699,0.001,0.001,348,1695,1695,0,1,1,0,FF
AA55,1,2,181,1709,0.001,0.001,350,1705,1705,0,1,1,0,FF
AA55,1,2,182,1719,0.001,0.001,352,1715,1715,0,1,1,0,FF
AA55,1,2,183,1729,0.001,0.001,354,1725,1725,0,1,1,0,FF
AA55,1,2,184,1739,0.001,0.001,356,1735,1735,0,1,1,0,FF
AA55,1,2,185,1749,0.001,0.001,358,1745,1745,0,1,0,0,FF
AA55,1,2,186,1759,0.001,0.001,360,1755,1755,0,1,0,0,FF
AA55,1,2,187,1769,0.001,0.001,362,1765,1765,0,1,0,0,FF
AA55,1,2,188,1779,0.001,0.001,364,1775,1775,0,1,0,0,FF
AA55,1,2,189,1789,0.001,0.001,366,1785,1785,0,1,0,0,FF
AA55,1,2,190,1799,0.001,0.001,368,1795,1795,0,1,1,0,FF
AA55,1,2,191,1809,0.001,0.001,370,1805,1805,0,1,1,0,FF
AA55,1,2,192,1819,0.001,0.001,372,1815,1815,0,1,1,0,FF
AA55,1,2,193,1829,0.001,0.001,374,1825,1825,0,1,1,0,FF
AA55,1,2,194,1839,0.001,0.001,376,1835,1835,0,1,1,0,FF
AA55,1,2,195,1849,0.001,0.001,378,1845,1845,0,1,0,0,FF
AA55,1,2,196,1859,0.001,0.001,380,1855,1855,0,1,0,0,FF
AA55,1,2,197,1869,0.001,0.001,382,1865,1865,0,1,0,0,FF
AA55,1,2,198,1879,0.001,0.001,384,1875,1875,0,1,0,0,FF
