#Header,Sender ID,Target ID,MSG Counter,Time, Object X,Object Y,Object Z,Object Roll,Object Pitch,Object Yaw,Smoke,Object Model,spare,CheckSum,,,
AA55,1,2,11,0.00E+00,-2.33E-11,4.00E+01,3.75E-11,0.00E+00,1.00E+01,-1.59E-15,1,0,0,FF,,,
AA55,1,2,12,2.50E-03,-2.33E-11,4.00E+01,3.75E-11,0.00E+00,1.00E+01,-1.59E-15,1,1,0,FF,,,
AA55,1,2,13,5.00E-03,-2.33E-11,4.00E+01,3.75E-11,-9.69E-06,1.00E+01,3.89E-06,1,1,0,FF,,,
AA55,1,2,14,7.50E-03,1.64E-03,4.00E+01,2.89E-04,-9.69E-06,1.00E+01,3.89E-06,1,1,0,FF,,,
AA55,1,2,15,1.00E-02,4.37E-03,4.00E+01,7.71E-04,-9.69E-06,1.00E+01,3.89E-06,1,1,0,FF,,,
AA55,1,2,16,1.25E-02,8.20E-03,4.00E+01,1.45E-03,-9.69E-06,1.00E+01,3.89E-06,1,1,0,FF,,,
AA55,1,2,17,1.50E-02,1.31E-02,4.00E+01,2.31E-03,-9.69E-06,1.00E+01,3.89E-06,1,0,0,FF,,,
AA55,1,2,18,1.75E-02,1.91E-02,4.00E+01,3.37E-03,-9.69E-06,1.00E+01,3.89E-06,1,0,0,FF,,,
AA55,1,2,19,2.00E-02,2.62E-02,4.00E+01,4.63E-03,-9.69E-06,1.00E+01,3.89E-06,1,0,0,FF,,,
AA55,1,2,20,2.25E-02,3.44E-02,4.00E+01,6.07E-03,-9.69E-06,1.00E+01,3.89E-06,1,0,0,FF,,,
AA55,1,2,21,2.50E-02,4.37E-02,4.00E+01,7.71E-03,-9.69E-06,1.00E+01,3.89E-06,1,0,0,FF,,,
AA55,1,2,22,2.75E-02,5.41E-02,4.00E+01,9.54E-03,-9.69E-06,1.00E+01,3.89E-06,1,1,0,FF,,,
AA55,1,2,23,3.00E-02,6.56E-02,4.00E+01,1.16E-02,-9.69E-06,1.00E+01,3.89E-06,1,1,0,FF,,,
AA55,1,2,24,3.25E-02,7.81E-02,4.00E+01,1.38E-02,-9.69E-06,1.00E+01,3.89E-06,1,1,0,FF,,,
AA55,1,2,25,3.50E-02,9.18E-02,4.00E+01,1.62E-02,-9.69E-06,1.00E+01,3.89E-06,1,1,0,FF,,,
AA55,1,2,26,3.75E-02,1.07E-01,4.00E+01,1.88E-02,-9.69E-06,1.00E+01,3.89E-06,1,1,0,FF,,,
AA55,1,2,27,4.00E-02,1.22E-01,4.00E+01,2.16E-02,-9.69E-06,1.00E+01,3.89E-06,1,0,0,FF,,,
AA55,1,2,28,4.25E-02,1.39E-01,4.00E+01,2.46E-02,-9.69E-06,1.00E+01,3.89E-06,1,0,0,FF,,,
AA55,1,2,29,4.50E-02,1.57E-01,4.00E+01,2.77E-02,-9.69E-06,1.00E+01,3.89E-06,1,0,0,FF,,,
AA55,1,2,30,4.75E-02,1.76E-01,4.00E+01,3.11E-02,-9.69E-06,1.00E+01,3.89E-06,1,0,0,FF,,,
AA55,1,2,31,5.00E-02,1.97E-01,4.00E+01,3.47E-02,-9.69E-06,1.00E+01,3.89E-06,1,0,0,FF,,,
AA55,1,2,32,5.25E-02,2.18E-01,4.00E+01,3.84E-02,-9.69E-06,1.00E+01,3.89E-06,1,1,0,FF,,,
AA55,1,2,33,5.50E-02,2.40E-01,4.00E+01,4.24E-02,-9.69E-06,1.00E+01,3.89E-06,1,1,0,FF,,,
AA55,1,2,34,5.75E-02,2.64E-01,4.00E+01,4.65E-02,-9.69E-06,1.00E+01,3.89E-06,1,1,0,FF,,,
AA55,1,2,35,6.00E-02,2.88E-01,4.00E+01,5.08E-02,-9.69E-06,1.00E+01,3.89E-06,1,1,0,FF,,,
AA55,1,2,36,6.25E-02,3.14E-01,4.00E+01,5.53E-02,-9.69E-06,1.00E+01,3.89E-06,1,1,0,FF,,,
AA55,1,2,37,6.50E-02,3.41E-01,4.00E+01,6.01E-02,-9.69E-06,1.00E+01,3.89E-06,1,0,0,FF,,,
AA55,1,2,38,6.75E-02,3.68E-01,4.00E+01,6.50E-02,-9.69E-06,1.00E+01,3.89E-06,1,0,0,FF,,,
AA55,1,2,39,7.00E-02,3.97E-01,4.00E+01,7.00E-02,-9.69E-06,1.00E+01,3.89E-06,1,0,0,FF,,,
AA55,1,2,40,7.25E-02,4.27E-01,4.00E+01,7.53E-02,-9.69E-06,1.00E+01,3.89E-06,1,0,0,FF,,,
AA55,1,2,41,7.50E-02,4.58E-01,4.00E+01,8.08E-02,-9.69E-06,1.00E+01,3.89E-06,1,0,0,FF,,,
AA55,1,2,42,7.75E-02,4.90E-01,4.00E+01,8.65E-02,-9.69E-06,1.00E+01,3.89E-06,1,0,0,FF,,,
AA55,1,2,43,8.00E-02,5.24E-01,4.00E+01,9.23E-02,-9.69E-06,1.00E+01,3.89E-06,1,0,0,FF,,,
AA55,1,2,44,8.25E-02,5.58E-01,4.00E+01,9.84E-02,-9.69E-06,1.00E+01,3.89E-06,1,0,0,FF,,,
AA55,1,2,45,8.50E-02,5.93E-01,4.00E+01,1.05E-01,-9.69E-06,1.00E+01,3.89E-06,1,1,0,FF,,,
AA55,1,2,46,8.75E-02,6.30E-01,4.00E+01,1.11E-01,-9.69E-06,1.00E+01,3.89E-06,1,1,0,FF,,,
AA55,1,2,47,9.00E-02,6.68E-01,4.00E+01,1.18E-01,-9.69E-06,1.00E+01,3.89E-06,1,1,0,FF,,,
AA55,1,2,48,9.25E-02,7.06E-01,4.00E+01,1.25E-01,-9.69E-06,1.00E+01,3.89E-06,1,1,0,FF,,,
AA55,1,2,49,9.50E-02,7.46E-01,4.00E+01,1.32E-01,-9.69E-06,1.00E+01,3.89E-06,1,1,0,FF,,,
AA55,1,2,50,9.75E-02,7.87E-01,4.00E+01,1.39E-01,-9.69E-06,1.00E+01,3.89E-06,1,0,0,FF,,,
AA55,1,2,51,1.00E-01,8.29E-01,4.00E+01,1.46E-01,-9.69E-06,1.00E+01,3.89E-06,1,0,0,FF,,,
AA55,1,2,52,1.02E-01,8.72E-01,4.00E+01,1.54E-01,-9.69E-06,1.00E+01,3.89E-06,1,0,0,FF,,,
AA55,1,2,53,1.05E-01,9.16E-01,4.00E+01,1.61E-01,-9.69E-06,1.00E+01,3.89E-06,1,0,0,FF,,,
AA55,1,2,54,1.08E-01,9.61E-01,4.00E+01,1.69E-01,-9.69E-06,1.00E+01,3.89E-06,1,0,0,FF,,,
AA55,1,2,55,1.10E-01,1.01E+00,4.00E+01,1.78E-01,-9.69E-06,1.00E+01,3.89E-06,1,1,0,FF,,,
AA55,1,2,56,1.13E-01,1.05E+00,4.00E+01,1.86E-01,-9.69E-06,1.00E+01,3.89E-06,1,1,0,FF,,,
AA55,1,2,57,1.15E-01,1.10E+00,4.00E+01,1.94E-01,-9.69E-06,1.00E+01,3.89E-06,1,1,0,FF,,,
AA55,1,2,58,1.17E-01,1.15E+00,4.00E+01,2.03E-01,-9.69E-06,1.00E+01,3.89E-06,1,1,0,FF,,,
AA55,1,2,59,1.20E-01,1.20E+00,4.00E+01,2.12E-01,-9.69E-06,1.00E+01,3.89E-06,1,1,0,FF,,,
AA55,1,2,60,1.23E-01,1.25E+00,4.00E+01,2.21E-01,-9.69E-06,1.00E+01,3.89E-06,1,0,0,FF,,,
AA55,1,2,61,1.25E-01,1.31E+00,4.00E+01,2.31E-01,-9.69E-06,1.00E+01,3.89E-06,1,0,0,FF,,,
AA55,1,2,62,1.28E-01,1.36E+00,4.00E+01,2.40E-01,-9.69E-06,1.00E+01,3.89E-06,1,0,0,FF,,,
AA55,1,2,63,1.30E-01,1.42E+00,4.00E+01,2.50E-01,-9.69E-06,1.00E+01,3.89E-06,1,0,0,FF,,,
AA55,1,2,64,1.33E-01,1.47E+00,4.00E+01,2.60E-01,-9.69E-06,1.00E+01,3.89E-06,1,0,0,FF,,,
AA55,1,2,65,1.35E-01,1.53E+00,4.00E+01,2.70E-01,-9.69E-06,1.00E+01,3.89E-06,1,1,0,FF,,,
AA55,1,2,66,1.38E-01,1.59E+00,4.00E+01,2.80E-01,-9.69E-06,1.00E+01,3.89E-06,1,1,0,FF,,,
AA55,1,2,67,1.40E-01,1.65E+00,4.00E+01,2.90E-01,-9.69E-06,1.00E+01,3.89E-06,1,1,0,FF,,,
AA55,1,2,68,1.42E-01,1.71E+00,4.00E+01,3.01E-01,-9.69E-06,1.00E+01,3.89E-06,1,1,0,FF,,,
AA55,1,2,69,1.45E-01,1.77E+00,4.00E+01,3.12E-01,-9.69E-06,1.00E+01,3.89E-06,1,1,0,FF,,,
AA55,1,2,70,1.47E-01,1.83E+00,4.00E+01,3.23E-01,-9.69E-06,1.00E+01,3.89E-06,1,0,0,FF,,,
AA55,1,2,71,1.50E-01,1.89E+00,4.00E+01,3.34E-01,-9.69E-06,1.00E+01,3.89E-06,1,0,0,FF,,,
AA55,1,2,72,1.53E-01,1.96E+00,4.00E+01,3.45E-01,-9.69E-06,1.00E+01,3.89E-06,1,0,0,FF,,,
AA55,1,2,73,1.55E-01,2.02E+00,4.00E+01,3.56E-01,-9.69E-06,1.00E+01,3.89E-06,1,0,0,FF,,,
AA55,1,2,74,1.58E-01,2.09E+00,4.00E+01,3.68E-01,-9.69E-06,1.00E+01,3.89E-06,1,0,0,FF,,,
AA55,1,2,75,1.60E-01,2.16E+00,4.00E+01,3.79E-01,-9.69E-06,1.00E+01,3.89E-06,1,0,0,FF,,,
AA55,1,2,76,1.63E-01,2.23E+00,4.00E+01,3.91E-01,-1.05E-05,1.00E+01,4.27E-06,1,0,0,FF,,,
AA55,1,2,77,1.65E-01,2.30E+00,4.00E+01,4.03E-01,-1.25E-05,1.00E+01,5.07E-06,1,0,0,FF,,,
AA55,1,2,78,1.68E-01,2.37E+00,4.00E+01,4.15E-01,-1.50E-05,1.00E+01,5.98E-06,1,1,0,FF,,,
AA55,1,2,79,1.70E-01,2.44E+00,4.00E+01,4.27E-01,-1.88E-05,1.00E+01,7.32E-06,1,1,0,FF,,,
AA55,1,2,80,1.72E-01,2.52E+00,4.00E+01,4.39E-01,-2.50E-05,1.00E+01,9.35E-06,1,1,0,FF,,,
AA55,1,2,81,1.75E-01,2.59E+00,4.00E+01,4.51E-01,-3.40E-05,1.00E+01,1.22E-05,1,1,0,FF,,,
AA55,1,2,82,1.77E-01,2.67E+00,4.00E+01,4.64E-01,-4.52E-05,1.00E+01,1.56E-05,1,1,0,FF,,,
AA55,1,2,83,1.80E-01,2.74E+00,4.00E+01,4.76E-01,-5.71E-05,1.00E+01,1.91E-05,1,0,0,FF,,,
AA55,1,2,84,1.83E-01,2.82E+00,4.00E+01,4.89E-01,-7.08E-05,1.00E+01,2.31E-05,1,0,0,FF,,,
AA55,1,2,85,1.85E-01,2.90E+00,4.00E+01,5.02E-01,-8.65E-05,1.00E+01,2.75E-05,1,0,0,FF,,,
AA55,1,2,86,1.88E-01,2.98E+00,4.00E+01,5.15E-01,-1.05E-04,1.00E+01,3.26E-05,1,0,0,FF,,,
AA55,1,2,87,1.90E-01,3.06E+00,4.00E+01,5.28E-01,-1.27E-04,1.00E+01,3.86E-05,1,0,0,FF,,,
AA55,1,2,88,1.93E-01,3.14E+00,4.00E+01,5.41E-01,-1.54E-04,1.00E+01,4.56E-05,1,1,0,FF,,,
AA55,1,2,89,1.95E-01,3.22E+00,4.00E+01,5.55E-01,-1.90E-04,1.00E+01,5.41E-05,1,1,0,FF,,,
AA55,1,2,90,1.98E-01,3.31E+00,4.00E+01,5.68E-01,-2.42E-04,1.00E+01,6.53E-05,1,1,0,FF,,,
AA55,1,2,91,2.00E-01,3.39E+00,4.00E+01,5.82E-01,-3.09E-04,1.00E+01,7.91E-05,1,1,0,FF,,,
AA55,1,2,92,2.03E-01,3.48E+00,4.00E+01,5.95E-01,-3.87E-04,1.00E+01,9.49E-05,1,1,0,FF,,,
AA55,1,2,93,2.05E-01,3.57E+00,4.00E+01,6.09E-01,-4.76E-04,1.00E+01,1.12E-04,1,0,0,FF,,,
AA55,1,2,94,2.07E-01,3.66E+00,4.00E+01,6.23E-01,-5.74E-04,1.00E+01,1.31E-04,1,0,0,FF,,,
AA55,1,2,95,2.10E-01,3.75E+00,4.00E+01,6.38E-01,-6.80E-04,1.00E+01,1.51E-04,1,0,0,FF,,,
AA55,1,2,96,2.12E-01,3.84E+00,4.00E+01,6.52E-01,-7.92E-04,1.00E+01,1.72E-04,1,0,0,FF,,,
AA55,1,2,97,2.15E-01,3.93E+00,4.00E+01,6.66E-01,-9.12E-04,1.00E+01,1.94E-04,1,0,0,FF,,,
AA55,1,2,98,2.18E-01,4.02E+00,4.00E+01,6.81E-01,-1.04E-03,9.99E+00,2.18E-04,1,0,0,FF,,,
AA55,1,2,99,2.20E-01,4.12E+00,4.00E+01,6.96E-01,-1.18E-03,9.99E+00,2.42E-04,1,0,0,FF,,,
AA55,1,2,100,2.23E-01,4.21E+00,4.00E+01,7.10E-01,-1.32E-03,9.99E+00,2.68E-04,1,0,0,FF,,,
AA55,1,2,101,2.25E-01,4.31E+00,4.00E+01,7.25E-01,-1.47E-03,9.99E+00,2.95E-04,1,1,0,FF,,,
AA55,1,2,102,2.28E-01,4.40E+00,4.00E+01,7.41E-01,-1.62E-03,9.99E+00,3.21E-04,1,1,0,FF,,,
AA55,1,2,103,2.30E-01,4.50E+00,4.00E+01,7.56E-01,-1.77E-03,9.99E+00,3.49E-04,1,1,0,FF,,,
AA55,1,2,104,2.33E-01,4.60E+00,4.00E+01,7.71E-01,-1.94E-03,9.99E+00,3.78E-04,1,1,0,FF,,,
AA55,1,2,105,2.35E-01,4.70E+00,4.00E+01,7.87E-01,-2.12E-03,9.99E+00,4.08E-04,1,1,0,FF,,,
AA55,1,2,106,2.37E-01,4.80E+00,4.00E+01,8.02E-01,-2.31E-03,9.99E+00,4.41E-04,1,0,0,FF,,,
AA55,1,2,107,2.40E-01,4.91E+00,4.00E+01,8.18E-01,-2.52E-03,9.98E+00,4.76E-04,1,0,0,FF,,,
AA55,1,2,108,2.42E-01,5.01E+00,4.00E+01,8.34E-01,-2.76E-03,9.98E+00,5.14E-04,1,0,0,FF,,,
AA55,1,2,109,2.45E-01,5.11E+00,4.00E+01,8.50E-01,-3.02E-03,9.98E+00,5.56E-04,1,0,0,FF,,,
AA55,1,2,110,2.48E-01,5.22E+00,4.00E+01,8.66E-01,-3.32E-03,9.98E+00,6.01E-04,1,0,0,FF,,,
AA55,1,2,111,2.50E-01,5.33E+00,4.00E+01,8.82E-01,-3.65E-03,9.98E+00,6.51E-04,1,1,0,FF,,,
AA55,1,2,112,2.53E-01,5.43E+00,4.00E+01,8.99E-01,-4.02E-03,9.98E+00,7.05E-04,1,1,0,FF,,,
AA55,1,2,113,2.55E-01,5.54E+00,4.00E+01,9.15E-01,-4.42E-03,9.97E+00,7.63E-04,1,1,0,FF,,,
AA55,1,2,114,2.58E-01,5.65E+00,4.00E+01,9.32E-01,-4.85E-03,9.97E+00,8.25E-04,1,1,0,FF,,,
AA55,1,2,115,2.60E-01,5.76E+00,4.00E+01,9.49E-01,-5.31E-03,9.97E+00,8.91E-04,1,1,0,FF,,,
AA55,1,2,116,2.63E-01,5.88E+00,4.00E+01,9.66E-01,-5.80E-03,9.97E+00,9.60E-04,1,0,0,FF,,,
AA55,1,2,117,2.65E-01,5.99E+00,4.00E+01,9.83E-01,-6.33E-03,9.96E+00,1.04E-03,1,0,0,FF,,,
AA55,1,2,118,2.68E-01,6.10E+00,4.00E+01,1.00E+00,-6.90E-03,9.96E+00,1.11E-03,1,0,0,FF,,,
AA55,1,2,119,2.70E-01,6.22E+00,4.00E+01,1.02E+00,-7.51E-03,9.96E+00,1.20E-03,1,0,0,FF,,,
AA55,1,2,120,2.73E-01,6.34E+00,4.00E+01,1.03E+00,-8.15E-03,9.96E+00,1.29E-03,1,0,0,FF,,,
AA55,1,2,121,2.75E-01,6.45E+00,4.00E+01,1.05E+00,-8.82E-03,9.95E+00,1.38E-03,1,1,0,FF,,,
AA55,1,2,122,2.78E-01,6.57E+00,4.00E+01,1.07E+00,-9.50E-03,9.95E+00,1.47E-03,1,1,0,FF,,,
AA55,1,2,123,2.80E-01,6.69E+00,4.00E+01,1.09E+00,-1.02E-02,9.95E+00,1.57E-03,1,1,0,FF,,,
AA55,1,2,124,2.82E-01,6.81E+00,4.00E+01,1.11E+00,-1.09E-02,9.94E+00,1.67E-03,1,1,0,FF,,,
AA55,1,2,125,2.85E-01,6.94E+00,4.00E+01,1.12E+00,-1.17E-02,9.94E+00,1.77E-03,1,1,0,FF,,,
AA55,1,2,126,2.87E-01,7.06E+00,4.00E+01,1.14E+00,-1.25E-02,9.93E+00,1.88E-03,1,0,0,FF,,,
AA55,1,2,127,2.90E-01,7.18E+00,4.00E+01,1.16E+00,-1.34E-02,9.93E+00,1.99E-03,1,0,0,FF,,,
AA55,1,2,128,2.92E-01,7.31E+00,4.00E+01,1.18E+00,-1.43E-02,9.92E+00,2.11E-03,1,0,0,FF,,,
AA55,1,2,129,2.95E-01,7.43E+00,4.00E+01,1.20E+00,-1.52E-02,9.92E+00,2.24E-03,1,0,0,FF,,,
AA55,1,2,130,2.97E-01,7.56E+00,4.00E+01,1.22E+00,-1.62E-02,9.91E+00,2.38E-03,1,0,0,FF,,,
AA55,1,2,131,3.00E-01,7.69E+00,4.00E+01,1.24E+00,-1.73E-02,9.91E+00,2.52E-03,1,0,0,FF,,,
AA55,1,2,132,3.02E-01,7.82E+00,4.00E+01,1.25E+00,-1.85E-02,9.90E+00,2.67E-03,1,0,0,FF,,,
AA55,1,2,133,3.05E-01,7.95E+00,4.00E+01,1.27E+00,-1.97E-02,9.90E+00,2.82E-03,1,0,0,FF,,,
AA55,1,2,134,3.08E-01,8.08E+00,4.00E+01,1.29E+00,-2.09E-02,9.89E+00,2.99E-03,1,1,0,FF,,,
AA55,1,2,135,3.10E-01,8.21E+00,4.00E+01,1.31E+00,-2.23E-02,9.89E+00,3.16E-03,1,1,0,FF,,,
AA55,1,2,136,3.13E-01,8.35E+00,4.00E+01,1.33E+00,-2.48E-02,9.88E+00,3.34E-03,1,1,0,FF,,,
AA55,1,2,137,3.15E-01,8.48E+00,4.00E+01,1.35E+00,-2.86E-02,9.87E+00,3.54E-03,1,1,0,FF,,,
AA55,1,2,138,3.18E-01,8.62E+00,4.00E+01,1.37E+00,-3.45E-02,9.87E+00,3.75E-03,1,1,0,FF,,,
AA55,1,2,139,3.20E-01,8.75E+00,4.00E+01,1.39E+00,-4.30E-02,9.86E+00,3.97E-03,1,0,0,FF,,,
AA55,1,2,140,3.23E-01,8.89E+00,4.00E+01,1.41E+00,-5.48E-02,9.85E+00,4.20E-03,1,0,0,FF,,,
AA55,1,2,141,3.25E-01,9.03E+00,4.00E+01,1.43E+00,-7.06E-02,9.84E+00,4.44E-03,1,0,0,FF,,,
AA55,1,2,142,3.28E-01,9.17E+00,4.00E+01,1.45E+00,-9.10E-02,9.83E+00,4.70E-03,1,0,0,FF,,,
AA55,1,2,143,3.30E-01,9.31E+00,4.00E+01,1.47E+00,-1.17E-01,9.82E+00,4.98E-03,1,0,0,FF,,,
AA55,1,2,144,3.33E-01,9.45E+00,4.00E+01,1.49E+00,-1.49E-01,9.82E+00,5.27E-03,1,1,0,FF,,,
AA55,1,2,145,3.35E-01,9.60E+00,4.00E+01,1.51E+00,-1.88E-01,9.81E+00,5.58E-03,1,1,0,FF,,,
AA55,1,2,146,3.38E-01,9.74E+00,4.00E+01,1.54E+00,-2.34E-01,9.80E+00,5.91E-03,1,1,0,FF,,,
AA55,1,2,147,3.40E-01,9.89E+00,4.00E+01,1.56E+00,-2.89E-01,9.79E+00,6.26E-03,1,1,0,FF,,,
AA55,1,2,148,3.43E-01,1.00E+01,4.00E+01,1.58E+00,-3.54E-01,9.77E+00,6.63E-03,1,1,0,FF,,,
AA55,1,2,149,3.45E-01,1.02E+01,4.00E+01,1.60E+00,-4.28E-01,9.76E+00,7.02E-03,1,0,0,FF,,,
AA55,1,2,150,3.47E-01,1.03E+01,4.00E+01,1.62E+00,-5.13E-01,9.75E+00,7.43E-03,1,0,0,FF,,,
AA55,1,2,151,3.50E-01,1.05E+01,4.00E+01,1.64E+00,-6.10E-01,9.74E+00,7.87E-03,1,0,0,FF,,,
AA55,1,2,152,3.52E-01,1.06E+01,4.00E+01,1.66E+00,-7.18E-01,9.73E+00,8.33E-03,1,0,0,FF,,,
AA55,1,2,153,3.55E-01,1.08E+01,4.00E+01,1.69E+00,-8.39E-01,9.71E+00,8.81E-03,1,0,0,FF,,,
AA55,1,2,154,3.57E-01,1.09E+01,4.00E+01,1.71E+00,-9.72E-01,9.70E+00,9.31E-03,1,1,0,FF,,,
AA55,1,2,155,3.60E-01,1.11E+01,4.00E+01,1.73E+00,-1.12E+00,9.68E+00,9.83E-03,1,1,0,FF,,,
AA55,1,2,156,3.62E-01,1.12E+01,4.00E+01,1.75E+00,-1.28E+00,9.66E+00,1.04E-02,1,1,0,FF,,,
AA55,1,2,157,3.65E-01,1.14E+01,4.00E+01,1.77E+00,-1.45E+00,9.65E+00,1.09E-02,1,1,0,FF,,,
AA55,1,2,158,3.67E-01,1.16E+01,4.00E+01,1.80E+00,-1.64E+00,9.63E+00,1.15E-02,1,1,0,FF,,,
AA55,1,2,159,3.70E-01,1.17E+01,4.00E+01,1.82E+00,-1.84E+00,9.61E+00,1.21E-02,1,0,0,FF,,,
AA55,1,2,160,3.73E-01,1.19E+01,4.00E+01,1.84E+00,-2.05E+00,9.59E+00,1.27E-02,1,0,0,FF,,,
AA55,1,2,161,3.75E-01,1.20E+01,4.00E+01,1.86E+00,-2.28E+00,9.57E+00,1.33E-02,1,0,0,FF,,,
AA55,1,2,162,3.78E-01,1.22E+01,4.00E+01,1.89E+00,-2.52E+00,9.55E+00,1.39E-02,1,0,0,FF,,,
AA55,1,2,163,3.80E-01,1.24E+01,4.00E+01,1.91E+00,-2.77E+00,9.53E+00,1.46E-02,1,0,0,FF,,,
AA55,1,2,164,3.83E-01,1.25E+01,4.00E+01,1.93E+00,-3.04E+00,9.50E+00,1.53E-02,1,0,0,FF,,,
AA55,1,2,165,3.85E-01,1.27E+01,4.00E+01,1.96E+00,-3.32E+00,9.48E+00,1.61E-02,1,0,0,FF,,,
AA55,1,2,166,3.88E-01,1.29E+01,4.00E+01,1.98E+00,-3.62E+00,9.45E+00,1.69E-02,1,0,0,FF,,,
AA55,1,2,167,3.90E-01,1.30E+01,4.00E+01,2.00E+00,-3.93E+00,9.42E+00,1.77E-02,1,1,0,FF,,,
AA55,1,2,168,3.93E-01,1.32E+01,4.00E+01,2.03E+00,-4.25E+00,9.40E+00,1.86E-02,1,1,0,FF,,,
AA55,1,2,169,3.95E-01,1.34E+01,4.00E+01,2.05E+00,-4.59E+00,9.37E+00,1.96E-02,1,1,0,FF,,,
AA55,1,2,170,3.98E-01,1.35E+01,4.00E+01,2.08E+00,-4.94E+00,9.34E+00,2.06E-02,1,1,0,FF,,,
AA55,1,2,171,4.00E-01,1.37E+01,4.00E+01,2.10E+00,-5.31E+00,9.31E+00,2.16E-02,1,1,0,FF,,,
AA55,1,2,172,4.03E-01,1.39E+01,4.00E+01,2.12E+00,-5.69E+00,9.27E+00,2.28E-02,1,0,0,FF,,,
AA55,1,2,173,4.05E-01,1.40E+01,4.00E+01,2.15E+00,-6.08E+00,9.24E+00,2.40E-02,1,0,0,FF,,,
AA55,1,2,174,4.07E-01,1.42E+01,4.00E+01,2.17E+00,-6.49E+00,9.20E+00,2.52E-02,1,0,0,FF,,,
AA55,1,2,175,4.10E-01,1.44E+01,4.00E+01,2.20E+00,-6.91E+00,9.17E+00,2.66E-02,1,0,0,FF,,,
AA55,1,2,176,4.12E-01,1.46E+01,4.00E+01,2.22E+00,-7.34E+00,9.13E+00,2.81E-02,1,0,0,FF,,,
AA55,1,2,177,4.15E-01,1.47E+01,4.00E+01,2.25E+00,-7.79E+00,9.09E+00,2.97E-02,1,1,0,FF,,,
AA55,1,2,178,4.17E-01,1.49E+01,4.00E+01,2.27E+00,-8.26E+00,9.06E+00,3.14E-02,1,1,0,FF,,,
AA55,1,2,179,4.20E-01,1.51E+01,4.00E+01,2.30E+00,-8.73E+00,9.02E+00,3.33E-02,1,1,0,FF,,,
AA55,1,2,180,4.22E-01,1.53E+01,4.00E+01,2.32E+00,-9.23E+00,8.97E+00,3.52E-02,1,1,0,FF,,,
AA55,1,2,181,4.25E-01,1.55E+01,4.00E+01,2.35E+00,-9.73E+00,8.93E+00,3.74E-02,1,1,0,FF,,,
AA55,1,2,182,4.27E-01,1.56E+01,4.00E+01,2.37E+00,-1.03E+01,8.89E+00,3.97E-02,1,0,0,FF,,,
AA55,1,2,183,4.30E-01,1.58E+01,4.00E+01,2.40E+00,-1.08E+01,8.84E+00,4.22E-02,1,0,0,FF,,,
AA55,1,2,184,4.33E-01,1.60E+01,4.00E+01,2.42E+00,-1.13E+01,8.80E+00,4.48E-02,1,0,0,FF,,,
AA55,1,2,185,4.35E-01,1.62E+01,4.00E+01,2.45E+00,-1.19E+01,8.75E+00,4.77E-02,1,0,0,FF,,,
AA55,1,2,186,4.38E-01,1.64E+01,4.00E+01,2.47E+00,-1.25E+01,8.70E+00,5.09E-02,1,0,0,FF,,,
AA55,1,2,187,4.40E-01,1.66E+01,4.00E+01,2.50E+00,-1.31E+01,8.65E+00,5.43E-02,1,1,0,FF,,,
AA55,1,2,188,4.43E-01,1.68E+01,4.00E+01,2.52E+00,-1.37E+01,8.60E+00,5.79E-02,1,1,0,FF,,,
AA55,1,2,189,4.45E-01,1.70E+01,4.00E+01,2.55E+00,-1.43E+01,8.55E+00,6.19E-02,1,1,0,FF,,,
AA55,1,2,190,4.48E-01,1.71E+01,4.00E+01,2.58E+00,-1.49E+01,8.50E+00,6.62E-02,1,1,0,FF,,,
AA55,1,2,191,4.50E-01,1.73E+01,4.00E+01,2.60E+00,-1.56E+01,8.44E+00,7.08E-02,1,1,0,FF,,,
AA55,1,2,192,4.53E-01,1.75E+01,4.00E+01,2.63E+00,-1.62E+01,8.39E+00,7.57E-02,1,0,0,FF,,,
AA55,1,2,193,4.55E-01,1.77E+01,4.00E+01,2.65E+00,-1.69E+01,8.33E+00,8.10E-02,1,0,0,FF,,,
AA55,1,2,194,4.58E-01,1.79E+01,4.00E+01,2.68E+00,-1.76E+01,8.27E+00,8.67E-02,1,0,0,FF,,,
AA55,1,2,195,4.60E-01,1.81E+01,4.00E+01,2.71E+00,-1.83E+01,8.22E+00,9.27E-02,1,0,0,FF,,,
AA55,1,2,196,4.63E-01,1.83E+01,4.00E+01,2.73E+00,-1.90E+01,8.16E+00,9.92E-02,1,0,0,FF,,,
AA55,1,2,197,4.65E-01,1.85E+01,4.00E+01,2.76E+00,-1.97E+01,8.10E+00,1.06E-01,1,0,0,FF,,,
AA55,1,2,198,4.68E-01,1.87E+01,4.00E+01,2.79E+00,-2.04E+01,8.04E+00,1.13E-01,1,0,0,FF,,,
AA55,1,2,199,4.70E-01,1.89E+01,4.00E+01,2.81E+00,-2.11E+01,7.97E+00,1.21E-01,1,0,0,FF,,,
AA55,1,2,200,4.72E-01,1.91E+01,4.00E+01,2.84E+00,-2.18E+01,7.91E+00,1.29E-01,1,1,0,FF,,,
AA55,1,2,201,4.75E-01,1.93E+01,4.00E+01,2.87E+00,-2.26E+01,7.85E+00,1.38E-01,1,1,0,FF,,,
AA55,1,2,202,4.77E-01,1.95E+01,4.00E+01,2.90E+00,-2.33E+01,7.78E+00,1.47E-01,1,1,0,FF,,,
AA55,1,2,203,4.80E-01,1.97E+01,4.00E+01,2.92E+00,-2.40E+01,7.72E+00,1.56E-01,1,1,0,FF,,,
AA55,1,2,204,4.82E-01,1.99E+01,4.00E+01,2.95E+00,-2.47E+01,7.65E+00,1.66E-01,1,1,0,FF,,,
AA55,1,2,205,4.85E-01,2.01E+01,4.00E+01,2.98E+00,-2.54E+01,7.58E+00,1.77E-01,1,0,0,FF,,,
AA55,1,2,206,4.87E-01,2.03E+01,4.00E+01,3.01E+00,-2.61E+01,7.51E+00,1.88E-01,1,0,0,FF,,,
AA55,1,2,207,4.90E-01,2.05E+01,4.00E+01,3.03E+00,-2.69E+01,7.44E+00,1.99E-01,1,0,0,FF,,,
AA55,1,2,208,4.92E-01,2.08E+01,4.00E+01,3.06E+00,-2.76E+01,7.37E+00,2.12E-01,1,0,0,FF,,,
AA55,1,2,209,4.95E-01,2.10E+01,4.00E+01,3.09E+00,-2.82E+01,7.30E+00,2.24E-01,1,0,0,FF,,,
AA55,1,2,210,4.98E-01,2.12E+01,4.00E+01,3.12E+00,-2.89E+01,7.23E+00,2.38E-01,1,1,0,FF,,,
AA55,1,2,211,5.00E-01,2.14E+01,4.00E+01,3.14E+00,-2.96E+01,7.16E+00,2.52E-01,1,1,0,FF,,,
AA55,1,2,212,5.02E-01,2.16E+01,4.00E+01,3.17E+00,-3.03E+01,7.09E+00,2.67E-01,1,1,0,FF,,,
AA55,1,2,213,5.05E-01,2.18E+01,4.00E+01,3.20E+00,-3.09E+01,7.01E+00,2.82E-01,1,1,0,FF,,,
AA55,1,2,214,5.07E-01,2.20E+01,4.00E+01,3.23E+00,-3.16E+01,6.94E+00,2.99E-01,1,1,0,FF,,,
AA55,1,2,215,5.10E-01,2.23E+01,4.00E+01,3.26E+00,-3.22E+01,6.86E+00,3.16E-01,1,0,0,FF,,,
AA55,1,2,216,5.12E-01,2.25E+01,4.00E+01,3.28E+00,-3.28E+01,6.78E+00,3.34E-01,1,0,0,FF,,,
AA55,1,2,217,5.15E-01,2.27E+01,4.00E+01,3.31E+00,-3.34E+01,6.71E+00,3.53E-01,1,0,0,FF,,,
AA55,1,2,218,5.17E-01,2.29E+01,4.00E+01,3.34E+00,-3.40E+01,6.63E+00,3.73E-01,1,0,0,FF,,,
AA55,1,2,219,5.20E-01,2.31E+01,4.00E+01,3.37E+00,-3.46E+01,6.55E+00,3.95E-01,1,0,0,FF,,,
AA55,1,2,220,5.22E-01,2.34E+01,4.00E+01,3.40E+00,-3.52E+01,6.47E+00,4.17E-01,1,1,0,FF,,,
AA55,1,2,221,5.25E-01,2.36E+01,4.00E+01,3.43E+00,-3.58E+01,6.39E+00,4.40E-01,1,1,0,FF,,,
AA55,1,2,222,5.27E-01,2.38E+01,4.00E+01,3.45E+00,-3.63E+01,6.31E+00,4.64E-01,1,1,0,FF,,,
AA55,1,2,223,5.30E-01,2.40E+01,4.00E+01,3.48E+00,-3.69E+01,6.23E+00,4.90E-01,1,1,0,FF,,,
AA55,1,2,224,5.32E-01,2.43E+01,4.00E+01,3.51E+00,-3.74E+01,6.15E+00,5.17E-01,1,1,0,FF,,,
AA55,1,2,225,5.35E-01,2.45E+01,4.00E+01,3.54E+00,-3.79E+01,6.07E+00,5.45E-01,1,0,0,FF,,,
AA55,1,2,226,5.37E-01,2.47E+01,4.00E+01,3.57E+00,-3.84E+01,5.98E+00,5.74E-01,1,0,0,FF,,,
AA55,1,2,227,5.40E-01,2.49E+01,4.00E+01,3.60E+00,-3.89E+01,5.90E+00,6.05E-01,1,0,0,FF,,,
AA55,1,2,228,5.42E-01,2.52E+01,4.00E+01,3.63E+00,-3.94E+01,5.82E+00,6.37E-01,1,0,0,FF,,,
AA55,1,2,229,5.45E-01,2.54E+01,4.00E+01,3.66E+00,-3.99E+01,5.73E+00,6.70E-01,1,0,0,FF,,,
AA55,1,2,230,5.47E-01,2.56E+01,4.00E+01,3.68E+00,-4.04E+01,5.65E+00,7.04E-01,1,0,0,FF,,,
AA55,1,2,231,5.50E-01,2.59E+01,4.00E+01,3.71E+00,-4.08E+01,5.56E+00,7.40E-01,1,0,0,FF,,,
AA55,1,2,232,5.52E-01,2.61E+01,4.00E+01,3.74E+00,-4.13E+01,5.48E+00,7.77E-01,1,0,0,FF,,,
AA55,1,2,233,5.55E-01,2.63E+01,4.00E+01,3.77E+00,-4.17E+01,5.39E+00,8.16E-01,1,1,0,FF,,,
AA55,1,2,234,5.58E-01,2.66E+01,4.00E+01,3.80E+00,-4.21E+01,5.31E+00,8.55E-01,1,1,0,FF,,,
AA55,1,2,235,5.60E-01,2.68E+01,4.00E+01,3.83E+00,-4.25E+01,5.22E+00,8.96E-01,1,1,0,FF,,,
AA55,1,2,236,5.63E-01,2.71E+01,4.00E+01,3.86E+00,-4.29E+01,5.14E+00,9.39E-01,1,1,0,FF,,,
AA55,1,2,237,5.65E-01,2.73E+01,4.00E+01,3.89E+00,-4.33E+01,5.05E+00,9.82E-01,1,1,0,FF,,,
AA55,1,2,238,5.68E-01,2.75E+01,4.00E+01,3.92E+00,-4.37E+01,4.96E+00,1.03E+00,1,0,0,FF,,,
AA55,1,2,239,5.70E-01,2.78E+01,4.00E+01,3.94E+00,-4.41E+01,4.88E+00,1.07E+00,1,0,0,FF,,,
AA55,1,2,240,5.73E-01,2.80E+01,4.00E+01,3.97E+00,-4.44E+01,4.79E+00,1.12E+00,1,0,0,FF,,,
AA55,1,2,241,5.75E-01,2.83E+01,4.00E+01,4.00E+00,-4.48E+01,4.71E+00,1.17E+00,1,0,0,FF,,,
AA55,1,2,242,5.78E-01,2.85E+01,4.00E+01,4.03E+00,-4.51E+01,4.62E+00,1.22E+00,1,0,0,FF,,,
AA55,1,2,243,5.80E-01,2.88E+01,4.00E+01,4.06E+00,-4.55E+01,4.54E+00,1.27E+00,1,1,0,FF,,,
AA55,1,2,244,5.83E-01,2.90E+01,4.00E+01,4.09E+00,-4.58E+01,4.45E+00,1.32E+00,1,1,0,FF,,,
AA55,1,2,245,5.85E-01,2.93E+01,4.00E+01,4.12E+00,-4.61E+01,4.37E+00,1.37E+00,1,1,0,FF,,,
AA55,1,2,246,5.88E-01,2.95E+01,4.00E+01,4.15E+00,-4.64E+01,4.28E+00,1.43E+00,1,1,0,FF,,,
AA55,1,2,247,5.90E-01,2.98E+01,4.00E+01,4.18E+00,-4.67E+01,4.20E+00,1.48E+00,1,1,0,FF,,,
AA55,1,2,248,5.93E-01,3.00E+01,4.00E+01,4.21E+00,-4.70E+01,4.12E+00,1.54E+00,1,0,0,FF,,,
AA55,1,2,249,5.95E-01,3.03E+01,4.00E+01,4.24E+00,-4.73E+01,4.03E+00,1.60E+00,1,0,0,FF,,,
AA55,1,2,250,5.98E-01,3.05E+01,4.00E+01,4.26E+00,-4.76E+01,3.95E+00,1.65E+00,1,0,0,FF,,,
AA55,1,2,251,6.00E-01,3.08E+01,4.00E+01,4.29E+00,-4.78E+01,3.87E+00,1.71E+00,1,0,0,FF,,,
AA55,1,2,252,6.03E-01,3.10E+01,4.00E+01,4.32E+00,-4.81E+01,3.79E+00,1.77E+00,1,0,0,FF,,,
AA55,1,2,253,6.05E-01,3.13E+01,4.00E+01,4.35E+00,-4.83E+01,3.71E+00,1.83E+00,1,1,0,FF,,,
AA55,1,2,254,6.08E-01,3.15E+01,4.00E+01,4.38E+00,-4.86E+01,3.63E+00,1.89E+00,1,1,0,FF,,,
AA55,1,2,255,6.10E-01,3.18E+01,4.00E+01,4.41E+00,-4.88E+01,3.55E+00,1.96E+00,1,1,0,FF,,,
AA55,1,2,256,6.13E-01,3.21E+01,4.00E+01,4.44E+00,-4.90E+01,3.47E+00,2.02E+00,1,1,0,FF,,,
AA55,1,2,257,6.15E-01,3.23E+01,4.00E+01,4.47E+00,-4.93E+01,3.39E+00,2.08E+00,1,1,0,FF,,,
AA55,1,2,258,6.18E-01,3.26E+01,4.00E+01,4.50E+00,-4.95E+01,3.32E+00,2.15E+00,1,0,0,FF,,,
AA55,1,2,259,6.20E-01,3.28E+01,4.00E+01,4.52E+00,-4.97E+01,3.24E+00,2.21E+00,1,0,0,FF,,,
AA55,1,2,260,6.23E-01,3.31E+01,4.00E+01,4.55E+00,-4.99E+01,3.17E+00,2.27E+00,1,0,0,FF,,,
AA55,1,2,261,6.25E-01,3.34E+01,4.00E+01,4.58E+00,-5.01E+01,3.09E+00,2.34E+00,1,0,0,FF,,,
AA55,1,2,262,6.27E-01,3.36E+01,4.00E+01,4.61E+00,-5.03E+01,3.02E+00,2.40E+00,1,0,0,FF,,,
AA55,1,2,263,6.30E-01,3.39E+01,4.00E+01,4.64E+00,-5.04E+01,2.95E+00,2.47E+00,1,0,0,FF,,,
AA55,1,2,264,6.32E-01,3.42E+01,4.00E+01,4.67E+00,-5.06E+01,2.88E+00,2.54E+00,1,0,0,FF,,,
AA55,1,2,265,6.35E-01,3.44E+01,4.00E+01,4.70E+00,-5.08E+01,2.81E+00,2.60E+00,1,0,0,FF,,,
AA55,1,2,266,6.37E-01,3.47E+01,4.00E+01,4.73E+00,-5.10E+01,2.74E+00,2.67E+00,1,1,0,FF,,,
AA55,1,2,267,6.40E-01,3.50E+01,4.00E+01,4.75E+00,-5.11E+01,2.67E+00,2.74E+00,1,1,0,FF,,,
AA55,1,2,268,6.42E-01,3.53E+01,4.00E+01,4.78E+00,-5.13E+01,2.61E+00,2.80E+00,1,1,0,FF,,,
AA55,1,2,269,6.45E-01,3.55E+01,4.00E+01,4.81E+00,-5.14E+01,2.54E+00,2.87E+00,1,1,0,FF,,,
AA55,1,2,270,6.47E-01,3.58E+01,3.99E+01,4.84E+00,-5.16E+01,2.48E+00,2.94E+00,1,1,0,FF,,,
AA55,1,2,271,6.50E-01,3.61E+01,3.99E+01,4.87E+00,-5.17E+01,2.41E+00,3.00E+00,1,0,0,FF,,,
AA55,1,2,272,6.52E-01,3.64E+01,3.99E+01,4.89E+00,-5.19E+01,2.35E+00,3.07E+00,1,0,0,FF,,,
AA55,1,2,273,6.55E-01,3.66E+01,3.99E+01,4.92E+00,-5.20E+01,2.29E+00,3.14E+00,1,0,0,FF,,,
AA55,1,2,274,6.57E-01,3.69E+01,3.99E+01,4.95E+00,-5.22E+01,2.23E+00,3.20E+00,1,0,0,FF,,,
AA55,1,2,275,6.60E-01,3.72E+01,3.99E+01,4.98E+00,-5.23E+01,2.18E+00,3.27E+00,1,0,0,FF,,,
AA55,1,2,276,6.62E-01,3.75E+01,3.99E+01,5.01E+00,-5.24E+01,2.12E+00,3.34E+00,1,1,0,FF,,,
AA55,1,2,277,6.65E-01,3.78E+01,3.99E+01,5.03E+00,-5.26E+01,2.06E+00,3.40E+00,1,1,0,FF,,,
AA55,1,2,278,6.67E-01,3.80E+01,3.99E+01,5.06E+00,-5.27E+01,2.01E+00,3.47E+00,1,1,0,FF,,,
AA55,1,2,279,6.70E-01,3.83E+01,3.99E+01,5.09E+00,-5.28E+01,1.96E+00,3.53E+00,1,1,0,FF,,,
AA55,1,2,280,6.72E-01,3.86E+01,3.99E+01,5.12E+00,-5.30E+01,1.91E+00,3.60E+00,1,1,0,FF,,,
AA55,1,2,281,6.75E-01,3.89E+01,3.99E+01,5.14E+00,-5.31E+01,1.86E+00,3.66E+00,1,0,0,FF,,,
AA55,1,2,282,6.77E-01,3.92E+01,3.99E+01,5.17E+00,-5.32E+01,1.81E+00,3.72E+00,1,0,0,FF,,,
AA55,1,2,283,6.80E-01,3.95E+01,3.99E+01,5.20E+00,-5.33E+01,1.76E+00,3.79E+00,1,0,0,FF,,,
AA55,1,2,284,6.83E-01,3.98E+01,3.99E+01,5.23E+00,-5.35E+01,1.72E+00,3.85E+00,1,0,0,FF,,,
AA55,1,2,285,6.85E-01,4.00E+01,3.99E+01,5.25E+00,-5.36E+01,1.67E+00,3.91E+00,1,0,0,FF,,,
AA55,1,2,286,6.88E-01,4.03E+01,3.99E+01,5.28E+00,-5.37E+01,1.63E+00,3.97E+00,1,0,0,FF,,,
AA55,1,2,287,6.90E-01,4.06E+01,3.99E+01,5.31E+00,-5.39E+01,1.59E+00,4.03E+00,1,0,0,FF,,,
AA55,1,2,288,6.93E-01,4.09E+01,3.99E+01,5.33E+00,-5.40E+01,1.55E+00,4.10E+00,1,0,0,FF,,,
AA55,1,2,289,6.95E-01,4.12E+01,3.99E+01,5.36E+00,-5.41E+01,1.51E+00,4.16E+00,1,1,0,FF,,,
AA55,1,2,290,6.98E-01,4.15E+01,3.99E+01,5.39E+00,-5.42E+01,1.47E+00,4.21E+00,1,1,0,FF,,,
AA55,1,2,291,7.00E-01,4.18E+01,3.99E+01,5.41E+00,-5.44E+01,1.43E+00,4.27E+00,1,1,0,FF,,,
AA55,1,2,292,7.03E-01,4.21E+01,3.99E+01,5.44E+00,-5.45E+01,1.40E+00,4.33E+00,1,1,0,FF,,,
AA55,1,2,293,7.05E-01,4.24E+01,3.99E+01,5.47E+00,-5.46E+01,1.36E+00,4.39E+00,1,1,0,FF,,,
AA55,1,2,294,7.08E-01,4.27E+01,3.99E+01,5.49E+00,-5.48E+01,1.33E+00,4.44E+00,1,0,0,FF,,,
AA55,1,2,295,7.10E-01,4.30E+01,3.98E+01,5.52E+00,-5.49E+01,1.29E+00,4.50E+00,1,0,0,FF,,,
AA55,1,2,296,7.13E-01,4.33E+01,3.98E+01,5.55E+00,-5.51E+01,1.26E+00,4.56E+00,1,0,0,FF,,,
AA55,1,2,297,7.15E-01,4.36E+01,3.98E+01,5.57E+00,-5.52E+01,1.23E+00,4.61E+00,1,0,0,FF,,,
AA55,1,2,298,7.18E-01,4.39E+01,3.98E+01,5.60E+00,-5.54E+01,1.20E+00,4.67E+00,1,0,0,FF,,,
AA55,1,2,299,7.20E-01,4.42E+01,3.98E+01,5.62E+00,-5.55E+01,1.18E+00,4.72E+00,1,1,0,FF,,,
AA55,1,2,300,7.23E-01,4.45E+01,3.98E+01,5.65E+00,-5.57E+01,1.15E+00,4.77E+00,1,1,0,FF,,,
AA55,1,2,301,7.25E-01,4.48E+01,3.98E+01,5.67E+00,-5.58E+01,1.12E+00,4.82E+00,1,1,0,FF,,,
AA55,1,2,302,7.28E-01,4.51E+01,3.98E+01,5.70E+00,-5.60E+01,1.10E+00,4.88E+00,1,1,0,FF,,,
AA55,1,2,303,7.30E-01,4.54E+01,3.98E+01,5.72E+00,-5.61E+01,1.07E+00,4.93E+00,1,1,0,FF,,,
AA55,1,2,304,7.33E-01,4.58E+01,3.98E+01,5.75E+00,-5.63E+01,1.05E+00,4.98E+00,1,0,0,FF,,,
AA55,1,2,305,7.35E-01,4.61E+01,3.98E+01,5.77E+00,-5.64E+01,1.03E+00,5.03E+00,1,0,0,FF,,,
AA55,1,2,306,7.38E-01,4.64E+01,3.98E+01,5.80E+00,-5.66E+01,1.00E+00,5.08E+00,1,0,0,FF,,,
AA55,1,2,307,7.40E-01,4.67E+01,3.98E+01,5.82E+00,-5.68E+01,9.84E-01,5.12E+00,1,0,0,FF,,,
AA55,1,2,308,7.43E-01,4.70E+01,3.98E+01,5.85E+00,-5.69E+01,9.64E-01,5.17E+00,1,0,0,FF,,,
AA55,1,2,309,7.45E-01,4.73E+01,3.98E+01,5.87E+00,-5.71E+01,9.45E-01,5.22E+00,1,1,0,FF,,,
AA55,1,2,310,7.48E-01,4.76E+01,3.97E+01,5.90E+00,-5.72E+01,9.27E-01,5.27E+00,1,1,0,FF,,,
AA55,1,2,311,7.50E-01,4.79E+01,3.97E+01,5.92E+00,-5.74E+01,9.09E-01,5.31E+00,1,1,0,FF,,,
AA55,1,2,312,7.52E-01,4.83E+01,3.97E+01,5.95E+00,-5.76E+01,8.93E-01,5.36E+00,1,1,0,FF,,,
AA55,1,2,313,7.55E-01,4.86E+01,3.97E+01,5.97E+00,-5.77E+01,8.78E-01,5.40E+00,1,1,0,FF,,,
AA55,1,2,314,7.57E-01,4.89E+01,3.97E+01,6.00E+00,-5.79E+01,8.63E-01,5.45E+00,1,0,0,FF,,,
AA55,1,2,315,7.60E-01,4.92E+01,3.97E+01,6.02E+00,-5.81E+01,8.49E-01,5.49E+00,1,0,0,FF,,,
AA55,1,2,316,7.62E-01,4.95E+01,3.97E+01,6.04E+00,-5.82E+01,8.36E-01,5.53E+00,1,0,0,FF,,,
AA55,1,2,317,7.65E-01,4.99E+01,3.97E+01,6.07E+00,-5.84E+01,8.23E-01,5.58E+00,1,0,0,FF,,,
AA55,1,2,318,7.67E-01,5.02E+01,3.97E+01,6.09E+00,-5.85E+01,8.11E-01,5.62E+00,1,0,0,FF,,,
AA55,1,2,319,7.70E-01,5.05E+01,3.97E+01,6.11E+00,-5.87E+01,8.00E-01,5.66E+00,1,0,0,FF,,,
AA55,1,2,320,7.72E-01,5.08E+01,3.96E+01,6.14E+00,-5.88E+01,7.89E-01,5.70E+00,1,0,0,FF,,,
AA55,1,2,321,7.75E-01,5.12E+01,3.96E+01,6.16E+00,-5.90E+01,7.80E-01,5.74E+00,1,0,0,FF,,,
AA55,1,2,322,7.77E-01,5.15E+01,3.96E+01,6.18E+00,-5.92E+01,7.70E-01,5.78E+00,1,1,0,FF,,,
AA55,1,2,323,7.80E-01,5.18E+01,3.96E+01,6.21E+00,-5.93E+01,7.61E-01,5.82E+00,1,1,0,FF,,,
AA55,1,2,324,7.82E-01,5.21E+01,3.96E+01,6.23E+00,-5.95E+01,7.53E-01,5.86E+00,1,1,0,FF,,,
AA55,1,2,325,7.85E-01,5.25E+01,3.96E+01,6.25E+00,-5.96E+01,7.45E-01,5.90E+00,1,1,0,FF,,,
AA55,1,2,326,7.87E-01,5.28E+01,3.96E+01,6.28E+00,-5.98E+01,7.38E-01,5.94E+00,1,1,0,FF,,,
AA55,1,2,327,7.90E-01,5.31E+01,3.96E+01,6.30E+00,-5.99E+01,7.31E-01,5.98E+00,1,0,0,FF,,,
AA55,1,2,328,7.92E-01,5.35E+01,3.96E+01,6.32E+00,-6.01E+01,7.24E-01,6.02E+00,1,0,0,FF,,,
AA55,1,2,329,7.95E-01,5.38E+01,3.95E+01,6.34E+00,-6.02E+01,7.18E-01,6.06E+00,1,0,0,FF,,,
AA55,1,2,330,7.97E-01,5.41E+01,3.95E+01,6.37E+00,-6.04E+01,7.12E-01,6.10E+00,1,0,0,FF,,,
AA55,1,2,331,8.00E-01,5.45E+01,3.95E+01,6.39E+00,-6.05E+01,7.06E-01,6.13E+00,1,0,0,FF,,,
AA55,1,2,332,8.02E-01,5.48E+01,3.95E+01,6.41E+00,-6.07E+01,7.01E-01,6.17E+00,1,1,0,FF,,,
AA55,1,2,333,8.05E-01,5.52E+01,3.95E+01,6.43E+00,-6.08E+01,6.96E-01,6.21E+00,1,1,0,FF,,,
AA55,1,2,334,8.08E-01,5.55E+01,3.95E+01,6.45E+00,-6.10E+01,6.91E-01,6.25E+00,1,1,0,FF,,,
AA55,1,2,335,8.10E-01,5.58E+01,3.95E+01,6.48E+00,-6.11E+01,6.87E-01,6.28E+00,1,1,0,FF,,,
AA55,1,2,336,8.13E-01,5.62E+01,3.95E+01,6.50E+00,-6.13E+01,6.82E-01,6.32E+00,1,1,0,FF,,,
AA55,1,2,337,8.15E-01,5.65E+01,3.94E+01,6.52E+00,-6.14E+01,6.78E-01,6.36E+00,1,0,0,FF,,,
AA55,1,2,338,8.18E-01,5.69E+01,3.94E+01,6.54E+00,-6.16E+01,6.74E-01,6.40E+00,1,0,0,FF,,,
AA55,1,2,339,8.20E-01,5.72E+01,3.94E+01,6.56E+00,-6.17E+01,6.70E-01,6.43E+00,1,0,0,FF,,,
AA55,1,2,340,8.23E-01,5.75E+01,3.94E+01,6.58E+00,-6.19E+01,6.66E-01,6.47E+00,1,0,0,FF,,,
AA55,1,2,341,8.25E-01,5.79E+01,3.94E+01,6.60E+00,-6.20E+01,6.62E-01,6.51E+00,1,0,0,FF,,,
AA55,1,2,342,8.28E-01,5.82E+01,3.94E+01,6.62E+00,-6.22E+01,6.59E-01,6.54E+00,1,1,0,FF,,,
AA55,1,2,343,8.30E-01,5.86E+01,3.94E+01,6.65E+00,-6.23E+01,6.55E-01,6.58E+00,1,1,0,FF,,,
AA55,1,2,344,8.33E-01,5.89E+01,3.93E+01,6.67E+00,-6.25E+01,6.52E-01,6.61E+00,1,1,0,FF,,,
AA55,1,2,345,8.35E-01,5.93E+01,3.93E+01,6.69E+00,-6.26E+01,6.48E-01,6.65E+00,1,1,0,FF,,,
AA55,1,2,346,8.38E-01,5.96E+01,3.93E+01,6.71E+00,-6.28E+01,6.45E-01,6.69E+00,1,1,0,FF,,,
AA55,1,2,347,8.40E-01,6.00E+01,3.93E+01,6.73E+00,-6.29E+01,6.41E-01,6.72E+00,1,0,0,FF,,,
AA55,1,2,348,8.43E-01,6.03E+01,3.93E+01,6.75E+00,-6.31E+01,6.38E-01,6.76E+00,1,0,0,FF,,,
AA55,1,2,349,8.45E-01,6.07E+01,3.93E+01,6.77E+00,-6.32E+01,6.34E-01,6.80E+00,1,0,0,FF,,,
AA55,1,2,350,8.48E-01,6.10E+01,3.92E+01,6.79E+00,-6.33E+01,6.30E-01,6.84E+00,1,0,0,FF,,,
AA55,1,2,351,8.50E-01,6.14E+01,3.92E+01,6.81E+00,-6.35E+01,6.27E-01,6.87E+00,1,0,0,FF,,,
AA55,1,2,352,8.53E-01,6.18E+01,3.92E+01,6.83E+00,-6.36E+01,6.23E-01,6.91E+00,1,0,0,FF,,,
AA55,1,2,353,8.55E-01,6.21E+01,3.92E+01,6.85E+00,-6.38E+01,6.19E-01,6.95E+00,1,0,0,FF,,,
AA55,1,2,354,8.58E-01,6.25E+01,3.92E+01,6.87E+00,-6.39E+01,6.15E-01,6.98E+00,1,0,0,FF,,,
AA55,1,2,355,8.60E-01,6.28E+01,3.92E+01,6.89E+00,-6.40E+01,6.11E-01,7.02E+00,1,1,0,FF,,,
AA55,1,2,356,8.63E-01,6.32E+01,3.91E+01,6.91E+00,-6.42E+01,6.07E-01,7.06E+00,1,1,0,FF,,,
AA55,1,2,357,8.65E-01,6.36E+01,3.91E+01,6.92E+00,-6.43E+01,6.02E-01,7.10E+00,1,1,0,FF,,,
AA55,1,2,358,8.68E-01,6.39E+01,3.91E+01,6.94E+00,-6.45E+01,5.98E-01,7.13E+00,1,1,0,FF,,,
AA55,1,2,359,8.70E-01,6.43E+01,3.91E+01,6.96E+00,-6.46E+01,5.93E-01,7.17E+00,1,1,0,FF,,,
AA55,1,2,360,8.73E-01,6.46E+01,3.91E+01,6.98E+00,-6.47E+01,5.88E-01,7.21E+00,1,0,0,FF,,,
AA55,1,2,361,8.75E-01,6.50E+01,3.90E+01,7.00E+00,-6.49E+01,5.83E-01,7.25E+00,1,0,0,FF,,,
AA55,1,2,362,8.77E-01,6.54E+01,3.90E+01,7.02E+00,-6.50E+01,5.78E-01,7.29E+00,1,0,0,FF,,,
AA55,1,2,363,8.80E-01,6.57E+01,3.90E+01,7.04E+00,-6.51E+01,5.73E-01,7.33E+00,1,0,0,FF,,,
AA55,1,2,364,8.82E-01,6.61E+01,3.90E+01,7.06E+00,-6.53E+01,5.67E-01,7.37E+00,1,0,0,FF,,,
AA55,1,2,365,8.85E-01,6.65E+01,3.90E+01,7.07E+00,-6.54E+01,5.62E-01,7.41E+00,1,1,0,FF,,,
AA55,1,2,366,8.87E-01,6.69E+01,3.89E+01,7.09E+00,-6.55E+01,5.56E-01,7.45E+00,1,1,0,FF,,,
AA55,1,2,367,8.90E-01,6.72E+01,3.89E+01,7.11E+00,-6.56E+01,5.50E-01,7.48E+00,1,1,0,FF,,,
AA55,1,2,368,8.92E-01,6.76E+01,3.89E+01,7.13E+00,-6.58E+01,5.43E-01,7.52E+00,1,1,0,FF,,,
AA55,1,2,369,8.95E-01,6.80E+01,3.89E+01,7.15E+00,-6.59E+01,5.37E-01,7.56E+00,1,1,0,FF,,,
AA55,1,2,370,8.97E-01,6.83E+01,3.89E+01,7.16E+00,-6.60E+01,5.30E-01,7.61E+00,1,0,0,FF,,,
AA55,1,2,371,9.00E-01,6.87E+01,3.88E+01,7.18E+00,-6.62E+01,5.23E-01,7.65E+00,1,0,0,FF,,,
AA55,1,2,372,9.02E-01,6.91E+01,3.88E+01,7.20E+00,-6.63E+01,5.15E-01,7.69E+00,1,0,0,FF,,,
AA55,1,2,373,9.05E-01,6.95E+01,3.88E+01,7.22E+00,-6.64E+01,5.08E-01,7.73E+00,1,0,0,FF,,,
AA55,1,2,374,9.07E-01,6.99E+01,3.88E+01,7.23E+00,-6.65E+01,5.00E-01,7.77E+00,1,0,0,FF,,,
AA55,1,2,375,9.10E-01,7.02E+01,3.87E+01,7.25E+00,-6.67E+01,4.91E-01,7.81E+00,1,1,0,FF,,,
AA55,1,2,376,9.12E-01,7.06E+01,3.87E+01,7.27E+00,-6.68E+01,4.83E-01,7.85E+00,1,1,0,FF,,,
AA55,1,2,377,9.15E-01,7.10E+01,3.87E+01,7.29E+00,-6.69E+01,4.74E-01,7.89E+00,1,1,0,FF,,,
AA55,1,2,378,9.17E-01,7.14E+01,3.87E+01,7.30E+00,-6.70E+01,4.65E-01,7.94E+00,1,1,0,FF,,,
AA55,1,2,379,9.20E-01,7.18E+01,3.87E+01,7.32E+00,-6.72E+01,4.55E-01,7.98E+00,1,1,0,FF,,,
AA55,1,2,380,9.22E-01,7.21E+01,3.86E+01,7.34E+00,-6.73E+01,4.46E-01,8.02E+00,1,0,0,FF,,,
AA55,1,2,381,9.25E-01,7.25E+01,3.86E+01,7.35E+00,-6.74E+01,4.36E-01,8.06E+00,1,0,0,FF,,,
AA55,1,2,382,9.27E-01,7.29E+01,3.86E+01,7.37E+00,-6.75E+01,4.26E-01,8.11E+00,1,0,0,FF,,,
AA55,1,2,383,9.30E-01,7.33E+01,3.86E+01,7.39E+00,-6.76E+01,4.15E-01,8.15E+00,1,0,0,FF,,,
AA55,1,2,384,9.33E-01,7.37E+01,3.85E+01,7.40E+00,-6.77E+01,4.05E-01,8.19E+00,1,0,0,FF,,,
AA55,1,2,385,9.35E-01,7.41E+01,3.85E+01,7.42E+00,-6.78E+01,3.94E-01,8.24E+00,1,0,0,FF,,,
AA55,1,2,386,9.38E-01,7.45E+01,3.85E+01,7.43E+00,-6.80E+01,3.83E-01,8.28E+00,1,0,0,FF,,,
AA55,1,2,387,9.40E-01,7.49E+01,3.85E+01,7.45E+00,-6.81E+01,3.72E-01,8.32E+00,1,0,0,FF,,,
AA55,1,2,388,9.43E-01,7.52E+01,3.84E+01,7.47E+00,-6.82E+01,3.61E-01,8.37E+00,1,1,0,FF,,,
AA55,1,2,389,9.45E-01,7.56E+01,3.84E+01,7.48E+00,-6.83E+01,3.49E-01,8.41E+00,1,1,0,FF,,,
AA55,1,2,390,9.48E-01,7.60E+01,3.84E+01,7.50E+00,-6.84E+01,3.38E-01,8.45E+00,1,1,0,FF,,,
AA55,1,2,391,9.50E-01,7.64E+01,3.83E+01,7.51E+00,-6.85E+01,3.26E-01,8.50E+00,1,1,0,FF,,,
AA55,1,2,392,9.53E-01,7.68E+01,3.83E+01,7.53E+00,-6.85E+01,3.14E-01,8.54E+00,1,1,0,FF,,,
AA55,1,2,393,9.55E-01,7.72E+01,3.83E+01,7.54E+00,-6.86E+01,3.02E-01,8.58E+00,1,0,0,FF,,,
AA55,1,2,394,9.58E-01,7.76E+01,3.83E+01,7.56E+00,-6.87E+01,2.90E-01,8.63E+00,1,0,0,FF,,,
AA55,1,2,395,9.60E-01,7.80E+01,3.82E+01,7.57E+00,-6.88E+01,2.78E-01,8.67E+00,1,0,0,FF,,,
AA55,1,2,396,9.63E-01,7.84E+01,3.82E+01,7.59E+00,-6.89E+01,2.66E-01,8.71E+00,1,0,0,FF,,,
AA55,1,2,397,9.65E-01,7.88E+01,3.82E+01,7.60E+00,-6.89E+01,2.54E-01,8.76E+00,1,0,0,FF,,,
AA55,1,2,398,9.68E-01,7.92E+01,3.81E+01,7.62E+00,-6.90E+01,2.41E-01,8.80E+00,1,1,0,FF,,,
AA55,1,2,399,9.70E-01,7.96E+01,3.81E+01,7.63E+00,-6.91E+01,2.29E-01,8.84E+00,1,1,0,FF,,,
AA55,1,2,400,9.73E-01,8.00E+01,3.81E+01,7.65E+00,-6.91E+01,2.16E-01,8.89E+00,1,1,0,FF,,,
AA55,1,2,401,9.75E-01,8.04E+01,3.81E+01,7.66E+00,-6.92E+01,2.03E-01,8.93E+00,1,1,0,FF,,,
AA55,1,2,402,9.78E-01,8.08E+01,3.80E+01,7.68E+00,-6.92E+01,1.90E-01,8.97E+00,1,1,0,FF,,,
AA55,1,2,403,9.80E-01,8.12E+01,3.80E+01,7.69E+00,-6.93E+01,1.77E-01,9.01E+00,1,0,0,FF,,,
AA55,1,2,404,9.83E-01,8.16E+01,3.80E+01,7.70E+00,-6.93E+01,1.63E-01,9.06E+00,1,0,0,FF,,,
AA55,1,2,405,9.85E-01,8.20E+01,3.79E+01,7.72E+00,-6.94E+01,1.50E-01,9.10E+00,1,0,0,FF,,,
AA55,1,2,406,9.88E-01,8.25E+01,3.79E+01,7.73E+00,-6.94E+01,1.36E-01,9.14E+00,1,0,0,FF,,,
AA55,1,2,407,9.90E-01,8.29E+01,3.79E+01,7.75E+00,-6.95E+01,1.22E-01,9.18E+00,1,0,0,FF,,,
AA55,1,2,408,9.93E-01,8.33E+01,3.78E+01,7.76E+00,-6.95E+01,1.08E-01,9.23E+00,1,1,0,FF,,,
AA55,1,2,409,9.95E-01,8.37E+01,3.78E+01,7.77E+00,-6.96E+01,9.36E-02,9.27E+00,1,1,0,FF,,,
AA55,1,2,410,9.98E-01,8.41E+01,3.78E+01,7.79E+00,-6.96E+01,7.91E-02,9.31E+00,1,1,0,FF,,,
AA55,1,2,411,1.00E+00,8.45E+01,3.77E+01,7.80E+00,-6.96E+01,6.45E-02,9.35E+00,1,1,0,FF,,,
AA55,1,2,412,1.00E+00,8.49E+01,3.77E+01,7.81E+00,-6.97E+01,4.96E-02,9.39E+00,1,1,0,FF,,,
AA55,1,2,413,1.00E+00,8.53E+01,3.77E+01,7.82E+00,-6.97E+01,3.46E-02,9.43E+00,1,0,0,FF,,,
AA55,1,2,414,1.01E+00,8.57E+01,3.76E+01,7.84E+00,-6.97E+01,1.93E-02,9.47E+00,1,0,0,FF,,,
AA55,1,2,415,1.01E+00,8.62E+01,3.76E+01,7.85E+00,-6.98E+01,3.85E-03,9.51E+00,1,0,0,FF,,,
AA55,1,2,416,1.01E+00,8.66E+01,3.76E+01,7.86E+00,-6.98E+01,-1.19E-02,9.55E+00,1,0,0,FF,,,
AA55,1,2,417,1.01E+00,8.70E+01,3.75E+01,7.87E+00,-6.98E+01,-2.78E-02,9.59E+00,1,0,0,FF,,,
AA55,1,2,418,1.02E+00,8.74E+01,3.75E+01,7.89E+00,-6.98E+01,-4.39E-02,9.63E+00,1,0,0,FF,,,
AA55,1,2,419,1.02E+00,8.78E+01,3.75E+01,7.90E+00,-6.99E+01,-6.03E-02,9.67E+00,1,0,0,FF,,,
AA55,1,2,420,1.02E+00,8.83E+01,3.74E+01,7.91E+00,-6.99E+01,-7.69E-02,9.71E+00,1,0,0,FF,,,
AA55,1,2,421,1.02E+00,8.87E+01,3.74E+01,7.92E+00,-6.99E+01,-9.37E-02,9.75E+00,1,1,0,FF,,,
AA55,1,2,422,1.03E+00,8.91E+01,3.73E+01,7.94E+00,-6.99E+01,-1.11E-01,9.79E+00,1,1,0,FF,,,
AA55,1,2,423,1.03E+00,8.95E+01,3.73E+01,7.95E+00,-6.99E+01,-1.28E-01,9.83E+00,1,1,0,FF,,,
AA55,1,2,424,1.03E+00,9.00E+01,3.73E+01,7.96E+00,-6.99E+01,-1.46E-01,9.87E+00,1,1,0,FF,,,
AA55,1,2,425,1.03E+00,9.04E+01,3.72E+01,7.97E+00,-6.99E+01,-1.63E-01,9.91E+00,1,1,0,FF,,,
AA55,1,2,426,1.04E+00,9.08E+01,3.72E+01,7.98E+00,-6.99E+01,-1.81E-01,9.95E+00,1,0,0,FF,,,
AA55,1,2,427,1.04E+00,9.12E+01,3.72E+01,7.99E+00,-7.00E+01,-2.00E-01,9.99E+00,1,0,0,FF,,,
AA55,1,2,428,1.04E+00,9.17E+01,3.71E+01,8.00E+00,-7.00E+01,-2.18E-01,1.00E+01,1,0,0,FF,,,
AA55,1,2,429,1.04E+00,9.21E+01,3.71E+01,8.01E+00,-7.00E+01,-2.37E-01,1.01E+01,1,0,0,FF,,,
AA55,1,2,430,1.05E+00,9.25E+01,3.70E+01,8.02E+00,-7.00E+01,-2.56E-01,1.01E+01,1,0,0,FF,,,
AA55,1,2,431,1.05E+00,9.30E+01,3.70E+01,8.04E+00,-7.00E+01,-2.75E-01,1.01E+01,1,1,0,FF,,,
AA55,1,2,432,1.05E+00,9.34E+01,3.70E+01,8.05E+00,-6.99E+01,-2.95E-01,1.02E+01,1,1,0,FF,,,
AA55,1,2,433,1.05E+00,9.38E+01,3.69E+01,8.06E+00,-6.99E+01,-3.15E-01,1.02E+01,1,1,0,FF,,,
AA55,1,2,434,1.06E+00,9.43E+01,3.69E+01,8.07E+00,-6.99E+01,-3.35E-01,1.02E+01,1,1,0,FF,,,
AA55,1,2,435,1.06E+00,9.47E+01,3.68E+01,8.08E+00,-6.99E+01,-3.56E-01,1.03E+01,1,1,0,FF,,,
AA55,1,2,436,1.06E+00,9.51E+01,3.68E+01,8.09E+00,-6.99E+01,-3.77E-01,1.03E+01,1,0,0,FF,,,
AA55,1,2,437,1.06E+00,9.56E+01,3.67E+01,8.10E+00,-6.99E+01,-3.98E-01,1.04E+01,1,0,0,FF,,,
AA55,1,2,438,1.07E+00,9.60E+01,3.67E+01,8.11E+00,-6.99E+01,-4.19E-01,1.04E+01,1,0,0,FF,,,
AA55,1,2,439,1.07E+00,9.64E+01,3.67E+01,8.12E+00,-6.99E+01,-4.41E-01,1.04E+01,1,0,0,FF,,,
AA55,1,2,440,1.07E+00,9.69E+01,3.66E+01,8.12E+00,-6.98E+01,-4.63E-01,1.05E+01,1,0,0,FF,,,
AA55,1,2,441,1.08E+00,9.73E+01,3.66E+01,8.13E+00,-6.98E+01,-4.85E-01,1.05E+01,1,1,0,FF,,,
AA55,1,2,442,1.08E+00,9.78E+01,3.65E+01,8.14E+00,-6.98E+01,-5.07E-01,1.05E+01,1,1,0,FF,,,
AA55,1,2,443,1.08E+00,9.82E+01,3.65E+01,8.15E+00,-6.98E+01,-5.29E-01,1.06E+01,1,1,0,FF,,,
AA55,1,2,444,1.08E+00,9.86E+01,3.64E+01,8.16E+00,-6.97E+01,-5.52E-01,1.06E+01,1,1,0,FF,,,
AA55,1,2,445,1.09E+00,9.91E+01,3.64E+01,8.17E+00,-6.97E+01,-5.75E-01,1.06E+01,1,1,0,FF,,,
AA55,1,2,446,1.09E+00,9.95E+01,3.64E+01,8.18E+00,-6.97E+01,-5.98E-01,1.07E+01,1,0,0,FF,,,
AA55,1,2,447,1.09E+00,1.00E+02,3.63E+01,8.19E+00,-6.96E+01,-6.21E-01,1.07E+01,1,0,0,FF,,,
AA55,1,2,448,1.09E+00,1.00E+02,3.63E+01,8.20E+00,-6.96E+01,-6.44E-01,1.08E+01,1,0,0,FF,,,
AA55,1,2,449,1.10E+00,1.01E+02,3.62E+01,8.20E+00,-6.95E+01,-6.68E-01,1.08E+01,1,0,0,FF,,,
AA55,1,2,450,1.10E+00,1.01E+02,3.62E+01,8.21E+00,-6.95E+01,-6.92E-01,1.08E+01,1,0,0,FF,,,
AA55,1,2,451,1.10E+00,1.02E+02,3.61E+01,8.22E+00,-6.94E+01,-7.16E-01,1.09E+01,1,0,0,FF,,,
AA55,1,2,452,1.10E+00,1.02E+02,3.61E+01,8.23E+00,-6.94E+01,-7.40E-01,1.09E+01,1,0,0,FF,,,
AA55,1,2,453,1.11E+00,1.03E+02,3.60E+01,8.23E+00,-6.93E+01,-7.64E-01,1.09E+01,1,0,0,FF,,,
AA55,1,2,454,1.11E+00,1.03E+02,3.60E+01,8.24E+00,-6.93E+01,-7.89E-01,1.10E+01,1,1,0,FF,,,
AA55,1,2,455,1.11E+00,1.04E+02,3.59E+01,8.25E+00,-6.92E+01,-8.14E-01,1.10E+01,1,1,0,FF,,,
AA55,1,2,456,1.11E+00,1.04E+02,3.59E+01,8.26E+00,-6.92E+01,-8.40E-01,1.10E+01,1,1,0,FF,,,
AA55,1,2,457,1.12E+00,1.04E+02,3.58E+01,8.26E+00,-6.91E+01,-8.66E-01,1.11E+01,1,1,0,FF,,,
AA55,1,2,458,1.12E+00,1.05E+02,3.58E+01,8.27E+00,-6.90E+01,-8.92E-01,1.11E+01,1,1,0,FF,,,
AA55,1,2,459,1.12E+00,1.05E+02,3.57E+01,8.28E+00,-6.90E+01,-9.18E-01,1.11E+01,1,0,0,FF,,,
AA55,1,2,460,1.12E+00,1.06E+02,3.57E+01,8.28E+00,-6.89E+01,-9.45E-01,1.12E+01,1,0,0,FF,,,
AA55,1,2,461,1.13E+00,1.06E+02,3.56E+01,8.29E+00,-6.88E+01,-9.72E-01,1.12E+01,1,0,0,FF,,,
AA55,1,2,462,1.13E+00,1.07E+02,3.56E+01,8.30E+00,-6.88E+01,-9.99E-01,1.12E+01,1,0,0,FF,,,
AA55,1,2,463,1.13E+00,1.07E+02,3.55E+01,8.30E+00,-6.87E+01,-1.03E+00,1.13E+01,1,0,0,FF,,,
AA55,1,2,464,1.13E+00,1.08E+02,3.55E+01,8.31E+00,-6.86E+01,-1.06E+00,1.13E+01,1,1,0,FF,,,
AA55,1,2,465,1.14E+00,1.08E+02,3.54E+01,8.31E+00,-6.86E+01,-1.08E+00,1.13E+01,1,1,0,FF,,,
AA55,1,2,466,1.14E+00,1.09E+02,3.54E+01,8.32E+00,-6.85E+01,-1.11E+00,1.14E+01,1,1,0,FF,,,
AA55,1,2,467,1.14E+00,1.09E+02,3.53E+01,8.32E+00,-6.84E+01,-1.14E+00,1.14E+01,1,1,0,FF,,,
AA55,1,2,468,1.14E+00,1.10E+02,3.53E+01,8.33E+00,-6.83E+01,-1.17E+00,1.14E+01,1,1,0,FF,,,
AA55,1,2,469,1.15E+00,1.10E+02,3.52E+01,8.33E+00,-6.82E+01,-1.20E+00,1.15E+01,1,0,0,FF,,,
AA55,1,2,470,1.15E+00,1.10E+02,3.51E+01,8.34E+00,-6.81E+01,-1.23E+00,1.15E+01,1,0,0,FF,,,
AA55,1,2,471,1.15E+00,1.11E+02,3.51E+01,8.34E+00,-6.80E+01,-1.26E+00,1.15E+01,1,0,0,FF,,,
AA55,1,2,472,1.15E+00,1.11E+02,3.50E+01,8.35E+00,-6.79E+01,-1.29E+00,1.16E+01,1,0,0,FF,,,
AA55,1,2,473,1.16E+00,1.12E+02,3.50E+01,8.35E+00,-6.78E+01,-1.32E+00,1.16E+01,1,0,0,FF,,,
AA55,1,2,474,1.16E+00,1.12E+02,3.49E+01,8.36E+00,-6.77E+01,-1.35E+00,1.16E+01,1,0,0,FF,,,
AA55,1,2,475,1.16E+00,1.13E+02,3.49E+01,8.36E+00,-6.76E+01,-1.38E+00,1.17E+01,1,0,0,FF,,,
AA55,1,2,476,1.16E+00,1.13E+02,3.48E+01,8.36E+00,-6.75E+01,-1.41E+00,1.17E+01,1,0,0,FF,,,
AA55,1,2,477,1.17E+00,1.14E+02,3.47E+01,8.37E+00,-6.74E+01,-1.44E+00,1.17E+01,1,1,0,FF,,,
AA55,1,2,478,1.17E+00,1.14E+02,3.47E+01,8.37E+00,-6.73E+01,-1.47E+00,1.18E+01,1,1,0,FF,,,
AA55,1,2,479,1.17E+00,1.15E+02,3.46E+01,8.38E+00,-6.72E+01,-1.50E+00,1.18E+01,1,1,0,FF,,,
AA55,1,2,480,1.17E+00,1.15E+02,3.46E+01,8.38E+00,-6.71E+01,-1.53E+00,1.18E+01,1,1,0,FF,,,
AA55,1,2,481,1.18E+00,1.16E+02,3.45E+01,8.38E+00,-6.70E+01,-1.56E+00,1.19E+01,1,1,0,FF,,,
AA55,1,2,482,1.18E+00,1.16E+02,3.45E+01,8.38E+00,-6.69E+01,-1.60E+00,1.19E+01,1,0,0,FF,,,
AA55,1,2,483,1.18E+00,1.17E+02,3.44E+01,8.39E+00,-6.68E+01,-1.63E+00,1.19E+01,1,0,0,FF,,,
AA55,1,2,484,1.18E+00,1.17E+02,3.43E+01,8.39E+00,-6.67E+01,-1.66E+00,1.20E+01,1,0,0,FF,,,
AA55,1,2,485,1.19E+00,1.18E+02,3.43E+01,8.39E+00,-6.65E+01,-1.69E+00,1.20E+01,1,0,0,FF,,,
AA55,1,2,486,1.19E+00,1.18E+02,3.42E+01,8.39E+00,-6.64E+01,-1.73E+00,1.20E+01,1,0,0,FF,,,
AA55,1,2,487,1.19E+00,1.19E+02,3.41E+01,8.40E+00,-6.63E+01,-1.76E+00,1.21E+01,1,1,0,FF,,,
AA55,1,2,488,1.19E+00,1.19E+02,3.41E+01,8.40E+00,-6.62E+01,-1.79E+00,1.21E+01,1,1,0,FF,,,
AA55,1,2,489,1.20E+00,1.19E+02,3.40E+01,8.40E+00,-6.61E+01,-1.83E+00,1.21E+01,1,1,0,FF,,,
AA55,1,2,490,1.20E+00,1.20E+02,3.40E+01,8.40E+00,-6.59E+01,-1.86E+00,1.22E+01,1,1,0,FF,,,
AA55,1,2,491,1.20E+00,1.20E+02,3.39E+01,8.40E+00,-6.58E+01,-1.90E+00,1.22E+01,1,1,0,FF,,,
AA55,1,2,492,1.20E+00,1.21E+02,3.38E+01,8.40E+00,-6.57E+01,-1.93E+00,1.22E+01,1,0,0,FF,,,
AA55,1,2,493,1.21E+00,1.21E+02,3.38E+01,8.40E+00,-6.56E+01,-1.97E+00,1.23E+01,1,0,0,FF,,,
AA55,1,2,494,1.21E+00,1.22E+02,3.37E+01,8.40E+00,-6.54E+01,-2.00E+00,1.23E+01,1,0,0,FF,,,
AA55,1,2,495,1.21E+00,1.22E+02,3.36E+01,8.40E+00,-6.53E+01,-2.04E+00,1.23E+01,1,0,0,FF,,,
AA55,1,2,496,1.21E+00,1.23E+02,3.36E+01,8.40E+00,-6.51E+01,-2.07E+00,1.24E+01,1,0,0,FF,,,
AA55,1,2,497,1.22E+00,1.23E+02,3.35E+01,8.40E+00,-6.50E+01,-2.11E+00,1.24E+01,1,1,0,FF,,,
AA55,1,2,498,1.22E+00,1.24E+02,3.34E+01,8.40E+00,-6.48E+01,-2.14E+00,1.24E+01,1,1,0,FF,,,
AA55,1,2,499,1.22E+00,1.24E+02,3.34E+01,8.40E+00,-6.47E+01,-2.18E+00,1.25E+01,1,1,0,FF,,,
AA55,1,2,500,1.22E+00,1.25E+02,3.33E+01,8.40E+00,-6.45E+01,-2.22E+00,1.25E+01,1,1,0,FF,,,
AA55,1,2,501,1.23E+00,1.25E+02,3.32E+01,8.40E+00,-6.43E+01,-2.25E+00,1.25E+01,1,1,0,FF,,,
AA55,1,2,502,1.23E+00,1.26E+02,3.32E+01,8.40E+00,-6.41E+01,-2.29E+00,1.26E+01,1,0,0,FF,,,
AA55,1,2,503,1.23E+00,1.26E+02,3.31E+01,8.40E+00,-6.39E+01,-2.32E+00,1.26E+01,1,0,0,FF,,,
AA55,1,2,504,1.23E+00,1.27E+02,3.30E+01,8.40E+00,-6.37E+01,-2.36E+00,1.26E+01,1,0,0,FF,,,
AA55,1,2,505,1.24E+00,1.27E+02,3.30E+01,8.40E+00,-6.35E+01,-2.40E+00,1.27E+01,1,0,0,FF,,,
AA55,1,2,506,1.24E+00,1.28E+02,3.29E+01,8.39E+00,-6.33E+01,-2.43E+00,1.27E+01,1,0,0,FF,,,
AA55,1,2,507,1.24E+00,1.28E+02,3.28E+01,8.39E+00,-6.31E+01,-2.47E+00,1.27E+01,1,0,0,FF,,,
AA55,1,2,508,1.24E+00,1.29E+02,3.27E+01,8.39E+00,-6.28E+01,-2.51E+00,1.27E+01,1,0,0,FF,,,
AA55,1,2,509,1.25E+00,1.29E+02,3.27E+01,8.39E+00,-6.26E+01,-2.54E+00,1.28E+01,1,0,0,FF,,,
AA55,1,2,510,1.25E+00,1.30E+02,3.26E+01,8.38E+00,-6.23E+01,-2.58E+00,1.28E+01,1,1,0,FF,,,
AA55,1,2,511,1.25E+00,1.30E+02,3.25E+01,8.38E+00,-6.21E+01,-2.62E+00,1.28E+01,1,1,0,FF,,,
AA55,1,2,512,1.25E+00,1.31E+02,3.25E+01,8.38E+00,-6.18E+01,-2.65E+00,1.28E+01,1,1,0,FF,,,
AA55,1,2,513,1.25E+00,1.31E+02,3.24E+01,8.37E+00,-6.16E+01,-2.69E+00,1.29E+01,1,1,0,FF,,,
AA55,1,2,514,1.26E+00,1.32E+02,3.23E+01,8.37E+00,-6.13E+01,-2.73E+00,1.29E+01,1,1,0,FF,,,
AA55,1,2,515,1.26E+00,1.32E+02,3.22E+01,8.37E+00,-6.10E+01,-2.76E+00,1.29E+01,1,0,0,FF,,,
AA55,1,2,516,1.26E+00,1.33E+02,3.22E+01,8.36E+00,-6.07E+01,-2.80E+00,1.29E+01,1,0,0,FF,,,
AA55,1,2,517,1.26E+00,1.33E+02,3.21E+01,8.36E+00,-6.05E+01,-2.84E+00,1.30E+01,1,0,0,FF,,,
AA55,1,2,518,1.27E+00,1.34E+02,3.20E+01,8.35E+00,-6.02E+01,-2.87E+00,1.30E+01,1,0,0,FF,,,
AA55,1,2,519,1.27E+00,1.34E+02,3.19E+01,8.35E+00,-5.99E+01,-2.91E+00,1.30E+01,1,0,0,FF,,,
AA55,1,2,520,1.27E+00,1.35E+02,3.19E+01,8.34E+00,-5.96E+01,-2.95E+00,1.30E+01,1,1,0,FF,,,
AA55,1,2,521,1.27E+00,1.35E+02,3.18E+01,8.34E+00,-5.92E+01,-2.98E+00,1.30E+01,1,1,0,FF,,,
AA55,1,2,522,1.28E+00,1.36E+02,3.17E+01,8.33E+00,-5.89E+01,-3.02E+00,1.30E+01,1,1,0,FF,,,
AA55,1,2,523,1.28E+00,1.36E+02,3.16E+01,8.33E+00,-5.86E+01,-3.05E+00,1.30E+01,1,1,0,FF,,,
AA55,1,2,524,1.28E+00,1.37E+02,3.16E+01,8.32E+00,-5.82E+01,-3.08E+00,1.30E+01,1,1,0,FF,,,
AA55,1,2,525,1.28E+00,1.37E+02,3.15E+01,8.31E+00,-5.79E+01,-3.12E+00,1.30E+01,1,0,0,FF,,,
AA55,1,2,526,1.29E+00,1.38E+02,3.14E+01,8.31E+00,-5.75E+01,-3.15E+00,1.30E+01,1,0,0,FF,,,
AA55,1,2,527,1.29E+00,1.38E+02,3.13E+01,8.30E+00,-5.71E+01,-3.18E+00,1.30E+01,1,0,0,FF,,,
AA55,1,2,528,1.29E+00,1.39E+02,3.12E+01,8.29E+00,-5.67E+01,-3.21E+00,1.30E+01,1,0,0,FF,,,
AA55,1,2,529,1.29E+00,1.39E+02,3.12E+01,8.28E+00,-5.63E+01,-3.24E+00,1.30E+01,1,0,0,FF,,,
AA55,1,2,530,1.30E+00,1.40E+02,3.11E+01,8.28E+00,-5.58E+01,-3.26E+00,1.30E+01,1,1,0,FF,,,
AA55,1,2,531,1.30E+00,1.40E+02,3.10E+01,8.27E+00,-5.53E+01,-3.29E+00,1.30E+01,1,1,0,FF,,,
AA55,1,2,532,1.30E+00,1.41E+02,3.09E+01,8.26E+00,-5.48E+01,-3.32E+00,1.29E+01,1,1,0,FF,,,
AA55,1,2,533,1.30E+00,1.42E+02,3.08E+01,8.25E+00,-5.42E+01,-3.34E+00,1.29E+01,1,1,0,FF,,,
AA55,1,2,534,1.31E+00,1.42E+02,3.07E+01,8.24E+00,-5.36E+01,-3.36E+00,1.29E+01,1,1,0,FF,,,
AA55,1,2,535,1.31E+00,1.43E+02,3.07E+01,8.23E+00,-5.30E+01,-3.38E+00,1.29E+01,1,0,0,FF,,,
AA55,1,2,536,1.31E+00,1.43E+02,3.06E+01,8.23E+00,-5.24E+01,-3.40E+00,1.28E+01,1,0,0,FF,,,
AA55,1,2,537,1.31E+00,1.44E+02,3.05E+01,8.22E+00,-5.17E+01,-3.42E+00,1.28E+01,1,0,0,FF,,,
AA55,1,2,538,1.32E+00,1.44E+02,3.04E+01,8.21E+00,-5.10E+01,-3.44E+00,1.28E+01,1,0,0,FF,,,
AA55,1,2,539,1.32E+00,1.45E+02,3.03E+01,8.20E+00,-5.02E+01,-3.46E+00,1.27E+01,1,0,0,FF,,,
AA55,1,2,540,1.32E+00,1.45E+02,3.02E+01,8.19E+00,-4.94E+01,-3.48E+00,1.27E+01,1,0,0,FF,,,
AA55,1,2,541,1.33E+00,1.46E+02,3.02E+01,8.17E+00,-4.86E+01,-3.49E+00,1.26E+01,1,0,0,FF,,,
AA55,1,2,542,1.33E+00,1.46E+02,3.01E+01,8.16E+00,-4.77E+01,-3.51E+00,1.26E+01,1,0,0,FF,,,
AA55,1,2,543,1.33E+00,1.47E+02,3.00E+01,8.15E+00,-4.68E+01,-3.53E+00,1.25E+01,1,1,0,FF,,,
AA55,1,2,544,1.33E+00,1.47E+02,2.99E+01,8.14E+00,-4.59E+01,-3.54E+00,1.25E+01,1,1,0,FF,,,
AA55,1,2,545,1.34E+00,1.48E+02,2.98E+01,8.13E+00,-4.50E+01,-3.56E+00,1.24E+01,1,1,0,FF,,,
AA55,1,2,546,1.34E+00,1.48E+02,2.97E+01,8.12E+00,-4.40E+01,-3.58E+00,1.23E+01,1,1,0,FF,,,
AA55,1,2,547,1.34E+00,1.49E+02,2.96E+01,8.10E+00,-4.31E+01,-3.60E+00,1.23E+01,1,1,0,FF,,,
AA55,1,2,548,1.34E+00,1.49E+02,2.95E+01,8.09E+00,-4.22E+01,-3.62E+00,1.22E+01,1,0,0,FF,,,
AA55,1,2,549,1.35E+00,1.50E+02,2.95E+01,8.08E+00,-4.13E+01,-3.64E+00,1.22E+01,1,0,0,FF,,,
AA55,1,2,550,1.35E+00,1.50E+02,2.94E+01,8.07E+00,-4.04E+01,-3.67E+00,1.21E+01,1,0,0,FF,,,
AA55,1,2,551,1.35E+00,1.51E+02,2.93E+01,8.05E+00,-3.96E+01,-3.70E+00,1.20E+01,1,0,0,FF,,,
AA55,1,2,552,1.35E+00,1.52E+02,2.92E+01,8.04E+00,-3.88E+01,-3.73E+00,1.20E+01,1,0,0,FF,,,
AA55,1,2,553,1.36E+00,1.52E+02,2.91E+01,8.02E+00,-3.81E+01,-3.76E+00,1.19E+01,1,1,0,FF,,,
AA55,1,2,554,1.36E+00,1.53E+02,2.90E+01,8.01E+00,-3.75E+01,-3.80E+00,1.18E+01,1,1,0,FF,,,
AA55,1,2,555,1.36E+00,1.53E+02,2.89E+01,8.00E+00,-3.69E+01,-3.84E+00,1.18E+01,1,1,0,FF,,,
AA55,1,2,556,1.36E+00,1.54E+02,2.88E+01,7.98E+00,-3.64E+01,-3.88E+00,1.17E+01,1,1,0,FF,,,
AA55,1,2,557,1.37E+00,1.54E+02,2.87E+01,7.97E+00,-3.60E+01,-3.92E+00,1.17E+01,1,1,0,FF,,,
AA55,1,2,558,1.37E+00,1.55E+02,2.87E+01,7.95E+00,-3.57E+01,-3.96E+00,1.16E+01,1,0,0,FF,,,
AA55,1,2,559,1.37E+00,1.55E+02,2.86E+01,7.93E+00,-3.54E+01,-4.00E+00,1.15E+01,1,0,0,FF,,,
AA55,1,2,560,1.37E+00,1.56E+02,2.85E+01,7.92E+00,-3.52E+01,-4.04E+00,1.15E+01,1,0,0,FF,,,
AA55,1,2,561,1.38E+00,1.56E+02,2.84E+01,7.90E+00,-3.51E+01,-4.08E+00,1.14E+01,1,0,0,FF,,,
AA55,1,2,562,1.38E+00,1.57E+02,2.83E+01,7.89E+00,-3.51E+01,-4.12E+00,1.13E+01,1,0,0,FF,,,
AA55,1,2,563,1.38E+00,1.57E+02,2.82E+01,7.87E+00,-3.51E+01,-4.16E+00,1.13E+01,1,1,0,FF,,,
AA55,1,2,564,1.38E+00,1.58E+02,2.81E+01,7.85E+00,-3.52E+01,-4.19E+00,1.12E+01,1,1,0,FF,,,
AA55,1,2,565,1.39E+00,1.59E+02,2.80E+01,7.83E+00,-3.54E+01,-4.21E+00,1.11E+01,1,1,0,FF,,,
AA55,1,2,566,1.39E+00,1.59E+02,2.79E+01,7.82E+00,-3.56E+01,-4.23E+00,1.11E+01,1,1,0,FF,,,
AA55,1,2,567,1.39E+00,1.60E+02,2.78E+01,7.80E+00,-3.59E+01,-4.24E+00,1.10E+01,1,1,0,FF,,,
AA55,1,2,568,1.39E+00,1.60E+02,2.77E+01,7.78E+00,-3.62E+01,-4.25E+00,1.09E+01,1,0,0,FF,,,
AA55,1,2,569,1.40E+00,1.61E+02,2.76E+01,7.76E+00,-3.66E+01,-4.24E+00,1.08E+01,1,0,0,FF,,,
AA55,1,2,570,1.40E+00,1.61E+02,2.75E+01,7.74E+00,-3.71E+01,-4.23E+00,1.07E+01,1,0,0,FF,,,
AA55,1,2,571,1.40E+00,1.62E+02,2.74E+01,7.72E+00,-3.75E+01,-4.20E+00,1.07E+01,1,0,0,FF,,,
AA55,1,2,572,1.40E+00,1.62E+02,2.73E+01,7.70E+00,-3.81E+01,-4.17E+00,1.06E+01,1,0,0,FF,,,
AA55,1,2,573,1.41E+00,1.63E+02,2.72E+01,7.68E+00,-3.86E+01,-4.12E+00,1.05E+01,1,0,0,FF,,,
AA55,1,2,574,1.41E+00,1.64E+02,2.72E+01,7.66E+00,-3.92E+01,-4.07E+00,1.04E+01,1,0,0,FF,,,
AA55,1,2,575,1.41E+00,1.64E+02,2.71E+01,7.64E+00,-3.98E+01,-4.00E+00,1.03E+01,1,0,0,FF,,,
AA55,1,2,576,1.41E+00,1.65E+02,2.70E+01,7.62E+00,-4.05E+01,-3.92E+00,1.02E+01,1,1,0,FF,,,
AA55,1,2,577,1.42E+00,1.65E+02,2.69E+01,7.60E+00,-4.12E+01,-3.84E+00,1.01E+01,1,1,0,FF,,,
AA55,1,2,578,1.42E+00,1.66E+02,2.68E+01,7.58E+00,-4.19E+01,-3.74E+00,9.99E+00,1,1,0,FF,,,
AA55,1,2,579,1.42E+00,1.66E+02,2.67E+01,7.56E+00,-4.26E+01,-3.64E+00,9.89E+00,1,1,0,FF,,,
AA55,1,2,580,1.42E+00,1.67E+02,2.66E+01,7.54E+00,-4.34E+01,-3.53E+00,9.79E+00,1,1,0,FF,,,
AA55,1,2,581,1.43E+00,1.67E+02,2.65E+01,7.52E+00,-4.42E+01,-3.41E+00,9.68E+00,1,0,0,FF,,,
AA55,1,2,582,1.43E+00,1.68E+02,2.64E+01,7.50E+00,-4.50E+01,-3.29E+00,9.58E+00,1,0,0,FF,,,
AA55,1,2,583,1.43E+00,1.69E+02,2.63E+01,7.47E+00,-4.58E+01,-3.16E+00,9.47E+00,1,0,0,FF,,,
AA55,1,2,584,1.43E+00,1.69E+02,2.62E+01,7.45E+00,-4.66E+01,-3.02E+00,9.37E+00,1,0,0,FF,,,
AA55,1,2,585,1.44E+00,1.70E+02,2.61E+01,7.43E+00,-4.74E+01,-2.89E+00,9.27E+00,1,0,0,FF,,,
AA55,1,2,586,1.44E+00,1.70E+02,2.60E+01,7.41E+00,-4.83E+01,-2.75E+00,9.17E+00,1,1,0,FF,,,
AA55,1,2,587,1.44E+00,1.71E+02,2.59E+01,7.39E+00,-4.91E+01,-2.61E+00,9.06E+00,1,1,0,FF,,,
AA55,1,2,588,1.44E+00,1.71E+02,2.58E+01,7.36E+00,-5.00E+01,-2.47E+00,8.96E+00,1,1,0,FF,,,
AA55,1,2,589,1.45E+00,1.72E+02,2.57E+01,7.34E+00,-5.08E+01,-2.32E+00,8.86E+00,1,1,0,FF,,,
AA55,1,2,590,1.45E+00,1.72E+02,2.56E+01,7.32E+00,-5.17E+01,-2.18E+00,8.76E+00,1,1,0,FF,,,
AA55,1,2,591,1.45E+00,1.73E+02,2.55E+01,7.29E+00,-5.26E+01,-2.04E+00,8.67E+00,1,0,0,FF,,,
AA55,1,2,592,1.45E+00,1.74E+02,2.54E+01,7.27E+00,-5.35E+01,-1.89E+00,8.57E+00,1,0,0,FF,,,
AA55,1,2,593,1.46E+00,1.74E+02,2.53E+01,7.25E+00,-5.44E+01,-1.75E+00,8.47E+00,1,0,0,FF,,,
AA55,1,2,594,1.46E+00,1.75E+02,2.52E+01,7.23E+00,-5.53E+01,-1.62E+00,8.38E+00,1,0,0,FF,,,
AA55,1,2,595,1.46E+00,1.75E+02,2.51E+01,7.20E+00,-5.61E+01,-1.48E+00,8.29E+00,1,0,0,FF,,,
AA55,1,2,596,1.46E+00,1.76E+02,2.50E+01,7.18E+00,-5.70E+01,-1.35E+00,8.20E+00,1,1,0,FF,,,
AA55,1,2,597,1.47E+00,1.76E+02,2.49E+01,7.16E+00,-5.79E+01,-1.22E+00,8.11E+00,1,1,0,FF,,,
AA55,1,2,598,1.47E+00,1.77E+02,2.48E+01,7.13E+00,-5.87E+01,-1.10E+00,8.03E+00,1,1,0,FF,,,
AA55,1,2,599,1.47E+00,1.78E+02,2.47E+01,7.11E+00,-5.96E+01,-9.82E-01,7.94E+00,1,1,0,FF,,,
AA55,1,2,600,1.47E+00,1.78E+02,2.46E+01,7.09E+00,-6.04E+01,-8.68E-01,7.86E+00,1,1,0,FF,,,
AA55,1,2,601,1.48E+00,1.79E+02,2.45E+01,7.07E+00,-6.12E+01,-7.60E-01,7.78E+00,1,0,0,FF,,,
AA55,1,2,602,1.48E+00,1.79E+02,2.44E+01,7.04E+00,-6.19E+01,-6.57E-01,7.71E+00,1,0,0,FF,,,
AA55,1,2,603,1.48E+00,1.80E+02,2.43E+01,7.02E+00,-6.26E+01,-5.60E-01,7.63E+00,1,0,0,FF,,,
AA55,1,2,604,1.48E+00,1.80E+02,2.42E+01,7.00E+00,-6.33E+01,-4.69E-01,7.56E+00,1,0,0,FF,,,
AA55,1,2,605,1.49E+00,1.81E+02,2.41E+01,6.97E+00,-6.40E+01,-3.84E-01,7.48E+00,1,0,0,FF,,,
AA55,1,2,606,1.49E+00,1.82E+02,2.40E+01,6.95E+00,-6.46E+01,-3.05E-01,7.41E+00,1,0,0,FF,,,
AA55,1,2,607,1.49E+00,1.82E+02,2.39E+01,6.93E+00,-6.52E+01,-2.32E-01,7.34E+00,1,0,0,FF,,,
AA55,1,2,608,1.49E+00,1.83E+02,2.38E+01,6.91E+00,-6.57E+01,-1.65E-01,7.27E+00,1,0,0,FF,,,
AA55,1,2,609,1.50E+00,1.83E+02,2.37E+01,6.88E+00,-6.62E+01,-1.04E-01,7.20E+00,1,1,0,FF,,,
AA55,1,2,610,1.50E+00,1.84E+02,2.36E+01,6.86E+00,-6.67E+01,-4.99E-02,7.13E+00,1,1,0,FF,,,
AA55,1,2,611,1.50E+00,1.85E+02,2.35E+01,6.84E+00,-6.71E+01,-1.26E-03,7.06E+00,1,1,0,FF,,,
AA55,1,2,612,1.50E+00,1.85E+02,2.34E+01,6.82E+00,-6.75E+01,4.16E-02,6.99E+00,1,1,0,FF,,,
AA55,1,2,613,1.50E+00,1.86E+02,2.33E+01,6.80E+00,-6.78E+01,7.87E-02,6.92E+00,1,1,0,FF,,,
AA55,1,2,614,1.51E+00,1.86E+02,2.32E+01,6.77E+00,-6.81E+01,1.10E-01,6.85E+00,1,0,0,FF,,,
AA55,1,2,615,1.51E+00,1.87E+02,2.31E+01,6.75E+00,-6.83E+01,1.37E-01,6.78E+00,1,0,0,FF,,,
AA55,1,2,616,1.51E+00,1.87E+02,2.30E+01,6.73E+00,-6.85E+01,1.58E-01,6.70E+00,1,0,0,FF,,,
AA55,1,2,617,1.51E+00,1.88E+02,2.29E+01,6.71E+00,-6.87E+01,1.74E-01,6.63E+00,1,0,0,FF,,,
AA55,1,2,618,1.52E+00,1.89E+02,2.28E+01,6.68E+00,-6.89E+01,1.87E-01,6.56E+00,1,0,0,FF,,,
AA55,1,2,619,1.52E+00,1.89E+02,2.28E+01,6.66E+00,-6.90E+01,1.94E-01,6.48E+00,1,1,0,FF,,,
AA55,1,2,620,1.52E+00,1.90E+02,2.27E+01,6.64E+00,-6.91E+01,1.98E-01,6.41E+00,1,1,0,FF,,,
AA55,1,2,621,1.52E+00,1.90E+02,2.26E+01,6.62E+00,-6.91E+01,1.98E-01,6.33E+00,1,1,0,FF,,,
AA55,1,2,622,1.53E+00,1.91E+02,2.25E+01,6.60E+00,-6.92E+01,1.95E-01,6.25E+00,1,1,0,FF,,,
AA55,1,2,623,1.53E+00,1.91E+02,2.24E+01,6.58E+00,-6.92E+01,1.88E-01,6.17E+00,1,1,0,FF,,,
AA55,1,2,624,1.53E+00,1.92E+02,2.23E+01,6.55E+00,-6.92E+01,1.78E-01,6.09E+00,1,0,0,FF,,,
AA55,1,2,625,1.53E+00,1.93E+02,2.22E+01,6.53E+00,-6.92E+01,1.66E-01,6.01E+00,1,0,0,FF,,,
AA55,1,2,626,1.54E+00,1.93E+02,2.21E+01,6.51E+00,-6.92E+01,1.51E-01,5.94E+00,1,0,0,FF,,,
AA55,1,2,627,1.54E+00,1.94E+02,2.20E+01,6.49E+00,-6.92E+01,1.34E-01,5.86E+00,1,0,0,FF,,,
AA55,1,2,628,1.54E+00,1.94E+02,2.19E+01,6.47E+00,-6.92E+01,1.15E-01,5.78E+00,1,0,0,FF,,,
AA55,1,2,629,1.54E+00,1.95E+02,2.18E+01,6.45E+00,-6.92E+01,9.47E-02,5.70E+00,1,1,0,FF,,,
AA55,1,2,630,1.55E+00,1.96E+02,2.17E+01,6.43E+00,-6.92E+01,7.27E-02,5.62E+00,1,1,0,FF,,,
AA55,1,2,631,1.55E+00,1.96E+02,2.16E+01,6.40E+00,-6.92E+01,4.96E-02,5.54E+00,1,1,0,FF,,,
AA55,1,2,632,1.55E+00,1.97E+02,2.15E+01,6.38E+00,-6.92E+01,2.57E-02,5.46E+00,1,1,0,FF,,,
AA55,1,2,633,1.55E+00,1.97E+02,2.14E+01,6.36E+00,-6.92E+01,1.05E-03,5.38E+00,1,1,0,FF,,,
AA55,1,2,634,1.56E+00,1.98E+02,2.14E+01,6.34E+00,-6.92E+01,-2.41E-02,5.31E+00,1,0,0,FF,,,
AA55,1,2,635,1.56E+00,1.98E+02,2.13E+01,6.32E+00,-6.92E+01,-4.94E-02,5.23E+00,1,0,0,FF,,,
AA55,1,2,636,1.56E+00,1.99E+02,2.12E+01,6.30E+00,-6.93E+01,-7.48E-02,5.15E+00,1,0,0,FF,,,
AA55,1,2,637,1.56E+00,2.00E+02,2.11E+01,6.28E+00,-6.93E+01,-1.00E-01,5.07E+00,1,0,0,FF,,,
AA55,1,2,638,1.57E+00,2.00E+02,2.10E+01,6.26E+00,-6.94E+01,-1.25E-01,5.00E+00,1,0,0,FF,,,
AA55,1,2,639,1.57E+00,2.01E+02,2.09E+01,6.24E+00,-6.95E+01,-1.50E-01,4.92E+00,1,0,0,FF,,,
AA55,1,2,640,1.57E+00,2.01E+02,2.08E+01,6.22E+00,-6.96E+01,-1.74E-01,4.84E+00,1,0,0,FF,,,
AA55,1,2,641,1.58E+00,2.02E+02,2.07E+01,6.20E+00,-6.98E+01,-1.98E-01,4.77E+00,1,0,0,FF,,,
AA55,1,2,642,1.58E+00,2.03E+02,2.06E+01,6.18E+00,-6.99E+01,-2.22E-01,4.69E+00,1,1,0,FF,,,
AA55,1,2,643,1.58E+00,2.03E+02,2.05E+01,6.16E+00,-7.01E+01,-2.45E-01,4.62E+00,1,1,0,FF,,,
AA55,1,2,644,1.58E+00,2.04E+02,2.05E+01,6.13E+00,-7.03E+01,-2.68E-01,4.55E+00,1,1,0,FF,,,
AA55,1,2,645,1.59E+00,2.04E+02,2.04E+01,6.11E+00,-7.05E+01,-2.90E-01,4.47E+00,1,1,0,FF,,,
AA55,1,2,646,1.59E+00,2.05E+02,2.03E+01,6.09E+00,-7.07E+01,-3.12E-01,4.40E+00,1,1,0,FF,,,
AA55,1,2,647,1.59E+00,2.05E+02,2.02E+01,6.07E+00,-7.10E+01,-3.34E-01,4.32E+00,1,0,0,FF,,,
AA55,1,2,648,1.59E+00,2.06E+02,2.01E+01,6.05E+00,-7.12E+01,-3.54E-01,4.25E+00,1,0,0,FF,,,
AA55,1,2,649,1.60E+00,2.07E+02,2.00E+01,6.03E+00,-7.15E+01,-3.74E-01,4.18E+00,1,0,0,FF,,,
AA55,1,2,650,1.60E+00,2.07E+02,1.99E+01,6.01E+00,-7.17E+01,-3.94E-01,4.11E+00,1,0,0,FF,,,
AA55,1,2,651,1.60E+00,2.08E+02,1.98E+01,5.99E+00,-7.20E+01,-4.13E-01,4.03E+00,1,0,0,FF,,,
AA55,1,2,652,1.60E+00,2.08E+02,1.98E+01,5.97E+00,-7.23E+01,-4.33E-01,3.96E+00,1,1,0,FF,,,
AA55,1,2,653,1.61E+00,2.09E+02,1.97E+01,5.95E+00,-7.26E+01,-4.52E-01,3.89E+00,1,1,0,FF,,,
AA55,1,2,654,1.61E+00,2.09E+02,1.96E+01,5.93E+00,-7.29E+01,-4.70E-01,3.82E+00,1,1,0,FF,,,
AA55,1,2,655,1.61E+00,2.10E+02,1.95E+01,5.91E+00,-7.32E+01,-4.89E-01,3.75E+00,1,1,0,FF,,,
AA55,1,2,656,1.61E+00,2.11E+02,1.94E+01,5.89E+00,-7.35E+01,-5.08E-01,3.68E+00,1,1,0,FF,,,
AA55,1,2,657,1.62E+00,2.11E+02,1.93E+01,5.87E+00,-7.38E+01,-5.27E-01,3.61E+00,1,0,0,FF,,,
AA55,1,2,658,1.62E+00,2.12E+02,1.93E+01,5.86E+00,-7.41E+01,-5.46E-01,3.54E+00,1,0,0,FF,,,
AA55,1,2,659,1.62E+00,2.12E+02,1.92E+01,5.84E+00,-7.44E+01,-5.65E-01,3.47E+00,1,0,0,FF,,,
AA55,1,2,660,1.62E+00,2.13E+02,1.91E+01,5.82E+00,-7.47E+01,-5.85E-01,3.40E+00,1,0,0,FF,,,
AA55,1,2,661,1.63E+00,2.14E+02,1.90E+01,5.80E+00,-7.50E+01,-6.05E-01,3.34E+00,1,0,0,FF,,,
AA55,1,2,662,1.63E+00,2.14E+02,1.89E+01,5.78E+00,-7.53E+01,-6.24E-01,3.27E+00,1,0,0,FF,,,
AA55,1,2,663,1.63E+00,2.15E+02,1.88E+01,5.76E+00,-7.56E+01,-6.44E-01,3.20E+00,1,0,0,FF,,,
AA55,1,2,664,1.63E+00,2.15E+02,1.88E+01,5.74E+00,-7.58E+01,-6.64E-01,3.14E+00,1,0,0,FF,,,
AA55,1,2,665,1.64E+00,2.16E+02,1.87E+01,5.72E+00,-7.61E+01,-6.85E-01,3.07E+00,1,1,0,FF,,,
AA55,1,2,666,1.64E+00,2.16E+02,1.86E+01,5.70E+00,-7.64E+01,-7.05E-01,3.01E+00,1,1,0,FF,,,
AA55,1,2,667,1.64E+00,2.17E+02,1.85E+01,5.68E+00,-7.66E+01,-7.25E-01,2.95E+00,1,1,0,FF,,,
AA55,1,2,668,1.64E+00,2.18E+02,1.84E+01,5.66E+00,-7.68E+01,-7.46E-01,2.89E+00,1,1,0,FF,,,
AA55,1,2,669,1.65E+00,2.18E+02,1.84E+01,5.64E+00,-7.71E+01,-7.67E-01,2.82E+00,1,1,0,FF,,,
AA55,1,2,670,1.65E+00,2.19E+02,1.83E+01,5.62E+00,-7.73E+01,-7.87E-01,2.76E+00,1,0,0,FF,,,
AA55,1,2,671,1.65E+00,2.19E+02,1.82E+01,5.60E+00,-7.75E+01,-8.08E-01,2.70E+00,1,0,0,FF,,,
AA55,1,2,672,1.65E+00,2.20E+02,1.81E+01,5.58E+00,-7.77E+01,-8.28E-01,2.64E+00,1,0,0,FF,,,
AA55,1,2,673,1.66E+00,2.21E+02,1.80E+01,5.57E+00,-7.80E+01,-8.49E-01,2.58E+00,1,0,0,FF,,,
AA55,1,2,674,1.66E+00,2.21E+02,1.80E+01,5.55E+00,-7.82E+01,-8.69E-01,2.52E+00,1,0,0,FF,,,
AA55,1,2,675,1.66E+00,2.22E+02,1.79E+01,5.53E+00,-7.84E+01,-8.89E-01,2.47E+00,1,1,0,FF,,,
AA55,1,2,676,1.66E+00,2.22E+02,1.78E+01,5.51E+00,-7.86E+01,-9.08E-01,2.41E+00,1,1,0,FF,,,
AA55,1,2,677,1.67E+00,2.23E+02,1.77E+01,5.49E+00,-7.87E+01,-9.28E-01,2.35E+00,1,1,0,FF,,,
AA55,1,2,678,1.67E+00,2.23E+02,1.77E+01,5.47E+00,-7.89E+01,-9.47E-01,2.30E+00,1,1,0,FF,,,
AA55,1,2,679,1.67E+00,2.24E+02,1.76E+01,5.45E+00,-7.91E+01,-9.66E-01,2.24E+00,1,1,0,FF,,,
AA55,1,2,680,1.67E+00,2.25E+02,1.75E+01,5.43E+00,-7.93E+01,-9.85E-01,2.18E+00,1,0,0,FF,,,
