#Header,Sender ID,Target ID,MSG Counter,Time, Object X,Object Y,Object Z,Object Roll,Object Pitch,Object Yaw,Smoke,Object Model,spare,CheckSum
AA55,1,2,0,-101,0,5,0,0,2,0,0,1,0,FF
AA55,1,2,1,-91,0,3.087579587,-0.75012668,0,-0.712280915,-0.947190999,0,0,0,FF
AA55,1,2,2,-81,0,3.296837027,-0.67049252,0,-0.634457442,-0.844167224,0,1,0,FF
AA55,1,2,3,-71,0,3.506468804,-0.589824274,0,-0.556477426,-0.740773169,0,0,0,FF
AA55,1,2,4,-61,0,3.716381715,-0.508265437,0,-0.478360108,-0.637054187,0,1,0,FF
AA55,1,2,5,-51,0,3.926482598,-0.425960815,0,-0.400124762,-0.533055771,0,0,0,FF
AA55,1,2,6,-41,0,4.136678374,-0.343056267,0,-0.321790691,-0.42882354,0,1,0,FF
AA55,1,2,7,-31,0,4.346876084,-0.259698444,0,-0.243377222,-0.324403213,0,0,0,FF
AA55,1,2,8,-21,0,4.556982936,-0.176034534,0,-0.164903705,-0.219840592,0,1,0,FF
AA55,1,2,9,-11,0,4.76690634,-0.092211997,0,-0.086389499,-0.115181541,0,0,0,FF
AA55,1,2,10,-1,0,4.976553954,-0.00837831,0,-0.007853978,-0.010471968,0,1,0,FF
AA55,1,2,11,9,0.0018225,5.185833721,0.075319296,0,0.07068348,0.094242199,0,0,0,FF
AA55,1,2,12,19,0.0081225,5.394653912,0.158734092,0,0.149203499,0.198915027,0,1,0,FF
AA55,1,2,13,29,0.0189225,5.602923163,0.241720111,0,0.227686703,0.303500605,0,0,0,FF
AA55,1,2,14,39,0.0342225,5.810550518,0.324132401,0,0.30611373,0.407953058,0,1,0,FF
AA55,1,2,15,49,0.0540225,6.017445468,0.405827279,0,0.384465227,0.512226569,0,0,0,FF
AA55,1,2,16,59,0.0783225,6.223517989,0.486662581,0,0.462721864,0.6162754,0,1,0,FF
AA55,1,2,17,69,0.1071225,6.428678584,0.566497913,0,0.540864331,0.720053913,0,0,0,FF
AA55,1,2,18,79,0.1404225,6.632838319,0.645194888,0,0.618873347,0.823516586,0,1,0,FF
AA55,1,2,19,89,0.1782225,6.835908862,0.722617371,0,0.696729666,0.926618038,0,0,0,FF
AA55,1,2,20,99,0.2205225,7.037802523,0.798631714,0,0.774414077,1.029313044,0,1,0,FF
AA55,1,2,21,109,0.2673225,7.23843229,0.873106985,0,0.851907413,1.131556559,0,0,0,FF
AA55,1,2,22,119,0.3186225,7.437711868,0.945915193,0,0.929190554,1.233303737,0,1,0,FF
AA55,1,2,23,129,0.3744225,7.635555714,1.016931512,0,1.006244431,1.334509947,0,0,0,FF
AA55,1,2,24,139,0.4347225,7.831879077,1.086034488,0,1.083050032,1.435130796,0,1,0,FF
AA55,1,2,25,149,0.4995225,8.026598031,1.153106253,0,1.159588407,1.53512215,0,0,0,FF
AA55,1,2,26,159,0.5688225,8.219629512,1.218032724,0,1.235840671,1.634440148,0,1,0,FF
AA55,1,2,27,169,0.6426225,8.410891354,1.280703794,0,1.311788009,1.733041227,0,0,0,FF
AA55,1,2,28,179,0.7209225,8.600302324,1.341013522,0,1.387411683,1.830882137,0,1,0,FF
AA55,1,2,29,189,0.8037225,8.787782155,1.398860311,0,1.462693035,1.927919961,0,0,0,FF
AA55,1,2,30,199,0.8910225,8.973251581,1.454147077,0,1.537613488,2.024112136,0,1,0,FF
AA55,1,2,31,209,0.9828225,9.156632372,1.506781414,0,1.612154559,2.119416469,0,0,0,FF
AA55,1,2,32,219,1.0791225,9.337847363,1.556675748,0,1.686297854,2.213791155,0,1,0,FF
AA55,1,2,33,229,1.1799225,9.516820491,1.603747479,0,1.760025081,2.3071948,0,0,0,FF
AA55,1,2,34,239,1.2852225,9.693476824,1.647919121,0,1.833318048,2.399586432,0,1,0,FF
AA55,1,2,35,249,1.3950225,9.867742591,1.689118428,0,1.906158671,2.490925527,0,0,0,FF
AA55,1,2,36,259,1.5093225,10.03954522,1.727278511,0,1.978528978,2.581172019,0,1,0,FF
AA55,1,2,37,269,1.6281225,10.20881335,1.762337945,0,2.050411113,2.670286324,0,0,0,FF
AA55,1,2,38,279,1.7514225,10.37547689,1.794240869,0,2.121787339,2.758229353,0,1,0,FF
AA55,1,2,39,289,1.8792225,10.53946703,1.822937073,0,2.192640046,2.844962532,0,0,0,FF
AA55,1,2,40,299,2.0115225,10.70071625,1.848382077,0,2.262951752,2.930447816,0,1,0,FF
AA55,1,2,41,309,2.1483225,10.85915839,1.870537196,0,2.332705109,3.014647708,0,0,0,FF
AA55,1,2,42,319,2.2896225,11.01472864,1.889369601,0,2.401882905,3.097525277,0,1,0,FF
AA55,1,2,43,329,2.4354225,11.1673636,1.904852364,0,2.470468073,3.179044169,0,0,0,FF
AA55,1,2,44,339,2.5857225,11.31700128,1.916964496,0,2.538443689,3.259168627,0,1,0,FF
AA55,1,2,45,349,2.7405225,11.46358112,1.925690969,0,2.605792983,3.337863505,0,0,0,FF
AA55,1,2,46,359,2.8998225,11.60704403,1.931022737,0,2.672499336,3.415094287,0,1,0,FF
AA55,1,2,47,369,3.0636225,11.74733243,1.932956737,0,2.73854629,3.490827095,0,0,0,FF
AA55,1,2,48,379,3.2319225,11.88439024,1.931495884,0,2.803917549,3.565028711,0,1,0,FF
AA55,1,2,49,389,3.4047225,12.0181629,1.926649058,0,2.868596983,3.637666588,0,0,0,FF
AA55,1,2,50,399,3.5820225,12.14859743,1.918431072,0,2.932568634,3.708708864,0,1,0,FF
AA55,1,2,51,409,3.7638225,12.27564242,1.906862639,0,2.995816717,3.778124377,0,0,0,FF
AA55,1,2,52,419,3.9501225,12.39924806,1.891970322,0,3.058325627,3.845882681,0,1,0,FF
AA55,1,2,53,429,4.1409225,12.51936615,1.87378648,0,3.120079941,3.911954053,0,0,0,FF
AA55,1,2,54,439,4.3362225,12.63595013,1.852349195,0,3.181064422,3.976309513,0,1,0,FF
AA55,1,2,55,449,4.5360225,12.74895509,1.827702199,0,3.241264023,4.038920832,0,0,0,FF
AA55,1,2,56,459,4.7403225,12.8583378,1.799894785,0,3.300663891,4.099760547,0,1,0,FF
AA55,1,2,57,469,4.9491225,12.96405671,1.76898171,0,3.359249369,4.158801971,0,0,0,FF
AA55,1,2,58,479,5.1624225,13.06607196,1.735023087,0,3.417006003,4.216019207,0,1,0,FF
AA55,1,2,59,489,5.3802225,13.16434542,1.698084272,0,3.473919542,4.271387158,0,0,0,FF
AA55,1,2,60,499,5.6025225,13.25884069,1.658235735,0,3.529975943,4.324881538,0,1,0,FF
AA55,1,2,61,509,5.8293225,13.34952312,1.615552933,0,3.585161375,4.376478881,0,0,0,FF
AA55,1,2,62,519,6.0606225,13.43635979,1.57011616,0,3.639462222,4.426156557,0,1,0,FF
AA55,1,2,63,529,6.2964225,13.51931957,1.522010403,0,3.692865087,4.473892773,0,0,0,FF
AA55,1,2,64,539,6.5367225,13.5983731,1.471325181,0,3.745356792,4.519666593,0,1,0,FF
AA55,1,2,65,549,6.7815225,13.67349281,1.418154379,0,3.796924386,4.563457937,0,0,0,FF
AA55,1,2,66,559,7.0308225,13.74465292,1.362596073,0,3.847555147,4.605247598,0,1,0,FF
AA55,1,2,67,569,7.2846225,13.81182946,1.304752356,0,3.89723658,4.645017245,0,0,0,FF
AA55,1,2,68,579,7.5429225,13.87500028,1.24472914,0,3.945956429,4.682749434,0,1,0,FF
AA55,1,2,69,589,7.8057225,13.93414502,1.182635973,0,3.993702672,4.718427614,0,0,0,FF
AA55,1,2,70,599,8.0730225,13.98924517,1.118585834,0,4.040463529,4.752036136,0,1,0,FF
AA55,1,2,71,609,8.3448225,14.04028404,1.052694927,0,4.086227462,4.783560258,0,0,0,FF
AA55,1,2,72,619,8.6211225,14.08724678,0.985082474,0,4.130983179,4.812986152,0,1,0,FF
AA55,1,2,73,629,8.9019225,14.13012036,0.915870495,0,4.174719638,4.840300911,0,0,0,FF
AA55,1,2,74,639,9.1872225,14.16889361,0.845183594,0,4.217426047,4.865492555,0,1,0,FF
AA55,1,2,75,649,9.4770225,14.20355718,0.773148728,0,4.25909187,4.888550033,0,0,0,FF
AA55,1,2,76,659,9.7713225,14.23410357,0.699894983,0,4.299706825,4.909463231,0,1,0,FF
AA55,1,2,77,669,10.0701225,14.26052712,0.625553343,0,4.339260892,4.928222976,0,0,0,FF
AA55,1,2,78,679,10.3734225,14.28282401,0.550256456,0,4.377744312,4.944821039,0,1,0,FF
AA55,1,2,79,689,10.6812225,14.30099225,0.474138393,0,4.415147588,4.959250141,0,0,0,FF
AA55,1,2,80,699,10.9935225,14.31503171,0.397334416,0,4.451461493,4.971503952,0,1,0,FF
AA55,1,2,81,709,11.3103225,14.32494406,0.319980733,0,4.486677067,4.981577097,0,0,0,FF
AA55,1,2,82,719,11.6316225,14.33073283,0.242214258,0,4.52078562,4.989465157,0,1,0,FF
AA55,1,2,83,729,11.9574225,14.33240333,0.164172368,0,4.553778736,4.995164673,0,0,0,FF
AA55,1,2,84,739,12.2877225,14.32996274,0.085992663,0,4.585648276,4.998673145,0,1,0,FF
AA55,1,2,85,749,12.6225225,14.32342,0.007812718,0,4.616386376,4.999989034,0,0,0,FF
AA55,1,2,86,759,12.9618225,14.31278589,-0.070230154,0,4.645985452,4.999111762,0,1,0,FF
AA55,1,2,87,769,13.3056225,14.29807297,-0.147999144,0,4.6744382,4.996041714,0,0,0,FF
AA55,1,2,88,779,13.6539225,14.27929559,-0.22535819,0,4.701737601,4.990780238,0,1,0,FF
AA55,1,2,89,789,14.0067225,14.25646987,-0.302172211,0,4.727876918,4.98332964,0,0,0,FF
AA55,1,2,90,799,14.3640225,14.2296137,-0.378307346,0,4.752849702,4.973693189,0,1,0,FF
AA55,1,2,91,809,14.7258225,14.19874672,-0.453631184,0,4.776649792,4.961875112,0,0,0,FF
AA55,1,2,92,819,15.0921225,14.16389032,-0.528013,0,4.799271315,4.947880593,0,1,0,FF
AA55,1,2,93,829,15.4629225,14.12506762,-0.601323975,0,4.820708689,4.93171577,0,0,0,FF
AA55,1,2,94,839,15.8382225,14.08230345,-0.673437423,0,4.840956626,4.913387733,0,1,0,FF
AA55,1,2,95,849,16.2180225,14.03562434,-0.744229009,0,4.860010129,4.892904522,0,0,0,FF
AA55,1,2,96,859,16.6023225,13.98505851,-0.813576963,0,4.877864497,4.870275121,0,1,0,FF
AA55,1,2,97,869,16.9911225,13.93063585,-0.881362291,0,4.894515326,4.845509456,0,0,0,FF
AA55,1,2,98,879,17.3844225,13.87238791,-0.947468977,0,4.909958506,4.818618391,0,1,0,FF
AA55,1,2,99,889,17.7822225,13.81034787,-1.011784181,0,4.924190227,4.789613721,0,0,0,FF
AA55,1,2,100,899,18.1845225,13.74455053,-1.074198435,0,4.937206978,4.758508168,0,1,0,FF
AA55,1,2,101,909,18.5913225,13.67503229,-1.134605825,0,4.949005546,4.725315376,0,0,0,FF
AA55,1,2,102,919,19.0026225,13.60183113,-1.192904173,0,4.959583022,4.690049904,0,1,0,FF
AA55,1,2,103,929,19.4184225,13.52498661,-1.248995211,0,4.968936795,4.652727222,0,0,0,FF
AA55,1,2,104,939,19.8387225,13.4445398,-1.30278474,0,4.977064557,4.613363699,0,1,0,FF
AA55,1,2,105,949,20.2635225,13.36053331,-1.354182796,0,4.983964303,4.571976603,0,0,0,FF
AA55,1,2,106,959,20.6928225,13.27301125,-1.403103794,0,4.98963433,4.528584087,0,1,0,FF
AA55,1,2,107,969,21.1266225,13.18201919,-1.449466674,0,4.99407324,4.483205184,0,0,0,FF
AA55,1,2,108,979,21.5649225,13.08760415,-1.493195033,0,4.997279937,4.435859799,0,1,0,FF
AA55,1,2,109,989,22.0077225,12.98981461,-1.53421725,0,4.99925363,4.386568699,0,0,0,FF
AA55,1,2,110,999,22.4550225,12.88870041,-1.572466603,0,4.999993831,4.335353506,0,1,0,FF
AA55,1,2,111,1009,22.78835583,12.78431281,-1.607881379,0,4.99950036,4.282236683,0,0,0,FF
AA55,1,2,112,1019,23.12168917,12.67670439,-1.640404969,0,4.997773336,4.227241529,0,1,0,FF
AA55,1,2,113,1029,23.4550225,12.56592908,-1.669985961,0,4.994813186,4.170392168,0,0,0,FF
AA55,1,2,114,1039,23.78835583,12.45204209,-1.696578219,0,4.990620641,4.111713535,0,1,0,FF
AA55,1,2,115,1049,24.12168917,12.33509993,-1.720140952,0,4.985196735,4.051231368,0,0,0,FF
AA55,1,2,116,1059,24.4550225,12.21516034,-1.740638779,0,4.978542807,3.988972198,0,1,0,FF
AA55,1,2,117,1069,24.78835583,12.09228227,-1.758041779,0,4.970660497,3.924963332,0,0,0,FF
AA55,1,2,118,1079,25.12168917,11.96652587,-1.77232553,0,4.961551751,3.859232848,0,1,0,FF
AA55,1,2,119,1089,25.4550225,11.83795246,-1.783471146,0,4.951218817,3.791809576,0,0,0,FF
AA55,1,2,120,1099,25.78835583,11.70662448,-1.791465297,0,4.939664243,3.722723092,0,1,0,FF
AA55,1,2,121,1109,26.12168917,11.57260545,-1.79630022,0,4.926890882,3.652003698,0,0,0,FF
AA55,1,2,122,1119,26.4550225,11.43596,-1.797973724,0,4.912901883,3.579682415,0,1,0,FF
AA55,1,2,123,1129,26.78835583,11.29675377,-1.796489182,0,4.8977007,3.505790965,0,0,0,FF
AA55,1,2,124,1139,27.12168917,11.15505342,-1.791855514,0,4.881291082,3.430361759,0,1,0,FF
AA55,1,2,125,1149,27.4550225,11.01092658,-1.78408716,0,4.863677079,3.353427883,0,0,0,FF
AA55,1,2,126,1159,27.78835583,10.86444183,-1.773204043,0,4.844863036,3.275023082,0,1,0,FF
AA55,1,2,127,1169,28.12168917,10.71566866,-1.759231525,0,4.824853596,3.195181749,0,0,0,FF
AA55,1,2,128,1179,28.4550225,10.56467743,-1.74220035,0,4.803653695,3.113938902,0,1,0,FF
AA55,1,2,129,1189,28.78835583,10.41153936,-1.72214658,0,4.781268565,3.03133018,0,0,0,FF
AA55,1,2,130,1199,29.12168917,10.25632647,-1.699111519,0,4.757703728,2.947391816,0,1,0,FF
AA55,1,2,131,1209,29.4550225,10.09911157,-1.673141631,0,4.732964999,2.862160628,0,0,0,FF
AA55,1,2,132,1219,29.78835583,9.939968202,-1.64428845,0,4.707058481,2.775674002,0,1,0,FF
AA55,1,2,133,1229,30.12168917,9.778970628,-1.612608476,0,4.679990568,2.687969874,0,0,0,FF
AA55,1,2,134,1239,30.4550225,9.616193781,-1.578163066,0,4.651767936,2.599086713,0,1,0,FF
AA55,1,2,135,1249,30.78835583,9.451713238,-1.541018317,0,4.622397551,2.509063507,0,0,0,FF
AA55,1,2,136,1259,31.12168917,9.285605179,-1.501244942,0,4.591886658,2.417939743,0,1,0,FF
AA55,1,2,137,1269,31.4550225,9.117946357,-1.458918131,0,4.560242786,2.32575539,0,0,0,FF
AA55,1,2,138,1279,31.78835583,8.94881406,-1.414117416,0,4.527473742,2.232550885,0,1,0,FF
AA55,1,2,139,1289,32.12168917,8.778286075,-1.366926516,0,4.493587612,2.138367108,0,0,0,FF
AA55,1,2,140,1299,32.4550225,8.606440655,-1.317433187,0,4.458592756,2.043245374,0,1,0,FF
AA55,1,2,141,1309,32.78835583,8.433356478,-1.265729054,0,4.42249781,1.947227404,0,0,0,FF
AA55,1,2,142,1319,33.12168917,8.259112619,-1.211909446,0,4.385311678,1.850355316,0,1,0,FF
AA55,1,2,143,1329,33.4550225,8.083788506,-1.156073218,0,4.347043536,1.752671601,0,0,0,FF
AA55,1,2,144,1339,33.78835583,7.907463888,-1.098322572,0,4.307702826,1.654219106,0,1,0,FF
AA55,1,2,145,1349,34.12168917,7.730218799,-1.038762868,0,4.267299255,1.555041016,0,0,0,FF
AA55,1,2,146,1359,34.4550225,7.552133519,-0.977502432,0,4.225842791,1.455180834,0,1,0,FF
AA55,1,2,147,1369,34.78835583,7.373288541,-0.914652364,0,4.183343665,1.354682361,0,0,0,FF
AA55,1,2,148,1379,35.12168917,7.193764531,-0.850326328,0,4.13981236,1.25358968,0,1,0,FF
AA55,1,2,149,1389,35.4550225,7.013642297,-0.784640357,0,4.095259619,1.151947133,0,0,0,FF
AA55,1,2,150,1399,35.78835583,6.833002745,-0.717712633,0,4.049696434,1.049799304,0,1,0,FF
AA55,1,2,151,1409,36.12168917,6.65192685,-0.649663285,0,4.003134047,0.947190999,0,0,0,FF
AA55,1,2,152,1419,36.4550225,6.470495616,-0.580614166,0,3.955583947,0.844167224,0,1,0,FF
AA55,1,2,153,1429,36.78835583,6.28879004,-0.510688638,0,3.907057865,0.740773169,0,0,0,FF
AA55,1,2,154,1439,37.12168917,6.106891077,-0.440011349,0,3.857567775,0.637054187,0,1,0,FF
AA55,1,2,155,1449,37.4550225,5.924879602,-0.368708017,0,3.807125888,0.533055771,0,0,0,FF
AA55,1,2,156,1459,37.78835583,5.742836378,-0.2969052,0,3.75574465,0.42882354,0,1,0,FF
AA55,1,2,157,1469,38.12168917,5.560842015,-0.224730072,0,3.703436738,0.324403213,0,0,0,FF
AA55,1,2,158,1479,38.4550225,5.378976937,-0.152310203,0,3.650215059,0.219840592,0,1,0,FF
AA55,1,2,159,1489,38.78835583,5.197321347,-0.079773328,0,3.596092743,0.115181541,0,0,0,FF
AA55,1,2,160,1499,39.12168917,5.015955191,-0.007247125,0,3.541083146,0.010471968,0,1,0,FF
AA55,1,2,161,1509,39.4550225,4.834958123,0.065141012,0,3.485199839,-0.094242199,0,0,0,FF
AA55,1,2,162,1519,39.78835583,4.654409468,0.137264197,0,3.428456611,-0.198915027,0,1,0,FF
AA55,1,2,163,1529,40.12168917,4.47438819,0.208996269,0,3.370867463,-0.303500605,0,0,0,FF
AA55,1,2,164,1539,40.4550225,4.294972857,0.280212021,0,3.312446603,-0.407953058,0,1,0,FF
AA55,1,2,165,1549,40.78835583,4.116241606,0.350787413,0,3.253208448,-0.512226569,0,0,0,FF
AA55,1,2,166,1559,41.12168917,3.938272109,0.420599788,0,3.193167611,-0.6162754,0,1,0,FF
AA55,1,2,167,1569,41.4550225,3.761141538,0.489528088,0,3.132338908,-0.720053913,0,0,0,FF
AA55,1,2,168,1579,41.78835583,3.584926535,0.557453063,0,3.070737348,-0.823516586,0,1,0,FF
AA55,1,2,169,1589,42.12168917,3.409703174,0.624257475,0,3.008378129,-0.926618038,0,0,0,FF
AA55,1,2,170,1599,42.4550225,3.235546935,0.689826304,0,2.945276638,-1.029313044,0,1,0,FF
AA55,1,2,171,1609,42.78835583,3.062532665,0.754046942,0,2.881448444,-1.131556559,0,0,0,FF
AA55,1,2,172,1619,43.12168917,2.890734546,0.816809389,0,2.816909295,-1.233303737,0,1,0,FF
AA55,1,2,173,1629,43.4550225,2.72022607,0.878006442,0,2.751675116,-1.334509947,0,0,0,FF
AA55,1,2,174,1639,43.78835583,2.55108,0.937533874,0,2.685762003,-1.435130796,0,1,0,FF
AA55,1,2,175,1649,44.12168917,2.383368343,0.995290616,0,2.619186218,-1.53512215,0,0,0,FF
AA55,1,2,176,1659,44.4550225,2.217162319,1.051178926,0,2.551964188,-1.634440148,0,1,0,FF
AA55,1,2,177,1669,44.78835583,2.052532328,1.105104553,0,2.484112499,-1.733041227,0,0,0,FF
AA55,1,2,178,1679,45.12168917,1.889547925,1.156976899,0,2.415647893,-1.830882137,0,1,0,FF
AA55,1,2,179,1689,45.4550225,1.728277786,1.206709169,0,2.346587261,-1.927919961,0,0,0,FF
AA55,1,2,180,1699,45.78835583,1.568789683,1.254218514,0,2.276947644,-2.024112136,0,1,0,FF
AA55,1,2,181,1709,46.12168917,1.411150453,1.299426174,0,2.206746225,-2.119416469,0,0,0,FF
AA55,1,2,182,1719,46.4550225,1.25542597,1.342257601,0,2.136000324,-2.213791155,0,1,0,FF
AA55,1,2,183,1729,46.78835583,1.10168112,1.382642587,0,2.064727396,-2.3071948,0,0,0,FF
AA55,1,2,184,1739,47.12168917,0.94997977,1.420515379,0,1.992945028,-2.399586432,0,1,0,FF
AA55,1,2,185,1749,47.4550225,0.800384746,1.455814778,0,1.920670931,-2.490925527,0,0,0,FF
AA55,1,2,186,1759,47.78835583,0.652957804,1.488484247,0,1.847922937,-2.581172019,0,1,0,FF
AA55,1,2,187,1769,48.12168917,0.507759606,1.518471993,0,1.774718996,-2.670286324,0,0,0,FF
AA55,1,2,188,1779,48.4550225,0.364849696,1.545731053,0,1.701077169,-2.758229353,0,1,0,FF
AA55,1,2,189,1789,48.78835583,0.224286471,1.570219364,0,1.627015627,-2.844962532,0,0,0,FF
AA55,1,2,190,1799,49.12168917,0.086127165,1.591899827,0,1.552552643,-2.930447816,0,1,0,FF
AA55,1,2,191,1809,49.4550225,-0.049572183,1.610740363,0,1.47770659,-3.014647708,0,0,0,FF
AA55,1,2,192,1819,49.78835583,-0.182756742,1.626713957,0,1.402495935,-3.097525277,0,1,0,FF
AA55,1,2,193,1829,50.12168917,-0.31337292,1.639798696,0,1.326939235,-3.179044169,0,0,0,FF
AA55,1,2,194,1839,50.4550225,-0.44136838,1.649977797,0,1.251055133,-3.259168627,0,1,0,FF
AA55,1,2,195,1849,50.78835583,-0.566692062,1.657239625,0,1.174862352,-3.337863505,0,0,0,FF
AA55,1,2,196,1859,51.12168917,-0.689294203,1.661577704,0,1.098379691,-3.415094287,0,1,0,FF
AA55,1,2,197,1869,51.4550225,-0.809126358,1.662990712,0,1.021626021,-3.490827095,0,0,0,FF
AA55,1,2,198,1879,51.78835583,-0.926141418,1.66148248,0,0.94462028,-3.565028711,0,1,0,FF
AA55,1,2,199,1889,52.12168917,-1.040293625,1.65706197,0,0.867381468,-3.637666588,0,0,0,FF
AA55,1,2,200,1899,52.4550225,-1.151538597,1.649743247,0,0.789928643,-3.708708864,0,1,0,FF
AA55,1,2,201,1909,52.78835583,-1.259833337,1.639545447,0,0.712280915,-3.778124377,0,0,0,FF
AA55,1,2,202,1919,53.12168917,-1.365136256,1.626492728,0,0.634457442,-3.845882681,0,1,0,FF
AA55,1,2,203,1929,53.4550225,-1.467407184,1.610614221,0,0.556477426,-3.911954053,0,0,0,FF
AA55,1,2,204,1939,53.78835583,-1.566607387,1.591943966,0,0.478360108,-3.976309513,0,1,0,FF
AA55,1,2,205,1949,54.12168917,-1.66269958,1.570520839,0,0.400124762,-4.038920832,0,0,0,FF
AA55,1,2,206,1959,54.4550225,-1.755647943,1.546388477,0,0.321790691,-4.099760547,0,1,0,FF
AA55,1,2,207,1969,54.78835583,-1.845418132,1.519595191,0,0.243377222,-4.158801971,0,0,0,FF
AA55,1,2,208,1979,55.12168917,-1.931977291,1.490193865,0,0.164903705,-4.216019207,0,1,0,FF
AA55,1,2,209,1989,55.4550225,-2.015294065,1.45824186,0,0.086389499,-4.271387158,0,0,0,FF
AA55,1,2,210,1999,55.78835583,-2.09533861,1.4238009,0,0.007853978,-4.324881538,0,1,0,FF
AA55,1,2,211,2009,56.12168917,-2.172082604,1.386936952,0,-0.07068348,-4.376478881,0,0,0,FF
AA55,1,2,212,2019,56.4550225,-2.245499253,1.347720103,0,-0.149203499,-4.426156557,0,1,0,FF
AA55,1,2,213,2029,56.78835583,-2.315563306,1.306224429,0,-0.227686703,-4.473892773,0,0,0,FF
AA55,1,2,214,2039,57.12168917,-2.382251057,1.262527852,0,-0.30611373,-4.519666593,0,1,0,FF
AA55,1,2,215,2049,57.4550225,-2.445540356,1.216711995,0,-0.384465227,-4.563457937,0,0,0,FF
AA55,1,2,216,2059,57.78835583,-2.505410615,1.168862035,0,-0.462721864,-4.605247598,0,1,0,FF
AA55,1,2,217,2069,58.12168917,-2.561842811,1.119066536,0,-0.540864331,-4.645017245,0,0,0,FF
AA55,1,2,218,2079,58.4550225,-2.614819495,1.067417297,0,-0.618873347,-4.682749434,0,1,0,FF
AA55,1,2,219,2089,58.78835583,-2.664324796,1.014009171,0,-0.696729666,-4.718427614,0,0,0,FF
AA55,1,2,220,2099,59.12168917,-2.710344421,0.958939902,0,-0.774414077,-4.752036136,0,1,0,FF
AA55,1,2,221,2109,59.4550225,-2.752865662,0.902309938,0,-0.851907413,-4.783560258,0,0,0,FF
AA55,1,2,222,2119,59.78835583,-2.791877398,0.844222254,0,-0.929190554,-4.812986152,0,1,0,FF
AA55,1,2,223,2129,60.12168917,-2.827370094,0.784782161,0,-1.006244431,-4.840300911,0,0,0,FF
AA55,1,2,224,2139,60.4550225,-2.859335803,0.724097119,0,-1.083050032,-4.865492555,0,1,0,FF
AA55,1,2,225,2149,60.78835583,-2.887768168,0.662276539,0,-1.159588407,-4.888550033,0,0,0,FF
AA55,1,2,226,2159,61.12168917,-2.91266242,0.599431588,0,-1.235840671,-4.909463231,0,1,0,FF
AA55,1,2,227,2169,61.4550225,-2.934015375,0.535674989,0,-1.311788009,-4.928222976,0,0,0,FF
AA55,1,2,228,2179,61.78835583,-2.951825436,0.47112082,0,-1.387411683,-4.944821039,0,1,0,FF
AA55,1,2,229,2189,62.12168917,-2.966092584,0.405884306,0,-1.462693035,-4.959250141,0,0,0,FF
AA55,1,2,230,2199,62.4550225,-2.976818384,0.340081618,0,-1.537613488,-4.971503952,0,1,0,FF
AA55,1,2,231,2209,62.78835583,-2.98400597,0.273829666,0,-1.612154559,-4.981577097,0,0,0,FF
AA55,1,2,232,2219,63.12168917,-2.98766005,0.207245886,0,-1.686297854,-4.989465157,0,1,0,FF
AA55,1,2,233,2229,63.4550225,-2.987786893,0.140448038,0,-1.760025081,-4.995164673,0,0,0,FF
AA55,1,2,234,2239,63.78835583,-2.984394329,0.073553994,0,-1.833318048,-4.998673145,0,1,0,FF
AA55,1,2,235,2249,64.12168917,-2.977491734,0.006681533,0,-1.906158671,-4.999989034,0,0,0,FF
AA55,1,2,236,2259,64.4550225,-2.967090034,-0.060051871,0,-1.978528978,-4.999111762,0,1,0,FF
AA55,1,2,237,2269,64.78835583,-2.953201684,-0.126529249,0,-2.050411113,-4.996041714,0,0,0,FF
AA55,1,2,238,2279,65.12168917,-2.93584067,-0.192634348,0,-2.121787339,-4.990780238,0,1,0,FF
AA55,1,2,239,2289,65.4550225,-2.915022491,-0.258251831,0,-2.192640046,-4.98332964,0,0,0,FF
AA55,1,2,240,2299,65.78835583,-2.890764155,-0.32326748,0,-2.262951752,-4.973693189,0,1,0,FF
AA55,1,2,241,2309,66.12168917,-2.863084164,-0.387568391,0,-2.332705109,-4.961875112,0,0,0,FF
AA55,1,2,242,2319,66.4550225,-2.832002505,-0.451043175,0,-2.401882905,-4.947880593,0,1,0,FF
AA55,1,2,243,2329,66.78835583,-2.797540635,-0.51358215,0,-2.470468073,-4.93171577,0,0,0,FF
AA55,1,2,244,2339,67.12168917,-2.759721472,-0.575077527,0,-2.538443689,-4.913387733,0,1,0,FF
AA55,1,2,245,2349,67.4550225,-2.718569378,-0.635423598,0,-2.605792983,-4.892904522,0,0,0,FF
AA55,1,2,246,2359,67.78835583,-2.674110146,-0.69451692,0,-2.672499336,-4.870275121,0,1,0,FF
AA55,1,2,247,2369,68.12168917,-2.626370987,-0.752256487,0,-2.73854629,-4.845509456,0,0,0,FF
AA55,1,2,248,2379,68.4550225,-2.575380513,-0.808543907,0,-2.803917549,-4.818618391,0,1,0,FF
AA55,1,2,249,2389,68.78835583,-2.521168719,-0.863283567,0,-2.868596983,-4.789613721,0,0,0,FF
AA55,1,2,250,2399,69.12168917,-2.463766972,-0.916382798,0,-2.932568634,-4.758508168,0,1,0,FF
AA55,1,2,251,2409,69.4550225,-2.403207988,-0.967752027,0,-2.995816717,-4.725315376,0,0,0,FF
AA55,1,2,252,2419,69.78835583,-2.33952582,-1.017304933,0,-3.058325627,-4.690049904,0,1,0,FF
AA55,1,2,253,2429,70.12168917,-2.272755835,-1.064958588,0,-3.120079941,-4.652727222,0,0,0,FF
AA55,1,2,254,2439,70.4550225,-2.202934697,-1.110633598,0,-3.181064422,-4.613363699,0,1,0,FF
AA55,1,2,255,2449,70.78835583,-2.130100348,-1.154254233,0,-3.241264023,-4.571976603,0,0,0,FF
AA55,1,2,256,2459,71.12168917,-2.054291989,-1.195748553,0,-3.300663891,-4.528584087,0,1,0,FF
AA55,1,2,257,2469,71.4550225,-1.975550057,-1.235048527,0,-3.359249369,-4.483205184,0,0,0,FF
AA55,1,2,258,2479,71.78835583,-1.893916206,-1.272090142,0,-3.417006003,-4.435859799,0,1,0,FF
AA55,1,2,259,2489,72.12168917,-1.809433286,-1.306813507,0,-3.473919542,-4.386568699,0,0,0,FF
AA55,1,2,260,2499,72.4550225,-1.722145321,-1.339162953,0,-3.529975943,-4.335353506,0,1,0,FF
AA55,1,2,261,2509,72.78835583,-1.632097484,-1.369087115,0,-3.585161375,-4.282236683,0,0,0,FF
AA55,1,2,262,2519,73.12168917,-1.539336077,-1.396539017,0,-3.639462222,-4.227241529,0,1,0,FF
AA55,1,2,263,2529,73.4550225,-1.443908507,-1.421476146,0,-3.692865087,-4.170392168,0,0,0,FF
AA55,1,2,264,2539,73.78835583,-1.345863263,-1.44386051,0,-3.745356792,-4.111713535,0,1,0,FF
AA55,1,2,265,2549,74.12168917,-1.24524989,-1.463658703,0,-3.796924386,-4.051231368,0,0,0,FF
AA55,1,2,266,2559,74.4550225,-1.142118965,-1.480841947,0,-3.847555147,-3.988972198,0,1,0,FF
AA55,1,2,267,2569,74.78835583,-1.036522073,-1.495386135,0,-3.89723658,-3.924963332,0,0,0,FF
AA55,1,2,268,2579,75.12168917,-0.928511782,-1.507271862,0,-3.945956429,-3.859232848,0,1,0,FF
AA55,1,2,269,2589,75.4550225,-0.818141613,-1.516484448,0,-3.993702672,-3.791809576,0,0,0,FF
AA55,1,2,270,2599,75.78835583,-0.705466021,-1.523013954,0,-4.040463529,-3.722723092,0,1,0,FF
AA55,1,2,271,2609,76.12168917,-0.590540361,-1.526855187,0,-4.086227462,-3.652003698,0,0,0,FF
AA55,1,2,272,2619,76.4550225,-0.473420867,-1.5280077,0,-4.130983179,-3.579682415,0,1,0,FF
AA55,1,2,273,2629,76.78835583,-0.35416462,-1.526475778,0,-4.174719638,-3.505790965,0,0,0,FF
AA55,1,2,274,2639,77.12168917,-0.232829525,-1.522268426,0,-4.217426047,-3.430361759,0,1,0,FF
AA55,1,2,275,2649,77.4550225,-0.10947428,-1.515399335,0,-4.25909187,-3.353427883,0,0,0,FF
AA55,1,2,276,2659,77.78835583,0.015841652,-1.505886851,0,-4.299706825,-3.275023082,0,1,0,FF
AA55,1,2,277,2669,78.12168917,0.143058069,-1.493753931,0,-4.339260892,-3.195181749,0,0,0,FF
AA55,1,2,278,2679,78.4550225,0.272114061,-1.479028092,0,-4.377744312,-3.113938902,0,1,0,FF
AA55,1,2,279,2689,78.78835583,0.40294804,-1.461741351,0,-4.415147588,-3.03133018,0,0,0,FF
AA55,1,2,280,2699,79.12168917,0.535497764,-1.441930159,0,-4.451461493,-2.947391816,0,1,0,FF
AA55,1,2,281,2709,79.4550225,0.669700374,-1.419635323,0,-4.486677067,-2.862160628,0,0,0,FF
AA55,1,2,282,2719,79.78835583,0.805492416,-1.394901931,0,-4.52078562,-2.775674002,0,1,0,FF
AA55,1,2,283,2729,80.12168917,0.942809876,-1.367779254,0,-4.553778736,-2.687969874,0,0,0,FF
AA55,1,2,284,2739,80.4550225,1.08158821,-1.338320655,0,-4.585648276,-2.599086713,0,1,0,FF
AA55,1,2,285,2749,80.78835583,1.221762369,-1.306583482,0,-4.616386376,-2.509063507,0,0,0,FF
AA55,1,2,286,2759,81.12168917,1.363266837,-1.272628961,0,-4.645985452,-2.417939743,0,1,0,FF
AA55,1,2,287,2769,81.4550225,1.506035655,-1.236522075,0,-4.6744382,-2.32575539,0,0,0,FF
AA55,1,2,288,2779,81.78835583,1.650002454,-1.198331442,0,-4.701737601,-2.232550885,0,1,0,FF
AA55,1,2,289,2789,82.12168917,1.795100487,-1.158129187,0,-4.727876918,-2.138367108,0,0,0,FF
AA55,1,2,290,2799,82.4550225,1.94126266,-1.115990804,0,-4.752849702,-2.043245374,0,1,0,FF
AA55,1,2,291,2809,82.78835583,2.088421559,-1.071995015,0,-4.776649792,-1.947227404,0,0,0,FF
AA55,1,2,292,2819,83.12168917,2.236509484,-1.026223627,0,-4.799271315,-1.850355316,0,1,0,FF
AA55,1,2,293,2829,83.4550225,2.385458483,-0.978761375,0,-4.820708689,-1.752671601,0,0,0,FF
AA55,1,2,294,2839,83.78835583,2.535200376,-0.92969577,0,-4.840956626,-1.654219106,0,1,0,FF
AA55,1,2,295,2849,84.12168917,2.685666794,-0.879116935,0,-4.860010129,-1.555041016,0,0,0,FF
AA55,1,2,296,2859,84.4550225,2.836789201,-0.827117443,0,-4.877864497,-1.455180834,0,1,0,FF
AA55,1,2,297,2869,84.78835583,2.988498936,-0.773792143,0,-4.894515326,-1.354682361,0,0,0,FF
AA55,1,2,298,2879,85.12168917,3.140727236,-0.719237994,0,-4.909958506,-1.25358968,0,1,0,FF
AA55,1,2,299,2889,85.4550225,3.293405268,-0.663553882,0,-4.924190227,-1.151947133,0,0,0,FF
AA55,1,2,300,2899,85.78835583,3.446464166,-0.606840445,0,-4.937206978,-1.049799304,0,1,0,FF
AA55,1,2,301,2909,86.12168917,3.599835055,-0.549199891,0,-4.949005546,-0.947190999,0,0,0,FF
AA55,1,2,302,2919,86.4550225,3.753449084,-0.490735812,0,-4.959583022,-0.844167224,0,1,0,FF
AA55,1,2,303,2929,86.78835583,3.907237461,-0.431553002,0,-4.968936795,-0.740773169,0,0,0,FF
AA55,1,2,304,2939,87.12168917,4.061131478,-0.371757262,0,-4.977064557,-0.637054187,0,1,0,FF
AA55,1,2,305,2949,87.4550225,4.215062545,-0.31145522,0,-4.983964303,-0.533055771,0,0,0,FF
AA55,1,2,306,2959,87.78835583,4.368962219,-0.250754132,0,-4.98963433,-0.42882354,0,1,0,FF
AA55,1,2,307,2969,88.12168917,4.522762237,-0.1897617,0,-4.99407324,-0.324403213,0,0,0,FF
AA55,1,2,308,2979,88.4550225,4.676394543,-0.128585872,0,-4.997279937,-0.219840592,0,1,0,FF
AA55,1,2,309,2989,88.78835583,4.82979132,-0.06733466,0,-4.99925363,-0.115181541,0,0,0,FF
AA55,1,2,310,2999,89.12168917,4.982885019,-0.00611594,0,-4.999993831,-0.010471968,0,1,0,FF
AA55,1,2,311,3009,89.4550225,5.135608391,0.054962729,0,-4.99950036,0.094242199,0,0,0,FF
AA55,1,2,312,3019,89.78835583,5.287894513,0.115794301,0,-4.997773336,0.198915027,0,1,0,FF
AA55,1,2,313,3029,90.12168917,5.439676819,0.176272427,0,-4.994813186,0.303500605,0,0,0,FF
AA55,1,2,314,3039,90.4550225,5.590889131,0.236291642,0,-4.990620641,0.407953058,0,1,0,FF
AA55,1,2,315,3049,90.78835583,5.741465684,0.295747547,0,-4.985196735,0.512226569,0,0,0,FF
AA55,1,2,316,3059,91.12168917,5.89134116,0.354536994,0,-4.978542807,0.6162754,0,1,0,FF
AA55,1,2,317,3069,91.4550225,6.040450708,0.412558263,0,-4.970660497,0.720053913,0,0,0,FF
AA55,1,2,318,3079,91.78835583,6.188729982,0.469711238,0,-4.961551751,0.823516586,0,1,0,FF
AA55,1,2,319,3089,92.12168917,6.336115161,0.525897579,0,-4.951218817,0.926618038,0,0,0,FF
AA55,1,2,320,3099,92.4550225,6.48254298,0.581020893,0,-4.939664243,1.029313044,0,1,0,FF
AA55,1,2,321,3109,92.78835583,6.627950756,0.634986898,0,-4.926890882,1.131556559,0,0,0,FF
AA55,1,2,322,3119,93.12168917,6.772276417,0.687703585,0,-4.912901883,1.233303737,0,1,0,FF
AA55,1,2,323,3129,93.4550225,6.915458524,0.739081372,0,-4.8977007,1.334509947,0,0,0,FF
AA55,1,2,324,3139,93.78835583,7.057436303,0.78903326,0,-4.881291082,1.435130796,0,1,0,FF
AA55,1,2,325,3149,94.12168917,7.198149665,0.837474979,0,-4.863677079,1.53512215,0,0,0,FF
AA55,1,2,326,3159,94.4550225,7.337539235,0.884325128,0,-4.844863036,1.634440148,0,1,0,FF
AA55,1,2,327,3169,94.78835583,7.475546376,0.929505313,0,-4.824853596,1.733041227,0,0,0,FF
AA55,1,2,328,3179,95.12168917,7.612113214,0.972940277,0,-4.803653695,1.830882137,0,1,0,FF
AA55,1,2,329,3189,95.4550225,7.747182662,1.014558027,0,-4.781268565,1.927919961,0,0,0,FF
AA55,1,2,330,3199,95.78835583,7.880698442,1.054289952,0,-4.757703728,2.024112136,0,1,0,FF
AA55,1,2,331,3209,96.12168917,8.012605114,1.092070933,0,-4.732964999,2.119416469,0,0,0,FF
AA55,1,2,332,3219,96.4550225,8.14284809,1.127839454,0,-4.707058481,2.213791155,0,1,0,FF
AA55,1,2,333,3229,96.78835583,8.271373665,1.161537696,0,-4.679990568,2.3071948,0,0,0,FF
AA55,1,2,334,3239,97.12168917,8.398129034,1.193111636,0,-4.651767936,2.399586432,0,1,0,FF
AA55,1,2,335,3249,97.4550225,8.523062317,1.222511128,0,-4.622397551,2.490925527,0,0,0,FF
AA55,1,2,336,3259,97.78835583,8.646122576,1.249689983,0,-4.591886658,2.581172019,0,1,0,FF
AA55,1,2,337,3269,98.12168917,8.76725984,1.274606041,0,-4.560242786,2.670286324,0,0,0,FF
AA55,1,2,338,3279,98.4550225,8.886425121,1.297221238,0,-4.527473742,2.758229353,0,1,0,FF
AA55,1,2,339,3289,98.78835583,9.003570438,1.317501655,0,-4.493587612,2.844962532,0,0,0,FF
AA55,1,2,340,3299,99.12168917,9.118648833,1.335417578,0,-4.458592756,2.930447816,0,1,0,FF
AA55,1,2,341,3309,99.4550225,9.231614389,1.35094353,0,-4.42249781,3.014647708,0,0,0,FF
AA55,1,2,342,3319,99.78835583,9.342422254,1.364058312,0,-4.385311678,3.097525277,0,1,0,FF
AA55,1,2,343,3329,100.1216892,9.451028649,1.374745027,0,-4.347043536,3.179044169,0,0,0,FF
AA55,1,2,344,3339,100.4550225,9.557390895,1.382991098,0,-4.307702826,3.259168627,0,1,0,FF
AA55,1,2,345,3349,100.7883558,9.661467423,1.388788282,0,-4.267299255,3.337863505,0,0,0,FF
AA55,1,2,346,3359,101.1216892,9.763217791,1.392132671,0,-4.225842791,3.415094287,0,1,0,FF
AA55,1,2,347,3369,101.4550225,9.862602703,1.393024687,0,-4.183343665,3.490827095,0,0,0,FF
AA55,1,2,348,3379,101.7883558,9.95958402,1.391469076,0,-4.13981236,3.565028711,0,1,0,FF
AA55,1,2,349,3389,102.1216892,10.05412477,1.387474882,0,-4.095259619,3.637666588,0,0,0,FF
AA55,1,2,350,3399,102.4550225,10.14618919,1.381055422,0,-4.049696434,3.708708864,0,1,0,FF
AA55,1,2,351,3409,102.7883558,10.23574268,1.372228254,0,-4.003134047,3.778124377,0,0,0,FF
AA55,1,2,352,3419,103.1216892,10.32275188,1.361015134,0,-3.955583947,3.845882681,0,1,0,FF
AA55,1,2,353,3429,103.4550225,10.40718465,1.347441963,0,-3.907057865,3.911954053,0,0,0,FF
AA55,1,2,354,3439,103.7883558,10.48901008,1.331538737,0,-3.857567775,3.976309513,0,1,0,FF
AA55,1,2,355,3449,104.1216892,10.5681985,1.313339479,0,-3.807125888,4.038920832,0,0,0,FF
AA55,1,2,356,3459,104.4550225,10.64472152,1.29288217,0,-3.75574465,4.099760547,0,1,0,FF
AA55,1,2,357,3469,104.7883558,10.718552,1.270208671,0,-3.703436738,4.158801971,0,0,0,FF
AA55,1,2,358,3479,105.1216892,10.78966407,1.245364643,0,-3.650215059,4.216019207,0,1,0,FF
AA55,1,2,359,3489,105.4550225,10.85803315,1.218399449,0,-3.596092743,4.271387158,0,0,0,FF
AA55,1,2,360,3499,105.7883558,10.92363597,1.189366064,0,-3.541083146,4.324881538,0,1,0,FF
AA55,1,2,361,3509,106.1216892,10.98645054,1.15832097,0,-3.485199839,4.376478881,0,0,0,FF
AA55,1,2,362,3519,106.4550225,11.04645616,1.125324046,0,-3.428456611,4.426156557,0,1,0,FF
AA55,1,2,363,3529,106.7883558,11.10363349,1.090438455,0,-3.370867463,4.473892773,0,0,0,FF
AA55,1,2,364,3539,107.1216892,11.15796446,1.053730522,0,-3.312446603,4.519666593,0,1,0,FF
AA55,1,2,365,3549,107.4550225,11.20943235,1.015269612,0,-3.253208448,4.563457937,0,0,0,FF
AA55,1,2,366,3559,107.7883558,11.25802176,0.975127996,0,-3.193167611,4.605247598,0,1,0,FF
AA55,1,2,367,3569,108.1216892,11.30371861,0.933380717,0,-3.132338908,4.645017245,0,0,0,FF
AA55,1,2,368,3579,108.4550225,11.34651017,0.890105453,0,-3.070737348,4.682749434,0,1,0,FF
AA55,1,2,369,3589,108.7883558,11.38638503,0.845382369,0,-3.008378129,4.718427614,0,0,0,FF
AA55,1,2,370,3599,109.1216892,11.42333313,0.799293969,0,-2.945276638,4.752036136,0,1,0,FF
AA55,1,2,371,3609,109.4550225,11.45734574,0.751924948,0,-2.881448444,4.783560258,0,0,0,FF
AA55,1,2,372,3619,109.7883558,11.48841548,0.703362033,0,-2.816909295,4.812986152,0,1,0,FF
AA55,1,2,373,3629,110.1216892,11.51653629,0.653693827,0,-2.751675116,4.840300911,0,0,0,FF
AA55,1,2,374,3639,110.4550225,11.54170346,0.603010644,0,-2.685762003,4.865492555,0,1,0,FF
AA55,1,2,375,3649,110.7883558,11.56391363,0.551404351,0,-2.619186218,4.888550033,0,0,0,FF
AA55,1,2,376,3659,111.1216892,11.58316474,0.498968193,0,-2.551964188,4.909463231,0,1,0,FF
AA55,1,2,377,3669,111.4550225,11.59945611,0.445796635,0,-2.484112499,4.928222976,0,0,0,FF
AA55,1,2,378,3679,111.7883558,11.61278834,0.391985184,0,-2.415647893,4.944821039,0,1,0,FF
AA55,1,2,379,3689,112.1216892,11.62316339,0.337630218,0,-2.346587261,4.959250141,0,0,0,FF
AA55,1,2,380,3699,112.4550225,11.63058453,0.282828821,0,-2.276947644,4.971503952,0,1,0,FF
AA55,1,2,381,3709,112.7883558,11.63505635,0.227678599,0,-2.206746225,4.981577097,0,0,0,FF
AA55,1,2,382,3719,113.1216892,11.63658475,0.172277514,0,-2.136000324,4.989465157,0,1,0,FF
AA55,1,2,383,3729,113.4550225,11.63517694,0.116723707,0,-2.064727396,4.995164673,0,0,0,FF
AA55,1,2,384,3739,113.7883558,11.6308414,0.061115325,0,-1.992945028,4.998673145,0,1,0,FF
AA55,1,2,385,3749,114.1216892,11.62358795,0.005550348,0,-1.920670931,4.999989034,0,0,0,FF
AA55,1,2,386,3759,114.4550225,11.61342766,-0.049873588,0,-1.847922937,4.999111762,0,1,0,FF
AA55,1,2,387,3769,114.7883558,11.60037288,-0.105059354,0,-1.774718996,4.996041714,0,0,0,FF
AA55,1,2,388,3779,115.1216892,11.58443724,-0.159910507,0,-1.701077169,4.990780238,0,1,0,FF
AA55,1,2,389,3789,115.4550225,11.5656356,-0.214331452,0,-1.627015627,4.98332964,0,0,0,FF
AA55,1,2,390,3799,115.7883558,11.54398411,-0.268227614,0,-1.552552643,4.973693189,0,1,0,FF
AA55,1,2,391,3809,116.1216892,11.5195001,-0.321505597,0,-1.47770659,4.961875112,0,0,0,FF
AA55,1,2,392,3819,116.4550225,11.49220218,-0.37407335,0,-1.402495935,4.947880593,0,1,0,FF
AA55,1,2,393,3829,116.7883558,11.46211015,-0.425840325,0,-1.326939235,4.93171577,0,0,0,FF
AA55,1,2,394,3839,117.1216892,11.42924499,-0.476717631,0,-1.251055133,4.913387733,0,1,0,FF
AA55,1,2,395,3849,117.4550225,11.39362892,-0.526618188,0,-1.174862352,4.892904522,0,0,0,FF
AA55,1,2,396,3859,117.7883558,11.35528529,-0.575456877,0,-1.098379691,4.870275121,0,1,0,FF
AA55,1,2,397,3869,118.1216892,11.31423863,-0.623150682,0,-1.021626021,4.845509456,0,0,0,FF
AA55,1,2,398,3879,118.4550225,11.27051462,-0.669618837,0,-0.94462028,4.818618391,0,1,0,FF
AA55,1,2,399,3889,118.7883558,11.22414008,-0.714782954,0,-0.867381468,4.789613721,0,0,0,FF
AA55,1,2,400,3899,119.1216892,11.17514293,-0.758567161,0,-0.789928643,4.758508168,0,1,0,FF
AA55,1,2,401,3909,119.4550225,11.1235522,-0.800898229,0,-0.712280915,4.725315376,0,0,0,FF
AA55,1,2,402,3919,119.7883558,11.06939802,-0.841705693,0,-0.634457442,4.690049904,0,1,0,FF
AA55,1,2,403,3929,120.1216892,11.01271158,-0.880921966,0,-0.556477426,4.652727222,0,0,0,FF
AA55,1,2,404,3939,120.4550225,10.95352511,-0.918482457,0,-0.478360108,4.613363699,0,1,0,FF
AA55,1,2,405,3949,120.7883558,10.8918719,-0.954325671,0,-0.400124762,4.571976603,0,0,0,FF
AA55,1,2,406,3959,121.1216892,10.82778625,-0.988393313,0,-0.321790691,4.528584087,0,1,0,FF
AA55,1,2,407,3969,121.4550225,10.76130345,-1.02063038,0,-0.243377222,4.483205184,0,0,0,FF
AA55,1,2,408,3979,121.7883558,10.69245978,-1.05098525,0,-0.164903705,4.435859799,0,1,0,FF
AA55,1,2,409,3989,122.1216892,10.62129249,-1.079409765,0,-0.086389499,4.386568699,0,0,0,FF
AA55,1,2,410,3999,122.4550225,10.54783976,-1.105859303,0,-0.007853978,4.335353506,0,1,0,FF
AA55,1,2,411,4009,122.7883558,10.47214069,-1.130292851,0,0.07068348,4.282236683,0,0,0,FF
AA55,1,2,412,4019,123.1216892,10.39423529,-1.152673066,0,0.149203499,4.227241529,0,1,0,FF
AA55,1,2,413,4029,123.4550225,10.31416447,-1.17296633,0,0.227686703,4.170392168,0,0,0,FF
AA55,1,2,414,4039,123.7883558,10.23196997,-1.191142801,0,0.30611373,4.111713535,0,1,0,FF
AA55,1,2,415,4049,124.1216892,10.14769438,-1.207176453,0,0.384465227,4.051231368,0,0,0,FF
AA55,1,2,416,4059,124.4550225,10.06138113,-1.221045114,0,0.462721864,3.988972198,0,1,0,FF
AA55,1,2,417,4069,124.7883558,9.973074419,-1.23273049,0,0.540864331,3.924963332,0,0,0,FF
AA55,1,2,418,4079,125.1216892,9.882819231,-1.242218193,0,0.618873347,3.859232848,0,1,0,FF
AA55,1,2,419,4089,125.4550225,9.790661306,-1.249497749,0,0.696729666,3.791809576,0,0,0,FF
AA55,1,2,420,4099,125.7883558,9.696647111,-1.254562611,0,0.774414077,3.722723092,0,1,0,FF
AA55,1,2,421,4109,126.1216892,9.600823816,-1.257410154,0,0.851907413,3.652003698,0,0,0,FF
AA55,1,2,422,4119,126.4550225,9.50323928,-1.258041675,0,0.929190554,3.579682415,0,1,0,FF
AA55,1,2,423,4129,126.7883558,9.403942017,-1.256462374,0,1.006244431,3.505790965,0,0,0,FF
AA55,1,2,424,4139,127.1216892,9.302981179,-1.252681337,0,1.083050032,3.430361759,0,1,0,FF
AA55,1,2,425,4149,127.4550225,9.200406529,-1.246711509,0,1.159588407,3.353427883,0,0,0,FF
AA55,1,2,426,4159,127.7883558,9.096268417,-1.238569658,0,1.235840671,3.275023082,0,1,0,FF
AA55,1,2,427,4169,128.1216892,8.990617758,-1.228276337,0,1.311788009,3.195181749,0,0,0,FF
AA55,1,2,428,4179,128.4550225,8.883506003,-1.215855834,0,1.387411683,3.113938902,0,1,0,FF
AA55,1,2,429,4189,128.7883558,8.774985119,-1.201336122,0,1.462693035,3.03133018,0,0,0,FF
AA55,1,2,430,4199,129.1216892,8.665107561,-1.184748799,0,1.537613488,2.947391816,0,1,0,FF
AA55,1,2,431,4209,129.4550225,8.553926246,-1.166129016,0,1.612154559,2.862160628,0,0,0,FF
AA55,1,2,432,4219,129.7883558,8.441494531,-1.145515412,0,1.686297854,2.775674002,0,1,0,FF
AA55,1,2,433,4229,130.1216892,8.327866186,-1.122950032,0,1.760025081,2.687969874,0,0,0,FF
AA55,1,2,434,4239,130.4550225,8.213095368,-1.098478243,0,1.833318048,2.599086713,0,1,0,FF
AA55,1,2,435,4249,130.7883558,8.097236593,-1.072148647,0,1.906158671,2.509063507,0,0,0,FF
AA55,1,2,436,4259,131.1216892,7.980344718,-1.04401298,0,1.978528978,2.417939743,0,1,0,FF
AA55,1,2,437,4269,131.4550225,7.862474907,-1.014126018,0,2.050411113,2.32575539,0,0,0,FF
AA55,1,2,438,4279,131.7883558,7.743682607,-0.982545468,0,2.121787339,2.232550885,0,1,0,FF
AA55,1,2,439,4289,132.1216892,7.624023527,-0.949331858,0,2.192640046,2.138367108,0,0,0,FF
AA55,1,2,440,4299,132.4550225,7.503553604,-0.91454842,0,2.262951752,2.043245374,0,1,0,FF
AA55,1,2,441,4309,132.7883558,7.382328985,-0.878260976,0,2.332705109,1.947227404,0,0,0,FF
AA55,1,2,442,4319,133.1216892,7.260405994,-0.840537808,0,2.401882905,1.850355316,0,1,0,FF
AA55,1,2,443,4329,133.4550225,7.137841112,-0.801449532,0,2.470468073,1.752671601,0,0,0,FF
AA55,1,2,444,4339,133.7883558,7.014690944,-0.761068968,0,2.538443689,1.654219106,0,1,0,FF
AA55,1,2,445,4349,134.1216892,6.891012201,-0.719471003,0,2.605792983,1.555041016,0,0,0,FF
AA55,1,2,446,4359,134.4550225,6.766861667,-0.676732453,0,2.672499336,1.455180834,0,1,0,FF
AA55,1,2,447,4369,134.7883558,6.642296177,-0.632931923,0,2.73854629,1.354682361,0,0,0,FF
AA55,1,2,448,4379,135.1216892,6.51737259,-0.58814966,0,2.803917549,1.25358968,0,1,0,FF
AA55,1,2,449,4389,135.4550225,6.392147761,-0.542467407,0,2.868596983,1.151947133,0,0,0,FF
AA55,1,2,450,4399,135.7883558,6.266678519,-0.495968256,0,2.932568634,1.049799304,0,1,0,FF
AA55,1,2,451,4409,136.1216892,6.141021638,-0.448736496,0,2.995816717,0.947190999,0,0,0,FF
AA55,1,2,452,4419,136.4550225,6.015233815,-0.400857458,0,3.058325627,0.844167224,0,1,0,FF
AA55,1,2,453,4429,136.7883558,5.889371639,-0.352417366,0,3.120079941,0.740773169,0,0,0,FF
AA55,1,2,454,4439,137.1216892,5.76349157,-0.303503175,0,3.181064422,0.637054187,0,1,0,FF
AA55,1,2,455,4449,137.4550225,5.637649912,-0.254202422,0,3.241264023,0.533055771,0,0,0,FF
AA55,1,2,456,4459,137.7883558,5.511902789,-0.204603065,0,3.300663891,0.42882354,0,1,0,FF
AA55,1,2,457,4469,138.1216892,5.386306118,-0.154793328,0,3.359249369,0.324403213,0,0,0,FF
AA55,1,2,458,4479,138.4550225,5.260915586,-0.104861542,0,3.417006003,0.219840592,0,1,0,FF
AA55,1,2,459,4489,138.7883558,5.135786624,-0.054895991,0,3.473919542,0.115181541,0,0,0,FF
AA55,1,2,460,4499,139.1216892,5.010974382,-0.004984755,0,3.529975943,0.010471968,0,1,0,FF
AA55,1,2,461,4509,139.4550225,4.886533709,0.044784446,0,3.585161375,-0.094242199,0,0,0,FF
AA55,1,2,462,4519,139.7883558,4.762519123,0.094324406,0,3.639462222,-0.198915027,0,1,0,FF
AA55,1,2,463,4529,140.1216892,4.63898479,0.143548586,0,3.692865087,-0.303500605,0,0,0,FF
AA55,1,2,464,4539,140.4550225,4.515984501,0.192371262,0,3.745356792,-0.407953058,0,1,0,FF
AA55,1,2,465,4549,140.7883558,4.393571646,0.240707681,0,3.796924386,-0.512226569,0,0,0,FF
AA55,1,2,466,4559,141.1216892,4.271799195,0.2884742,0,3.847555147,-0.6162754,0,1,0,FF
AA55,1,2,467,4569,141.4550225,4.150719671,0.335588438,0,3.89723658,-0.720053913,0,0,0,FF
AA55,1,2,468,4579,141.7883558,4.030385128,0.381969412,0,3.945956429,-0.823516586,0,1,0,FF
AA55,1,2,469,4589,142.1216892,3.910847132,0.427537683,0,3.993702672,-0.926618038,0,0,0,FF
AA55,1,2,470,4599,142.4550225,3.792156735,0.472215482,0,4.040463529,-1.029313044,0,1,0,FF
AA55,1,2,471,4609,142.7883558,3.674364455,0.515926855,0,4.086227462,-1.131556559,0,0,0,FF
AA55,1,2,472,4619,143.1216892,3.557520253,0.55859778,0,4.130983179,-1.233303737,0,1,0,FF
AA55,1,2,473,4629,143.4550225,3.441673516,0.600156302,0,4.174719638,-1.334509947,0,0,0,FF
AA55,1,2,474,4639,143.7883558,3.326873031,0.640532647,0,4.217426047,-1.435130796,0,1,0,FF
AA55,1,2,475,4649,144.1216892,3.213166966,0.679659343,0,4.25909187,-1.53512215,0,0,0,FF
AA55,1,2,476,4659,144.4550225,3.100602852,0.71747133,0,4.299706825,-1.634440148,0,1,0,FF
AA55,1,2,477,4669,144.7883558,2.989227563,0.753906072,0,4.339260892,-1.733041227,0,0,0,FF
AA55,1,2,478,4679,145.1216892,2.879087291,0.788903655,0,4.377744312,-1.830882137,0,1,0,FF
AA55,1,2,479,4689,145.4550225,2.770227536,0.822406886,0,4.415147588,-1.927919961,0,0,0,FF
AA55,1,2,480,4699,145.7883558,2.662693079,0.85436139,0,4.451461493,-2.024112136,0,1,0,FF
AA55,1,2,481,4709,146.1216892,2.556527968,0.884715693,0,4.486677067,-2.119416469,0,0,0,FF
AA55,1,2,482,4719,146.4550225,2.451775501,0.913421307,0,4.52078562,-2.213791155,0,1,0,FF
AA55,1,2,483,4729,146.7883558,2.348478203,0.940432805,0,4.553778736,-2.3071948,0,0,0,FF
AA55,1,2,484,4739,147.1216892,2.246677816,0.965707894,0,4.585648276,-2.399586432,0,1,0,FF
AA55,1,2,485,4749,147.4550225,2.146415276,0.989207477,0,4.616386376,-2.490925527,0,0,0,FF
AA55,1,2,486,4759,147.7883558,2.047730701,1.010895718,0,4.645985452,-2.581172019,0,1,0,FF
AA55,1,2,487,4769,148.1216892,1.950663373,1.03074009,0,4.6744382,-2.670286324,0,0,0,FF
AA55,1,2,488,4779,148.4550225,1.855251723,1.048711422,0,4.701737601,-2.758229353,0,1,0,FF
AA55,1,2,489,4789,148.7883558,1.761533315,1.064783947,0,4.727876918,-2.844962532,0,0,0,FF
AA55,1,2,490,4799,149.1216892,1.669544834,1.078935329,0,4.752849702,-2.930447816,0,1,0,FF
AA55,1,2,491,4809,149.4550225,1.57932207,1.091146697,0,4.776649792,-3.014647708,0,0,0,FF
AA55,1,2,492,4819,149.7883558,1.490899902,1.101402668,0,4.799271315,-3.097525277,0,1,0,FF
AA55,1,2,493,4829,150.1216892,1.404312291,1.109691359,0,4.820708689,-3.179044169,0,0,0,FF
AA55,1,2,494,4839,150.4550225,1.319592261,1.1160044,0,4.840956626,-3.259168627,0,1,0,FF
AA55,1,2,495,4849,150.7883558,1.236771889,1.120336939,0,4.860010129,-3.337863505,0,0,0,FF
AA55,1,2,496,4859,151.1216892,1.155882295,1.122687638,0,4.877864497,-3.415094287,0,1,0,FF
AA55,1,2,497,4869,151.4550225,1.076953628,1.123058663,0,4.894515326,-3.490827095,0,0,0,FF
AA55,1,2,498,4879,151.7883558,1.000015056,1.121455672,0,4.909958506,-3.565028711,0,1,0,FF
AA55,1,2,499,4889,152.1216892,0.925094756,1.117887793,0,4.924190227,-3.637666588,0,0,0,FF
AA55,1,2,500,4899,152.4550225,0.852219904,1.112367597,0,4.937206978,-3.708708864,0,1,0,FF
AA55,1,2,501,4909,152.7883558,0.781416664,1.104911062,0,4.949005546,-3.778124377,0,0,0,FF
AA55,1,2,502,4919,153.1216892,0.712710182,1.095537539,0,4.959583022,-3.845882681,0,1,0,FF
AA55,1,2,503,4929,153.4550225,0.646124575,1.084269705,0,4.968936795,-3.911954053,0,0,0,FF
AA55,1,2,504,4939,153.7883558,0.581682925,1.071133508,0,4.977064557,-3.976309513,0,1,0,FF
AA55,1,2,505,4949,154.1216892,0.519407269,1.056158119,0,4.983964303,-4.038920832,0,0,0,FF
AA55,1,2,506,4959,154.4550225,0.459318595,1.039375862,0,4.98963433,-4.099760547,0,1,0,FF
AA55,1,2,507,4969,154.7883558,0.401436835,1.020822152,0,4.99407324,-4.158801971,0,0,0,FF
AA55,1,2,508,4979,155.1216892,0.345780855,1.000535421,0,4.997279937,-4.216019207,0,1,0,FF
AA55,1,2,509,4989,155.4550225,0.292368456,0.978557038,0,4.99925363,-4.271387158,0,0,0,FF
AA55,1,2,510,4999,155.7883558,0.241216366,0.954931229,0,4.999993831,-4.324881538,0,1,0,FF
AA55,1,2,511,5009,156.1216892,0.192340233,0.92970499,0,4.99950036,-4.376478881,0,0,0,FF
AA55,1,2,512,5019,156.4550225,0.145754626,0.90292799,0,4.997773336,-4.426156557,0,1,0,FF
AA55,1,2,513,5029,156.7883558,0.101473029,0.874652481,0,4.994813186,-4.473892773,0,0,0,FF
AA55,1,2,514,5039,157.1216892,0.059507837,0.844933193,0,4.990620641,-4.519666593,0,1,0,FF
AA55,1,2,515,5049,157.4550225,0.019870358,0.813827229,0,4.985196735,-4.563457937,0,0,0,FF
AA55,1,2,516,5059,157.7883558,-0.017429196,0.781393957,0,4.978542807,-4.605247598,0,1,0,FF
AA55,1,2,517,5069,158.1216892,-0.052381701,0.747694898,0,4.970660497,-4.645017245,0,0,0,FF
AA55,1,2,518,5079,158.4550225,-0.084979131,0.71279361,0,4.961551751,-4.682749434,0,1,0,FF
AA55,1,2,519,5089,158.7883558,-0.115214553,0.676755567,0,4.951218817,-4.718427614,0,0,0,FF
AA55,1,2,520,5099,159.1216892,-0.143082128,0.639648036,0,4.939664243,-4.752036136,0,1,0,FF
AA55,1,2,521,5109,159.4550225,-0.168577108,0.601539958,0,4.926890882,-4.783560258,0,0,0,FF
AA55,1,2,522,5119,159.7883558,-0.191695841,0.562501813,0,4.912901883,-4.812986152,0,1,0,FF
AA55,1,2,523,5129,160.1216892,-0.212435764,0.522605493,0,4.8977007,-4.840300911,0,0,0,FF
AA55,1,2,524,5139,160.4550225,-0.230795401,0.48192417,0,4.881291082,-4.865492555,0,1,0,FF
AA55,1,2,525,5149,160.7883558,-0.246774362,0.440532162,0,4.863677079,-4.888550033,0,0,0,FF
AA55,1,2,526,5159,161.1216892,-0.260373341,0.398504799,0,4.844863036,-4.909463231,0,1,0,FF
AA55,1,2,527,5169,161.4550225,-0.271594109,0.355918282,0,4.824853596,-4.928222976,0,0,0,FF
AA55,1,2,528,5179,161.7883558,-0.280439511,0.312849548,0,4.803653695,-4.944821039,0,1,0,FF
AA55,1,2,529,5189,162.1216892,-0.286913464,0.269376131,0,4.781268565,-4.959250141,0,0,0,FF
AA55,1,2,530,5199,162.4550225,-0.291020948,0.225576023,0,4.757703728,-4.971503952,0,1,0,FF
AA55,1,2,531,5209,162.7883558,-0.292768003,0.181527531,0,4.732964999,-4.981577097,0,0,0,FF
AA55,1,2,532,5219,163.1216892,-0.29216172,0.137309142,0,4.707058481,-4.989465157,0,1,0,FF
AA55,1,2,533,5229,163.4550225,-0.28921024,0.092999376,0,4.679990568,-4.995164673,0,0,0,FF
AA55,1,2,534,5239,163.7883558,-0.283922741,0.048676657,0,4.651767936,-4.998673145,0,1,0,FF
AA55,1,2,535,5249,164.1216892,-0.276309432,0.004419163,0,4.622397551,-4.999989034,0,0,0,FF
AA55,1,2,536,5259,164.4550225,-0.266381548,-0.039695305,0,4.591886658,-4.999111762,0,1,0,FF
AA55,1,2,537,5269,164.7883558,-0.254151339,-0.083589459,0,4.560242786,-4.996041714,0,0,0,FF
AA55,1,2,538,5279,165.1216892,-0.239632062,-0.127186665,0,4.527473742,-4.990780238,0,1,0,FF
AA55,1,2,539,5289,165.4550225,-0.22283797,-0.170411072,0,4.493587612,-4.98332964,0,0,0,FF
AA55,1,2,540,5299,165.7883558,-0.203784307,-0.213187748,0,4.458592756,-4.973693189,0,1,0,FF
AA55,1,2,541,5309,166.1216892,-0.18248729,-0.255442803,0,4.42249781,-4.961875112,0,0,0,FF
AA55,1,2,542,5319,166.4550225,-0.158964107,-0.297103525,0,4.385311678,-4.947880593,0,1,0,FF
AA55,1,2,543,5329,166.7883558,-0.133232901,-0.3380985,0,4.347043536,-4.93171577,0,0,0,FF
AA55,1,2,544,5339,167.1216892,-0.105312759,-0.378357734,0,4.307702826,-4.913387733,0,1,0,FF
AA55,1,2,545,5349,167.4550225,-0.075223701,-0.417812777,0,4.267299255,-4.892904522,0,0,0,FF
AA55,1,2,546,5359,167.7883558,-0.042986668,-0.456396833,0,4.225842791,-4.870275121,0,1,0,FF
AA55,1,2,547,5369,168.1216892,-0.008623509,-0.494044878,0,4.183343665,-4.845509456,0,0,0,FF
AA55,1,2,548,5379,168.4550225,0.027843031,-0.530693767,0,4.13981236,-4.818618391,0,1,0,FF
AA55,1,2,549,5389,168.7883558,0.066389327,-0.56628234,0,4.095259619,-4.789613721,0,0,0,FF
AA55,1,2,550,5399,169.1216892,0.106990883,-0.600751524,0,4.049696434,-4.758508168,0,1,0,FF
AA55,1,2,551,5409,169.4550225,0.149622353,-0.634044432,0,4.003134047,-4.725315376,0,0,0,FF
AA55,1,2,552,5419,169.7883558,0.194257547,-0.666106452,0,3.955583947,-4.690049904,0,1,0,FF
AA55,1,2,553,5429,170.1216892,0.240869454,-0.696885343,0,3.907057865,-4.652727222,0,0,0,FF
AA55,1,2,554,5439,170.4550225,0.28943025,-0.726331315,0,3.857567775,-4.613363699,0,1,0,FF
AA55,1,2,555,5449,170.7883558,0.33991132,-0.754397109,0,3.807125888,-4.571976603,0,0,0,FF
AA55,1,2,556,5459,171.1216892,0.392283268,-0.781038073,0,3.75574465,-4.528584087,0,1,0,FF
AA55,1,2,557,5469,171.4550225,0.446515935,-0.806212233,0,3.703436738,-4.483205184,0,0,0,FF
AA55,1,2,558,5479,171.7883558,0.50257842,-0.829880359,0,3.650215059,-4.435859799,0,1,0,FF
AA55,1,2,559,5489,172.1216892,0.560439087,-0.852006022,0,3.596092743,-4.386568699,0,0,0,FF
AA55,1,2,560,5499,172.4550225,0.620065592,-0.872555652,0,3.541083146,-4.335353506,0,1,0,FF
AA55,1,2,561,5509,172.7883558,0.681424894,-0.891498586,0,3.485199839,-4.282236683,0,0,0,FF
AA55,1,2,562,5519,173.1216892,0.744483275,-0.908807114,0,3.428456611,-4.227241529,0,1,0,FF
AA55,1,2,563,5529,173.4550225,0.809206356,-0.924456514,0,3.370867463,-4.170392168,0,0,0,FF
AA55,1,2,564,5539,173.7883558,0.875559116,-0.938425092,0,3.312446603,-4.111713535,0,1,0,FF
AA55,1,2,565,5549,174.1216892,0.943505913,-0.950694204,0,3.253208448,-4.051231368,0,0,0,FF
AA55,1,2,566,5559,174.4550225,1.013010496,-0.961248281,0,3.193167611,-3.988972198,0,1,0,FF
AA55,1,2,567,5569,174.7883558,1.084036032,-0.970074846,0,3.132338908,-3.924963332,0,0,0,FF
AA55,1,2,568,5579,175.1216892,1.156545117,-0.977164525,0,3.070737348,-3.859232848,0,1,0,FF
AA55,1,2,569,5589,175.4550225,1.2304998,-0.982511051,0,3.008378129,-3.791809576,0,0,0,FF
AA55,1,2,570,5599,175.7883558,1.305861601,-0.986111267,0,2.945276638,-3.722723092,0,1,0,FF
AA55,1,2,571,5609,176.1216892,1.382591531,-0.987965121,0,2.881448444,-3.652003698,0,0,0,FF
AA55,1,2,572,5619,176.4550225,1.460650111,-0.98807565,0,2.816909295,-3.579682415,0,1,0,FF
AA55,1,2,573,5629,176.7883558,1.539997392,-0.98644897,0,2.751675116,-3.505790965,0,0,0,FF
AA55,1,2,574,5639,177.1216892,1.620592975,-0.983094249,0,2.685762003,-3.430361759,0,1,0,FF
AA55,1,2,575,5649,177.4550225,1.702396032,-0.978023684,0,2.619186218,-3.353427883,0,0,0,FF
AA55,1,2,576,5659,177.7883558,1.785365326,-0.971252466,0,2.551964188,-3.275023082,0,1,0,FF
AA55,1,2,577,5669,178.1216892,1.869459229,-0.962798742,0,2.484112499,-3.195181749,0,0,0,FF
AA55,1,2,578,5679,178.4550225,1.954635748,-0.952683575,0,2.415647893,-3.113938902,0,1,0,FF
AA55,1,2,579,5689,178.7883558,2.040852539,-0.940930894,0,2.346587261,-3.03133018,0,0,0,FF
AA55,1,2,580,5699,179.1216892,2.128066933,-0.927567439,0,2.276947644,-2.947391816,0,1,0,FF
AA55,1,2,581,5709,179.4550225,2.216235954,-0.912622708,0,2.206746225,-2.862160628,0,0,0,FF
AA55,1,2,582,5719,179.7883558,2.305316343,-0.896128893,0,2.136000324,-2.775674002,0,1,0,FF
AA55,1,2,583,5729,180.1216892,2.395264574,-0.87812081,0,2.064727396,-2.687969874,0,0,0,FF
AA55,1,2,584,5739,180.4550225,2.48603688,-0.858635832,0,1.992945028,-2.599086713,0,1,0,FF
AA55,1,2,585,5749,180.7883558,2.57758927,-0.837713812,0,1.920670931,-2.509063507,0,0,0,FF
AA55,1,2,586,5759,181.1216892,2.669877554,-0.815396999,0,1.847922937,-2.417939743,0,1,0,FF
AA55,1,2,587,5769,181.4550225,2.762857362,-0.791729962,0,1.774718996,-2.32575539,0,0,0,FF
AA55,1,2,588,5779,181.7883558,2.856484163,-0.766759494,0,1.701077169,-2.232550885,0,1,0,FF
AA55,1,2,589,5789,182.1216892,2.950713292,-0.740534528,0,1.627015627,-2.138367108,0,0,0,FF
AA55,1,2,590,5799,182.4550225,3.045499967,-0.713106037,0,1.552552643,-2.043245374,0,1,0,FF
AA55,1,2,591,5809,182.7883558,3.140799308,-0.684526937,0,1.47770659,-1.947227404,0,0,0,FF
AA55,1,2,592,5819,183.1216892,3.236566366,-0.654851989,0,1.402495935,-1.850355316,0,1,0,FF
AA55,1,2,593,5829,183.4550225,3.332756134,-0.624137688,0,1.326939235,-1.752671601,0,0,0,FF
AA55,1,2,594,5839,183.7883558,3.429323577,-0.592442165,0,1.251055133,-1.654219106,0,1,0,FF
AA55,1,2,595,5849,184.1216892,3.526223648,-0.55982507,0,1.174862352,-1.555041016,0,0,0,FF
AA55,1,2,596,5859,184.4550225,3.62341131,-0.526347464,0,1.098379691,-1.455180834,0,1,0,FF
AA55,1,2,597,5869,184.7883558,3.720841557,-0.492071703,0,1.021626021,-1.354682361,0,0,0,FF
AA55,1,2,598,5879,185.1216892,3.818469434,-0.457061326,0,0.94462028,-1.25358968,0,1,0,FF
AA55,1,2,599,5889,185.4550225,3.916250061,-0.421380932,0,0.867381468,-1.151947133,0,0,0,FF
AA55,1,2,600,5899,185.7883558,4.014138649,-0.385096068,0,0.789928643,-1.049799304,0,1,0,FF
AA55,1,2,601,5909,186.1216892,4.112090523,-0.348273102,0,0.712280915,-0.947190999,0,0,0,FF
AA55,1,2,602,5919,186.4550225,4.210061141,-0.310979105,0,0.634457442,-0.844167224,0,1,0,FF
AA55,1,2,603,5929,186.7883558,4.308006118,-0.27328173,0,0.556477426,-0.740773169,0,0,0,FF
AA55,1,2,604,5939,187.1216892,4.405881241,-0.235249088,0,0.478360108,-0.637054187,0,1,0,FF
AA55,1,2,605,5949,187.4550225,4.503642492,-0.196949624,0,0.400124762,-0.533055771,0,0,0,FF
AA55,1,2,606,5959,187.7883558,4.601246065,-0.158451998,0,0.321790691,-0.42882354,0,1,0,FF
AA55,1,2,607,5969,188.1216892,4.698648391,-0.119824955,0,0.243377222,-0.324403213,0,0,0,FF
AA55,1,2,608,5979,188.4550225,4.795806151,-0.081137211,0,0.164903705,-0.219840592,0,1,0,FF
AA55,1,2,609,5989,188.7883558,4.8926763,-0.042457322,0,0.086389499,-0.115181541,0,0,0,FF
AA55,1,2,610,5999,189.1216892,4.989216085,-0.00385357,0,0.007853978,-0.010471968,0,1,0,FF
AA55,1,2,611,6009,189.4550225,5.085383061,0.034606163,0,-0.07068348,0.094242199,0,0,0,FF
AA55,1,2,612,6019,189.7883558,5.181135114,0.072854511,0,-0.149203499,0.198915027,0,1,0,FF
AA55,1,2,613,6029,190.1216892,5.276430475,0.110824744,0,-0.227686703,0.303500605,0,0,0,FF
AA55,1,2,614,6039,190.4550225,5.371227744,0.148450883,0,-0.30611373,0.407953058,0,1,0,FF
AA55,1,2,615,6049,190.7883558,5.465485901,0.185667815,0,-0.384465227,0.512226569,0,0,0,FF
AA55,1,2,616,6059,191.1216892,5.55916433,0.222411406,0,-0.462721864,0.6162754,0,1,0,FF
AA55,1,2,617,6069,191.4550225,5.652222832,0.258618612,0,-0.540864331,0.720053913,0,0,0,FF
AA55,1,2,618,6079,191.7883558,5.744621645,0.294227587,0,-0.618873347,0.823516586,0,1,0,FF
AA55,1,2,619,6089,192.1216892,5.83632146,0.329177786,0,-0.696729666,0.926618038,0,0,0,FF
AA55,1,2,620,6099,192.4550225,5.927283437,0.363410072,0,-0.774414077,1.029313044,0,1,0,FF
AA55,1,2,621,6109,192.7883558,6.017469223,0.396866811,0,-0.851907413,1.131556559,0,0,0,FF
AA55,1,2,622,6119,193.1216892,6.106840966,0.429491976,0,-0.929190554,1.233303737,0,1,0,FF
AA55,1,2,623,6129,193.4550225,6.195361335,0.461231232,0,-1.006244431,1.334509947,0,0,0,FF
AA55,1,2,624,6139,193.7883558,6.282993529,0.492032033,0,-1.083050032,1.435130796,0,1,0,FF
AA55,1,2,625,6149,194.1216892,6.369701299,0.521843706,0,-1.159588407,1.53512215,0,0,0,FF
AA55,1,2,626,6159,194.4550225,6.455448957,0.550617533,0,-1.235840671,1.634440148,0,1,0,FF
AA55,1,2,627,6169,194.7883558,6.540201398,0.578306832,0,-1.311788009,1.733041227,0,0,0,FF
AA55,1,2,628,6179,195.1216892,6.623924104,0.604867032,0,-1.387411683,1.830882137,0,1,0,FF
AA55,1,2,629,6189,195.4550225,6.706583169,0.630255744,0,-1.462693035,1.927919961,0,0,0,FF
AA55,1,2,630,6199,195.7883558,6.788145304,0.654432827,0,-1.537613488,2.024112136,0,1,0,FF
AA55,1,2,631,6209,196.1216892,6.868577855,0.677360452,0,-1.612154559,2.119416469,0,0,0,FF
AA55,1,2,632,6219,196.4550225,6.947848816,0.69900316,0,-1.686297854,2.213791155,0,1,0,FF
AA55,1,2,633,6229,196.7883558,7.025926838,0.719327913,0,-1.760025081,2.3071948,0,0,0,FF
AA55,1,2,634,6239,197.1216892,7.102781245,0.738304151,0,-1.833318048,2.399586432,0,1,0,FF
AA55,1,2,635,6249,197.4550225,7.178382043,0.755903827,0,-1.906158671,2.490925527,0,0,0,FF
AA55,1,2,636,6259,197.7883558,7.252699936,0.772101454,0,-1.978528978,2.581172019,0,1,0,FF
AA55,1,2,637,6269,198.1216892,7.32570633,0.786874138,0,-2.050411113,2.670286324,0,0,0,FF
AA55,1,2,638,6279,198.4550225,7.397373351,0.800201606,0,-2.121787339,2.758229353,0,1,0,FF
AA55,1,2,639,6289,198.7883558,7.467673851,0.812066238,0,-2.192640046,2.844962532,0,0,0,FF
AA55,1,2,640,6299,199.1216892,7.536581419,0.822453079,0,-2.262951752,2.930447816,0,1,0,FF
AA55,1,2,641,6309,199.4550225,7.604070393,0.831349865,0,-2.332705109,3.014647708,0,0,0,FF
AA55,1,2,642,6319,199.7883558,7.670115866,0.838747024,0,-2.401882905,3.097525277,0,1,0,FF
AA55,1,2,643,6329,200.1216892,7.734693695,0.84463769,0,-2.470468073,3.179044169,0,0,0,FF
AA55,1,2,644,6339,200.4550225,7.797780511,0.849017701,0,-2.538443689,3.259168627,0,1,0,FF
AA55,1,2,645,6349,200.7883558,7.859353728,0.851885596,0,-2.605792983,3.337863505,0,0,0,FF
AA55,1,2,646,6359,201.1216892,7.91939155,0.853242605,0,-2.672499336,3.415094287,0,1,0,FF
AA55,1,2,647,6369,201.4550225,7.977872973,0.853092638,0,-2.73854629,3.490827095,0,0,0,FF
AA55,1,2,648,6379,201.7883558,8.034777802,0.851442268,0,-2.803917549,3.565028711,0,1,0,FF
AA55,1,2,649,6389,202.1216892,8.090086649,0.848300705,0,-2.868596983,3.637666588,0,0,0,FF
AA55,1,2,650,6399,202.4550225,8.143780943,0.843679771,0,-2.932568634,3.708708864,0,1,0,FF
AA55,1,2,651,6409,202.7883558,8.195842933,0.83759387,0,-2.995816717,3.778124377,0,0,0,FF
AA55,1,2,652,6419,203.1216892,8.246255698,0.830059945,0,-3.058325627,3.845882681,0,1,0,FF
AA55,1,2,653,6429,203.4550225,8.295003145,0.821097446,0,-3.120079941,3.911954053,0,0,0,FF
AA55,1,2,654,6439,203.7883558,8.34207002,0.810728279,0,-3.181064422,3.976309513,0,1,0,FF
AA55,1,2,655,6449,204.1216892,8.387441908,0.798976759,0,-3.241264023,4.038920832,0,0,0,FF
AA55,1,2,656,6459,204.4550225,8.431105238,0.785869554,0,-3.300663891,4.099760547,0,1,0,FF
AA55,1,2,657,6469,204.7883558,8.473047285,0.771435633,0,-3.359249369,4.158801971,0,0,0,FF
AA55,1,2,658,6479,205.1216892,8.513256176,0.755706199,0,-3.417006003,4.216019207,0,1,0,FF
AA55,1,2,659,6489,205.4550225,8.551720888,0.738714627,0,-3.473919542,4.271387158,0,0,0,FF
AA55,1,2,660,6499,205.7883558,8.588431252,0.720496394,0,-3.529975943,4.324881538,0,1,0,FF
AA55,1,2,661,6509,206.1216892,8.623377956,0.701089009,0,-3.585161375,4.376478881,0,0,0,FF
AA55,1,2,662,6519,206.4550225,8.656552542,0.680531933,0,-3.639462222,4.426156557,0,1,0,FF
AA55,1,2,663,6529,206.7883558,8.687947412,0.658866507,0,-3.692865087,4.473892773,0,0,0,FF
AA55,1,2,664,6539,207.1216892,8.717555825,0.636135864,0,-3.745356792,4.519666593,0,1,0,FF
AA55,1,2,665,6549,207.4550225,8.745371895,0.612384845,0,-3.796924386,4.563457937,0,0,0,FF
AA55,1,2,666,6559,207.7883558,8.771390597,0.587659918,0,-3.847555147,4.605247598,0,1,0,FF
AA55,1,2,667,6569,208.1216892,8.795607758,0.562009079,0,-3.89723658,4.645017245,0,0,0,FF
AA55,1,2,668,6579,208.4550225,8.818020062,0.535481767,0,-3.945956429,4.682749434,0,1,0,FF
AA55,1,2,669,6589,208.7883558,8.838625046,0.508128764,0,-3.993702672,4.718427614,0,0,0,FF
AA55,1,2,670,6599,209.1216892,8.857421095,0.480002104,0,-4.040463529,4.752036136,0,1,0,FF
